time_s,protocol,sequence,node_id,status_hex,status_bits,quat_w,quat_x,quat_y,quat_z,yaw_deg,yaw_unwrapped_deg,pitch_deg,roll_deg,imu0_accel_x_mg,imu0_accel_y_mg,imu0_accel_z_mg,imu0_gyro_x_dps,imu0_gyro_y_dps,imu0_gyro_z_dps,imu1_accel_x_mg,imu1_accel_y_mg,imu1_accel_z_mg,imu1_gyro_x_dps,imu1_gyro_y_dps,imu1_gyro_z_dps,guided_test_active,guided_test_step,guided_test_step_label,guided_test_step_status,guided_test_elapsed_s,guided_test_target_node,guided_test_target_label,guided_test_error_deg,guided_test_reference_node,guided_test_reference_label,palm_ref_quat_w,palm_ref_quat_x,palm_ref_quat_y,palm_ref_quat_z,palm_live_quat_w,palm_live_quat_x,palm_live_quat_y,palm_live_quat_z,relative_to_palm_quat_w,relative_to_palm_quat_x,relative_to_palm_quat_y,relative_to_palm_quat_z,relative_to_palm_yaw_deg,relative_to_palm_pitch_deg,relative_to_palm_roll_deg,raw_frame_hex
0.000,fused,,50,0x07,"IMU0_OK, IMU1_OK, FUSION_READY",0.379000,0.001100,-0.012400,-0.925200,-135.445,224.555,-0.422,1.363,,,,,,,,,,,,,0,,,Not running,,,,,,,,,,,0.999400,0.024600,0.021300,0.004400,0.374527,0.011430,-0.043237,-0.926137,-135.992,-0.643,5.086,b6 00 00 00 00 00 00 ce 0e 0b 00 84 ff dc db 07 32 82
0.001,fused,,20,0x07,"IMU0_OK, IMU1_OK, FUSION_READY",0.022500,-0.967500,0.251500,-0.002100,-29.129,-29.129,0.416,-177.443,,,,,,,,,,,,,0,,,Not running,,,,,,,,,,,0.999400,0.024600,0.021300,0.004400,0.004034,-0.966468,0.255114,-0.028997,-29.609,-3.095,-178.704,b6 00 00 00 00 00 00 e1 00 35 da d3 09 eb ff 07 14 d3
0.002,fused,,40,0x07,"IMU0_OK, IMU1_OK, FUSION_READY",0.843700,0.003800,0.018700,-0.536400,-64.904,-64.904,2.042,-0.783,,,,,,,,,,,,,0,,,Not running,,,,,,,,,,,0.999400,0.024600,0.021300,0.004400,0.841411,-0.005450,-0.012495,-0.540224,-65.408,-1.542,0.248,b6 00 00 00 00 00 00 f5 20 26 00 bb 00 0c eb 07 28 80
0.003,fused,,30,0x07,"IMU0_OK, IMU1_OK, FUSION_READY",0.589100,-0.013700,0.044200,-0.806700,-107.794,252.206,1.718,-5.019,,,,,,,,,,,,,0,,,Not running,,,,,,,,,,,0.999400,0.024600,0.021300,0.004400,0.585853,-0.010807,0.011842,-0.810259,-108.259,-0.208,-1.825,b6 00 00 00 00 00 00 03 17 77 ff ba 01 7d e0 07 1e a3
0.004,fused,,0,0x07,"IMU0_OK, IMU1_OK, FUSION_READY",0.999400,0.024700,0.021300,0.004400,0.565,0.565,2.428,2.843,,,,,,,,,,,,,0,,,Not running,,,,,,,,,,,0.999400,0.024700,0.021300,0.004400,1.000000,0.000000,0.000000,0.000000,0.000,0.000,0.000,b6 00 00 00 00 00 00 0a 27 f7 00 d5 00 2c 00 07 00 24
0.005,fused,,50,0x07,"IMU0_OK, IMU1_OK, FUSION_READY",0.379000,0.000900,-0.012500,-0.925200,-135.445,224.555,-0.447,1.365,,,,,,,,,,,,,0,,,Not running,,,,,,,,,,,0.999400,0.024700,0.021300,0.004400,0.374518,0.011192,-0.043429,-0.926134,-135.994,-0.676,5.096,b6 00 00 00 00 00 00 ce 0e 09 00 83 ff dc db 07 32 87
0.006,fused,,20,0x07,"IMU0_OK, IMU1_OK, FUSION_READY",0.022500,-0.967500,0.251500,-0.002100,-29.129,-29.129,0.416,-177.443,,,,,,,,,,,,,0,,,Not running,,,,,,,,,,,0.999400,0.024700,0.021300,0.004400,0.003938,-0.966468,0.255113,-0.029022,-29.608,-3.101,-178.714,b6 00 00 00 00 00 00 e1 00 35 da d3 09 eb ff 07 14 d3
0.008,fused,,40,0x07,"IMU0_OK, IMU1_OK, FUSION_READY",0.843700,0.003800,0.018700,-0.536400,-64.904,-64.904,2.042,-0.783,,,,,,,,,,,,,0,,,Not running,,,,,,,,,,,0.999400,0.024700,0.021300,0.004400,0.841409,-0.005535,-0.012549,-0.540225,-65.408,-1.553,0.243,b6 00 00 00 00 00 00 f5 20 26 00 bb 00 0c eb 07 28 80
0.009,fused,,30,0x07,"IMU0_OK, IMU1_OK, FUSION_READY",0.589100,-0.013700,0.044200,-0.806700,-107.794,252.206,1.718,-5.019,,,,,,,,,,,,,0,,,Not running,,,,,,,,,,,0.999400,0.024700,0.021300,0.004400,0.585850,-0.010866,0.011761,-0.810261,-108.260,-0.219,-1.822,b6 00 00 00 00 00 00 03 17 77 ff ba 01 7d e0 07 1e a3
0.010,fused,,0,0x07,"IMU0_OK, IMU1_OK, FUSION_READY",0.999400,0.024700,0.021300,0.004400,0.565,0.565,2.428,2.843,,,,,,,,,,,,,0,,,Not running,,,,,,,,,,,0.999400,0.024700,0.021300,0.004400,1.000000,0.000000,0.000000,0.000000,0.000,0.000,0.000,b6 00 00 00 00 00 00 0a 27 f7 00 d5 00 2c 00 07 00 24
0.011,fused,,50,0x07,"IMU0_OK, IMU1_OK, FUSION_READY",0.379000,0.001000,-0.012400,-0.925300,-135.456,224.544,-0.433,1.358,,,,,,,,,,,,,0,,,Not running,,,,,,,,,,,0.999400,0.024700,0.021300,0.004400,0.374488,0.011293,-0.043328,-0.926150,-135.998,-0.661,5.090,b6 00 00 00 00 00 00 ce 0e 0a 00 84 ff db db 07 32 84
0.012,fused,,20,0x07,"IMU0_OK, IMU1_OK, FUSION_READY",0.022400,-0.967500,0.251500,-0.002100,-29.129,-29.129,0.413,-177.454,,,,,,,,,,,,,0,,,Not running,,,,,,,,,,,0.999400,0.024700,0.021300,0.004400,0.003838,-0.966467,0.255116,-0.029021,-29.608,-3.103,-178.725,b6 00 00 00 00 00 00 e0 00 35 da d3 09 eb ff 07 14 d2
0.013,fused,,40,0x07,"IMU0_OK, IMU1_OK, FUSION_READY",0.843700,0.003800,0.018700,-0.536300,-64.889,-64.889,2.042,-0.782,,,,,,,,,,,,,0,,,Not running,,,,,,,,,,,0.999400,0.024700,0.021300,0.004400,0.841455,-0.005537,-0.012547,-0.540154,-65.398,-1.553,0.243,b6 00 00 00 00 00 00 f5 20 26 00 bb 00 0d eb 07 28 81
0.014,fused,,30,0x07,"IMU0_OK, IMU1_OK, FUSION_READY",0.589100,-0.013600,0.044100,-0.806600,-107.778,252.222,1.720,-5.003,,,,,,,,,,,,,0,,,Not running,,,,,,,,,,,0.999400,0.024700,0.021300,0.004400,0.585902,-0.010770,0.011665,-0.810227,-108.253,-0.217,-1.806,b6 00 00 00 00 00 00 03 17 78 ff b9 01 7e e0 07 1e ac
0.015,fused,,0,0x07,"IMU0_OK, IMU1_OK, FUSION_READY",0.999400,0.024700,0.021300,0.004400,0.565,0.565,2.428,2.843,,,,,,,,,,,,,0,,,Not running,,,,,,,,,,,0.999400,0.024700,0.021300,0.004400,1.000000,0.000000,0.000000,0.000000,0.000,0.000,0.000,b6 00 00 00 00 00 00 0a 27 f7 00 d5 00 2c 00 07 00 24
0.016,fused,,50,0x07,"IMU0_OK, IMU1_OK, FUSION_READY",0.378900,0.001200,-0.012300,-0.925300,-135.464,224.536,-0.407,1.356,,,,,,,,,,,,,0,,,Not running,,,,,,,,,,,0.999400,0.024700,0.021300,0.004400,0.374410,0.011496,-0.043228,-0.926184,-136.006,-0.635,5.088,b6 00 00 00 00 00 00 cd 0e 0c 00 85 ff db db 07 32 80
0.017,fused,,20,0x07,"IMU0_OK, IMU1_OK, FUSION_READY",0.022400,-0.967500,0.251500,-0.002100,-29.129,-29.129,0.413,-177.454,,,,,,,,,,,,,0,,,Not running,,,,,,,,,,,0.999400,0.024700,0.021300,0.004400,0.003838,-0.966467,0.255116,-0.029021,-29.608,-3.103,-178.725,b6 00 00 00 00 00 00 e0 00 35 da d3 09 eb ff 07 14 d2
0.017,fused,,40,0x07,"IMU0_OK, IMU1_OK, FUSION_READY",0.843700,0.003800,0.018700,-0.536300,-64.889,-64.889,2.042,-0.782,,,,,,,,,,,,,0,,,Not running,,,,,,,,,,,0.999400,0.024700,0.021300,0.004400,0.841455,-0.005537,-0.012547,-0.540154,-65.398,-1.553,0.243,b6 00 00 00 00 00 00 f5 20 26 00 bb 00 0d eb 07 28 81
0.018,fused,,30,0x07,"IMU0_OK, IMU1_OK, FUSION_READY",0.589100,-0.013700,0.044100,-0.806600,-107.778,252.222,1.711,-5.010,,,,,,,,,,,,,0,,,Not running,,,,,,,,,,,0.999400,0.024700,0.021300,0.004400,0.585899,-0.010870,0.011665,-0.810228,-108.253,-0.226,-1.813,b6 00 00 00 00 00 00 03 17 77 ff b9 01 7e e0 07 1e a3
0.023,fused,,0,0x07,"IMU0_OK, IMU1_OK, FUSION_READY",0.999400,0.024700,0.021300,0.004400,0.565,0.565,2.428,2.843,,,,,,,,,,,,,0,,,Not running,,,,,,,,,,,0.999400,0.024700,0.021300,0.004400,1.000000,0.000000,0.000000,0.000000,0.000,0.000,0.000,b6 00 00 00 00 00 00 0a 27 f7 00 d5 00 2c 00 07 00 24
0.024,fused,,50,0x07,"IMU0_OK, IMU1_OK, FUSION_READY",0.378900,0.001200,-0.012400,-0.925300,-135.464,224.536,-0.411,1.367,,,,,,,,,,,,,0,,,Not running,,,,,,,,,,,0.999400,0.024700,0.021300,0.004400,0.374407,0.011496,-0.043328,-0.926180,-136.007,-0.639,5.099,b6 00 00 00 00 00 00 cd 0e 0c 00 84 ff db db 07 32 81
0.025,fused,,20,0x07,"IMU0_OK, IMU1_OK, FUSION_READY",0.022500,-0.967500,0.251500,-0.002100,-29.129,-29.129,0.416,-177.443,,,,,,,,,,,,,0,,,Not running,,,,,,,,,,,0.999400,0.024700,0.021300,0.004400,0.003938,-0.966468,0.255113,-0.029022,-29.608,-3.101,-178.714,b6 00 00 00 00 00 00 e1 00 35 da d3 09 eb ff 07 14 d3
0.027,fused,,40,0x07,"IMU0_OK, IMU1_OK, FUSION_READY",0.843700,0.003800,0.018700,-0.536300,-64.889,-64.889,2.042,-0.782,,,,,,,,,,,,,0,,,Not running,,,,,,,,,,,0.999400,0.024700,0.021300,0.004400,0.841455,-0.005537,-0.012547,-0.540154,-65.398,-1.553,0.243,b6 00 00 00 00 00 00 f5 20 26 00 bb 00 0d eb 07 28 81
0.028,fused,,30,0x07,"IMU0_OK, IMU1_OK, FUSION_READY",0.589100,-0.013700,0.044200,-0.806600,-107.778,252.222,1.718,-5.019,,,,,,,,,,,,,0,,,Not running,,,,,,,,,,,0.999400,0.024700,0.021300,0.004400,0.585898,-0.010869,0.011765,-0.810226,-108.253,-0.219,-1.822,b6 00 00 00 00 00 00 03 17 77 ff ba 01 7e e0 07 1e a0
0.028,fused,,0,0x07,"IMU0_OK, IMU1_OK, FUSION_READY",0.999400,0.024700,0.021300,0.004400,0.565,0.565,2.428,2.843,,,,,,,,,,,,,0,,,Not running,,,,,,,,,,,0.999400,0.024700,0.021300,0.004400,1.000000,0.000000,0.000000,0.000000,0.000,0.000,0.000,b6 00 00 00 00 00 00 0a 27 f7 00 d5 00 2c 00 07 00 24
0.029,fused,,50,0x07,"IMU0_OK, IMU1_OK, FUSION_READY",0.378900,0.001000,-0.012500,-0.925300,-135.464,224.536,-0.437,1.369,,,,,,,,,,,,,0,,,Not running,,,,,,,,,,,0.999400,0.024700,0.021300,0.004400,0.374400,0.011296,-0.043427,-0.926181,-136.008,-0.664,5.101,b6 00 00 00 00 00 00 cd 0e 0a 00 83 ff db db 07 32 80
0.030,fused,,20,0x07,"IMU0_OK, IMU1_OK, FUSION_READY",0.022500,-0.967500,0.251500,-0.002100,-29.129,-29.129,0.416,-177.443,,,,,,,,,,,,,0,,,Not running,,,,,,,,,,,0.999400,0.024700,0.021300,0.004400,0.003938,-0.966468,0.255113,-0.029022,-29.608,-3.101,-178.714,b6 00 00 00 00 00 00 e1 00 35 da d3 09 eb ff 07 14 d3
0.031,fused,,40,0x07,"IMU0_OK, IMU1_OK, FUSION_READY",0.843700,0.003800,0.018700,-0.536300,-64.889,-64.889,2.042,-0.782,,,,,,,,,,,,,0,,,Not running,,,,,,,,,,,0.999400,0.024700,0.021300,0.004400,0.841455,-0.005537,-0.012547,-0.540154,-65.398,-1.553,0.243,b6 00 00 00 00 00 00 f5 20 26 00 bb 00 0d eb 07 28 81
0.032,fused,,30,0x07,"IMU0_OK, IMU1_OK, FUSION_READY",0.589100,-0.013700,0.044200,-0.806600,-107.778,252.222,1.718,-5.019,,,,,,,,,,,,,0,,,Not running,,,,,,,,,,,0.999400,0.024700,0.021300,0.004400,0.585898,-0.010869,0.011765,-0.810226,-108.253,-0.219,-1.822,b6 00 00 00 00 00 00 03 17 77 ff ba 01 7e e0 07 1e a0
0.033,fused,,0,0x07,"IMU0_OK, IMU1_OK, FUSION_READY",0.999400,0.024700,0.021200,0.004400,0.564,0.564,2.416,2.843,,,,,,,,,,,,,0,,,Not running,,,,,,,,,,,0.999400,0.024700,0.021200,0.004400,1.000000,0.000000,-0.000000,0.000000,0.000,-0.000,0.000,b6 00 00 00 00 00 00 0a 27 f7 00 d4 00 2c 00 07 00 25
0.034,fused,,50,0x07,"IMU0_OK, IMU1_OK, FUSION_READY",0.378900,0.001000,-0.012500,-0.925300,-135.464,224.536,-0.437,1.369,,,,,,,,,,,,,0,,,Not running,,,,,,,,,,,0.999400,0.024700,0.021200,0.004400,0.374402,0.011203,-0.043389,-0.926183,-136.009,-0.673,5.093,b6 00 00 00 00 00 00 cd 0e 0a 00 83 ff db db 07 32 80
0.037,fused,,20,0x07,"IMU0_OK, IMU1_OK, FUSION_READY",0.022400,-0.967500,0.251500,-0.002100,-29.129,-29.129,0.413,-177.454,,,,,,,,,,,,,0,,,Not running,,,,,,,,,,,0.999400,0.024700,0.021200,0.004400,0.003812,-0.966470,0.255118,-0.028925,-29.608,-3.093,-178.730,b6 00 00 00 00 00 00 e0 00 35 da d3 09 eb ff 07 14 d2
0.037,fused,,40,0x07,"IMU0_OK, IMU1_OK, FUSION_READY",0.843700,0.003800,0.018700,-0.536300,-64.889,-64.889,2.042,-0.782,,,,,,,,,,,,,0,,,Not running,,,,,,,,,,,0.999400,0.024700,0.021200,0.004400,0.841454,-0.005591,-0.012463,-0.540155,-65.398,-1.548,0.232,b6 00 00 00 00 00 00 f5 20 26 00 bb 00 0d eb 07 28 81
0.038,fused,,30,0x07,"IMU0_OK, IMU1_OK, FUSION_READY",0.589200,-0.013600,0.044100,-0.806600,-107.775,252.225,1.721,-5.003,,,,,,,,,,,,,0,,,Not running,,,,,,,,,,,0.999400,0.024700,0.021200,0.004400,0.585964,-0.010852,0.011721,-0.810180,-108.244,-0.221,-1.817,b6 00 00 00 00 00 00 04 17 78 ff b9 01 7e e0 07 1e ab
0.039,fused,,0,0x07,"IMU0_OK, IMU1_OK, FUSION_READY",0.999400,0.024700,0.021200,0.004400,0.564,0.564,2.416,2.843,,,,,,,,,,,,,0,,,Not running,,,,,,,,,,,0.999400,0.024700,0.021200,0.004400,1.000000,0.000000,-0.000000,0.000000,0.000,-0.000,0.000,b6 00 00 00 00 00 00 0a 27 f7 00 d4 00 2c 00 07 00 25
0.040,fused,,50,0x07,"IMU0_OK, IMU1_OK, FUSION_READY",0.378800,0.001100,-0.012400,-0.925300,-135.471,224.529,-0.422,1.363,,,,,,,,,,,,,0,,,Not running,,,,,,,,,,,0.999400,0.024700,0.021200,0.004400,0.374321,0.011306,-0.043289,-0.926219,-136.018,-0.657,5.087,b6 00 00 00 00 00 00 cc 0e 0b 00 84 ff db db 07 32 87
0.041,fused,,20,0x07,"IMU0_OK, IMU1_OK, FUSION_READY",0.022400,-0.967500,0.251500,-0.002100,-29.129,-29.129,0.413,-177.454,,,,,,,,,,,,,0,,,Not running,,,,,,,,,,,0.999400,0.024700,0.021200,0.004400,0.003812,-0.966470,0.255118,-0.028925,-29.608,-3.093,-178.730,b6 00 00 00 00 00 00 e0 00 35 da d3 09 eb ff 07 14 d2
0.042,fused,,40,0x07,"IMU0_OK, IMU1_OK, FUSION_READY",0.843700,0.003800,0.018700,-0.536300,-64.889,-64.889,2.042,-0.782,,,,,,,,,,,,,0,,,Not running,,,,,,,,,,,0.999400,0.024700,0.021200,0.004400,0.841454,-0.005591,-0.012463,-0.540155,-65.398,-1.548,0.232,b6 00 00 00 00 00 00 f5 20 26 00 bb 00 0d eb 07 28 81
0.043,fused,,30,0x07,"IMU0_OK, IMU1_OK, FUSION_READY",0.589200,-0.013600,0.044100,-0.806600,-107.775,252.225,1.721,-5.003,,,,,,,,,,,,,0,,,Not running,,,,,,,,,,,0.999400,0.024700,0.021200,0.004400,0.585964,-0.010852,0.011721,-0.810180,-108.244,-0.221,-1.817,b6 00 00 00 00 00 00 04 17 78 ff b9 01 7e e0 07 1e ab
0.044,fused,,0,0x07,"IMU0_OK, IMU1_OK, FUSION_READY",0.999400,0.024700,0.021200,0.004400,0.564,0.564,2.416,2.843,,,,,,,,,,,,,0,,,Not running,,,,,,,,,,,0.999400,0.024700,0.021200,0.004400,1.000000,0.000000,-0.000000,0.000000,0.000,-0.000,0.000,b6 00 00 00 00 00 00 0a 27 f7 00 d4 00 2c 00 07 00 25
0.045,fused,,50,0x07,"IMU0_OK, IMU1_OK, FUSION_READY",0.378800,0.001200,-0.012300,-0.925300,-135.471,224.529,-0.407,1.356,,,,,,,,,,,,,0,,,Not running,,,,,,,,,,,0.999400,0.024700,0.021200,0.004400,0.374326,0.011407,-0.043190,-0.926221,-136.017,-0.642,5.080,b6 00 00 00 00 00 00 cc 0e 0c 00 85 ff db db 07 32 81
0.046,fused,,20,0x07,"IMU0_OK, IMU1_OK, FUSION_READY",0.022500,-0.967500,0.251500,-0.002100,-29.129,-29.129,0.416,-177.443,,,,,,,,,,,,,0,,,Not running,,,,,,,,,,,0.999400,0.024700,0.021200,0.004400,0.003912,-0.966470,0.255116,-0.028925,-29.608,-3.091,-178.719,b6 00 00 00 00 00 00 e1 00 35 da d3 09 eb ff 07 14 d3
0.046,fused,,40,0x07,"IMU0_OK, IMU1_OK, FUSION_READY",0.843800,0.003800,0.018700,-0.536300,-64.891,-64.891,2.042,-0.782,,,,,,,,,,,,,0,,,Not running,,,,,,,,,,,0.999400,0.024700,0.021200,0.004400,0.841483,-0.005593,-0.012464,-0.540110,-65.392,-1.548,0.232,b6 00 00 00 00 00 00 f6 20 26 00 bb 00 0d eb 07 28 82
0.047,fused,,30,0x07,"IMU0_OK, IMU1_OK, FUSION_READY",0.589200,-0.013700,0.044200,-0.806600,-107.776,252.224,1.718,-5.019,,,,,,,,,,,,,0,,,Not running,,,,,,,,,,,0.999400,0.024700,0.021200,0.004400,0.585960,-0.010952,0.011821,-0.810180,-108.244,-0.223,-1.833,b6 00 00 00 00 00 00 04 17 77 ff ba 01 7e e0 07 1e a7
0.048,fused,,0,0x07,"IMU0_OK, IMU1_OK, FUSION_READY",0.999400,0.024700,0.021200,0.004400,0.564,0.564,2.416,2.843,,,,,,,,,,,,,0,,,Not running,,,,,,,,,,,0.999400,0.024700,0.021200,0.004400,1.000000,0.000000,-0.000000,0.000000,0.000,-0.000,0.000,b6 00 00 00 00 00 00 0a 27 f7 00 d4 00 2c 00 07 00 25
0.049,fused,,50,0x07,"IMU0_OK, IMU1_OK, FUSION_READY",0.378800,0.001000,-0.012500,-0.925300,-135.472,224.528,-0.437,1.369,,,,,,,,,,,,,0,,,Not running,,,,,,,,,,,0.999400,0.024700,0.021200,0.004400,0.374316,0.011206,-0.043389,-0.926218,-136.019,-0.672,5.093,b6 00 00 00 00 00 00 cc 0e 0a 00 83 ff db db 07 32 81
0.050,fused,,20,0x07,"IMU0_OK, IMU1_OK, FUSION_READY",0.022500,-0.967500,0.251500,-0.002100,-29.129,-29.129,0.416,-177.443,,,,,,,,,,,,,0,,,Not running,,,,,,,,,,,0.999400,0.024700,0.021200,0.004400,0.003912,-0.966470,0.255116,-0.028925,-29.608,-3.091,-178.719,b6 00 00 00 00 00 00 e1 00 35 da d3 09 eb ff 07 14 d3
0.051,fused,,40,0x07,"IMU0_OK, IMU1_OK, FUSION_READY",0.843800,0.003800,0.018700,-0.536200,-64.876,-64.876,2.042,-0.782,,,,,,,,,,,,,0,,,Not running,,,,,,,,,,,0.999400,0.024700,0.021200,0.004400,0.841529,-0.005595,-0.012462,-0.540039,-65.383,-1.548,0.232,b6 00 00 00 00 00 00 f6 20 26 00 bb 00 0e eb 07 28 81
0.052,fused,,30,0x07,"IMU0_OK, IMU1_OK, FUSION_READY",0.589200,-0.013700,0.044100,-0.806600,-107.775,252.225,1.711,-5.010,,,,,,,,,,,,,0,,,Not running,,,,,,,,,,,0.999400,0.024700,0.021200,0.004400,0.585961,-0.010952,0.011721,-0.810181,-108.244,-0.230,-1.824,b6 00 00 00 00 00 00 04 17 77 ff b9 01 7e e0 07 1e a4
0.052,fused,,0,0x07,"IMU0_OK, IMU1_OK, FUSION_READY",0.999400,0.024700,0.021200,0.004400,0.564,0.564,2.416,2.843,,,,,,,,,,,,,0,,,Not running,,,,,,,,,,,0.999400,0.024700,0.021200,0.004400,1.000000,0.000000,-0.000000,0.000000,0.000,-0.000,0.000,b6 00 00 00 00 00 00 0a 27 f7 00 d4 00 2c 00 07 00 25
0.053,fused,,50,0x07,"IMU0_OK, IMU1_OK, FUSION_READY",0.378700,0.001000,-0.012500,-0.925400,-135.491,224.509,-0.436,1.369,,,,,,,,,,,,,0,,,Not running,,,,,,,,,,,0.999400,0.024700,0.021200,0.004400,0.374195,0.011210,-0.043387,-0.926267,-136.034,-0.671,5.093,b6 00 00 00 00 00 00 cb 0e 0a 00 83 ff da db 07 32 87
0.054,fused,,20,0x07,"IMU0_OK, IMU1_OK, FUSION_READY",0.022500,-0.967500,0.251500,-0.002100,-29.129,-29.129,0.416,-177.443,,,,,,,,,,,,,0,,,Not running,,,,,,,,,,,0.999400,0.024700,0.021200,0.004400,0.003912,-0.966470,0.255116,-0.028925,-29.608,-3.091,-178.719,b6 00 00 00 00 00 00 e1 00 35 da d3 09 eb ff 07 14 d3
0.054,fused,,40,0x07,"IMU0_OK, IMU1_OK, FUSION_READY",0.843800,0.003800,0.018700,-0.536200,-64.876,-64.876,2.042,-0.782,,,,,,,,,,,,,0,,,Not running,,,,,,,,,,,0.999400,0.024700,0.021200,0.004400,0.841529,-0.005595,-0.012462,-0.540039,-65.383,-1.548,0.232,b6 00 00 00 00 00 00 f6 20 26 00 bb 00 0e eb 07 28 81
0.055,fused,,30,0x07,"IMU0_OK, IMU1_OK, FUSION_READY",0.589300,-0.013600,0.044000,-0.806500,-107.756,252.244,1.715,-4.993,,,,,,,,,,,,,0,,,Not running,,,,,,,,,,,0.999400,0.024700,0.021200,0.004400,0.586078,-0.010858,0.011621,-0.810099,-108.228,-0.227,-1.808,b6 00 00 00 00 00 00 05 17 78 ff b8 01 7f e0 07 1e aa
0.056,fused,,0,0x07,"IMU0_OK, IMU1_OK, FUSION_READY",0.999400,0.024700,0.021200,0.004400,0.564,0.564,2.416,2.843,,,,,,,,,,,,,0,,,Not running,,,,,,,,,,,0.999400,0.024700,0.021200,0.004400,1.000000,0.000000,-0.000000,0.000000,0.000,-0.000,0.000,b6 00 00 00 00 00 00 0a 27 f7 00 d4 00 2c 00 07 00 25
0.057,fused,,50,0x07,"IMU0_OK, IMU1_OK, FUSION_READY",0.378700,0.001100,-0.012400,-0.925400,-135.491,224.509,-0.421,1.363,,,,,,,,,,,,,0,,,Not running,,,,,,,,,,,0.999400,0.024700,0.021200,0.004400,0.374200,0.011310,-0.043287,-0.926268,-136.033,-0.656,5.087,b6 00 00 00 00 00 00 cb 0e 0b 00 84 ff da db 07 32 81
0.057,fused,,20,0x07,"IMU0_OK, IMU1_OK, FUSION_READY",0.022500,-0.967500,0.251500,-0.002100,-29.129,-29.129,0.416,-177.443,,,,,,,,,,,,,0,,,Not running,,,,,,,,,,,0.999400,0.024700,0.021200,0.004400,0.003912,-0.966470,0.255116,-0.028925,-29.608,-3.091,-178.719,b6 00 00 00 00 00 00 e1 00 35 da d3 09 eb ff 07 14 d3
0.058,fused,,40,0x07,"IMU0_OK, IMU1_OK, FUSION_READY",0.843800,0.003800,0.018700,-0.536200,-64.876,-64.876,2.042,-0.782,,,,,,,,,,,,,0,,,Not running,,,,,,,,,,,0.999400,0.024700,0.021200,0.004400,0.841529,-0.005595,-0.012462,-0.540039,-65.383,-1.548,0.232,b6 00 00 00 00 00 00 f6 20 26 00 bb 00 0e eb 07 28 81
0.059,fused,,30,0x07,"IMU0_OK, IMU1_OK, FUSION_READY",0.589300,-0.013600,0.044000,-0.806500,-107.756,252.244,1.715,-4.993,,,,,,,,,,,,,0,,,Not running,,,,,,,,,,,0.999400,0.024700,0.021200,0.004400,0.586078,-0.010858,0.011621,-0.810099,-108.228,-0.227,-1.808,b6 00 00 00 00 00 00 05 17 78 ff b8 01 7f e0 07 1e aa
0.060,fused,,0,0x07,"IMU0_OK, IMU1_OK, FUSION_READY",0.999400,0.024700,0.021200,0.004400,0.564,0.564,2.416,2.843,,,,,,,,,,,,,0,,,Not running,,,,,,,,,,,0.999400,0.024700,0.021200,0.004400,1.000000,0.000000,-0.000000,0.000000,0.000,-0.000,0.000,b6 00 00 00 00 00 00 0a 27 f7 00 d4 00 2c 00 07 00 25
0.061,fused,,50,0x07,"IMU0_OK, IMU1_OK, FUSION_READY",0.378700,0.001200,-0.012400,-0.925400,-135.491,224.509,-0.411,1.367,,,,,,,,,,,,,0,,,Not running,,,,,,,,,,,0.999400,0.024700,0.021200,0.004400,0.374203,0.011410,-0.043288,-0.926266,-136.032,-0.645,5.091,b6 00 00 00 00 00 00 cb 0e 0c 00 84 ff da db 07 32 86
0.062,fused,,20,0x07,"IMU0_OK, IMU1_OK, FUSION_READY",0.022500,-0.967500,0.251500,-0.002100,-29.129,-29.129,0.416,-177.443,,,,,,,,,,,,,0,,,Not running,,,,,,,,,,,0.999400,0.024700,0.021200,0.004400,0.003912,-0.966470,0.255116,-0.028925,-29.608,-3.091,-178.719,b6 00 00 00 00 00 00 e1 00 35 da d3 09 eb ff 07 14 d3
0.063,fused,,40,0x07,"IMU0_OK, IMU1_OK, FUSION_READY",0.843800,0.003800,0.018700,-0.536200,-64.876,-64.876,2.042,-0.782,,,,,,,,,,,,,0,,,Not running,,,,,,,,,,,0.999400,0.024700,0.021200,0.004400,0.841529,-0.005595,-0.012462,-0.540039,-65.383,-1.548,0.232,b6 00 00 00 00 00 00 f6 20 26 00 bb 00 0e eb 07 28 81
0.064,fused,,30,0x07,"IMU0_OK, IMU1_OK, FUSION_READY",0.589300,-0.013700,0.044200,-0.806500,-107.757,252.243,1.719,-5.019,,,,,,,,,,,,,0,,,Not running,,,,,,,,,,,0.999400,0.024700,0.021200,0.004400,0.586073,-0.010957,0.011822,-0.810098,-108.228,-0.223,-1.834,b6 00 00 00 00 00 00 05 17 77 ff ba 01 7f e0 07 1e a7
0.065,fused,,0,0x07,"IMU0_OK, IMU1_OK, FUSION_READY",0.999400,0.024800,0.021200,0.004400,0.565,0.565,2.416,2.855,,,,,,,,,,,,,0,,,Not running,,,,,,,,,,,0.999400,0.024800,0.021200,0.004400,1.000000,0.000000,0.000000,0.000000,0.000,0.000,0.000,b6 00 00 00 00 00 00 0a 27 f8 00 d4 00 2c 00 07 00 2a
0.067,fused,,50,0x07,"IMU0_OK, IMU1_OK, FUSION_READY",0.378700,0.001100,-0.012400,-0.925400,-135.491,224.509,-0.421,1.363,,,,,,,,,,,,,0,,,Not running,,,,,,,,,,,0.999400,0.024800,0.021200,0.004400,0.374199,0.011273,-0.043380,-0.926264,-136.033,-0.664,5.095,b6 00 00 00 00 00 00 cb 0e 0b 00 84 ff da db 07 32 81
0.067,fused,,20,0x07,"IMU0_OK, IMU1_OK, FUSION_READY",0.022500,-0.967500,0.251500,-0.002100,-29.129,-29.129,0.416,-177.443,,,,,,,,,,,,,0,,,Not running,,,,,,,,,,,0.999400,0.024800,0.021200,0.004400,0.003816,-0.966470,0.255115,-0.028950,-29.608,-3.096,-178.729,b6 00 00 00 00 00 00 e1 00 35 da d3 09 eb ff 07 14 d3
0.068,fused,,40,0x07,"IMU0_OK, IMU1_OK, FUSION_READY",0.843800,0.003800,0.018700,-0.536200,-64.876,-64.876,2.042,-0.782,,,,,,,,,,,,,0,,,Not running,,,,,,,,,,,0.999400,0.024800,0.021200,0.004400,0.841527,-0.005679,-0.012516,-0.540040,-65.383,-1.559,0.227,b6 00 00 00 00 00 00 f6 20 26 00 bb 00 0e eb 07 28 81
0.069,fused,,30,0x07,"IMU0_OK, IMU1_OK, FUSION_READY",0.589300,-0.013700,0.044100,-0.806500,-107.756,252.244,1.712,-5.009,,,,,,,,,,,,,0,,,Not running,,,,,,,,,,,0.999400,0.024800,0.021200,0.004400,0.586071,-0.011016,0.011641,-0.810101,-108.228,-0.241,-1.821,b6 00 00 00 00 00 00 05 17 77 ff b9 01 7f e0 07 1e a4
0.070,fused,,0,0x07,"IMU0_OK, IMU1_OK, FUSION_READY",0.999400,0.024700,0.021200,0.004400,0.564,0.564,2.416,2.843,,,,,,,,,,,,,0,,,Not running,,,,,,,,,,,0.999400,0.024700,0.021200,0.004400,1.000000,0.000000,-0.000000,0.000000,0.000,-0.000,0.000,b6 00 00 00 00 00 00 0a 27 f7 00 d4 00 2c 00 07 00 25
0.071,fused,,50,0x07,"IMU0_OK, IMU1_OK, FUSION_READY",0.378600,0.001000,-0.012500,-0.925400,-135.499,224.501,-0.436,1.369,,,,,,,,,,,,,0,,,Not running,,,,,,,,,,,0.999400,0.024700,0.021200,0.004400,0.374109,0.011213,-0.043386,-0.926301,-136.045,-0.670,5.093,b6 00 00 00 00 00 00 ca 0e 0a 00 83 ff da db 07 32 86
0.072,fused,,20,0x07,"IMU0_OK, IMU1_OK, FUSION_READY",0.022500,-0.967500,0.251500,-0.002000,-29.128,-29.128,0.427,-177.446,,,,,,,,,,,,,0,,,Not running,,,,,,,,,,,0.999400,0.024700,0.021200,0.004400,0.003913,-0.966472,0.255118,-0.028825,-29.608,-3.079,-178.722,b6 00 00 00 00 00 00 e1 00 35 da d3 09 ec ff 07 14 d4
0.072,fused,,40,0x07,"IMU0_OK, IMU1_OK, FUSION_READY",0.843800,0.003800,0.018700,-0.536200,-64.876,-64.876,2.042,-0.782,,,,,,,,,,,,,0,,,Not running,,,,,,,,,,,0.999400,0.024700,0.021200,0.004400,0.841529,-0.005595,-0.012462,-0.540039,-65.383,-1.548,0.232,b6 00 00 00 00 00 00 f6 20 26 00 bb 00 0e eb 07 28 81
0.073,fused,,30,0x07,"IMU0_OK, IMU1_OK, FUSION_READY",0.589300,-0.013600,0.044000,-0.806500,-107.756,252.244,1.715,-4.993,,,,,,,,,,,,,0,,,Not running,,,,,,,,,,,0.999400,0.024700,0.021200,0.004400,0.586078,-0.010858,0.011621,-0.810099,-108.228,-0.227,-1.808,b6 00 00 00 00 00 00 05 17 78 ff b8 01 7f e0 07 1e aa
0.074,fused,,0,0x07,"IMU0_OK, IMU1_OK, FUSION_READY",0.999400,0.024700,0.021200,0.004400,0.564,0.564,2.416,2.843,,,,,,,,,,,,,0,,,Not running,,,,,,,,,,,0.999400,0.024700,0.021200,0.004400,1.000000,0.000000,-0.000000,0.000000,0.000,-0.000,0.000,b6 00 00 00 00 00 00 0a 27 f7 00 d4 00 2c 00 07 00 25
0.075,fused,,50,0x07,"IMU0_OK, IMU1_OK, FUSION_READY",0.378600,0.001100,-0.012400,-0.925400,-135.498,224.502,-0.421,1.363,,,,,,,,,,,,,0,,,Not running,,,,,,,,,,,0.999400,0.024700,0.021200,0.004400,0.374115,0.011313,-0.043287,-0.926303,-136.044,-0.655,5.087,b6 00 00 00 00 00 00 ca 0e 0b 00 84 ff da db 07 32 80
0.077,fused,,20,0x07,"IMU0_OK, IMU1_OK, FUSION_READY",0.022500,-0.967500,0.251500,-0.002000,-29.128,-29.128,0.427,-177.446,,,,,,,,,,,,,0,,,Not running,,,,,,,,,,,0.999400,0.024700,0.021200,0.004400,0.003913,-0.966472,0.255118,-0.028825,-29.608,-3.079,-178.722,b6 00 00 00 00 00 00 e1 00 35 da d3 09 ec ff 07 14 d4
0.077,fused,,40,0x07,"IMU0_OK, IMU1_OK, FUSION_READY",0.843800,0.003800,0.018700,-0.536200,-64.876,-64.876,2.042,-0.782,,,,,,,,,,,,,0,,,Not running,,,,,,,,,,,0.999400,0.024700,0.021200,0.004400,0.841529,-0.005595,-0.012462,-0.540039,-65.383,-1.548,0.232,b6 00 00 00 00 00 00 f6 20 26 00 bb 00 0e eb 07 28 81
0.078,fused,,30,0x07,"IMU0_OK, IMU1_OK, FUSION_READY",0.589300,-0.013600,0.044000,-0.806500,-107.756,252.244,1.715,-4.993,,,,,,,,,,,,,0,,,Not running,,,,,,,,,,,0.999400,0.024700,0.021200,0.004400,0.586078,-0.010858,0.011621,-0.810099,-108.228,-0.227,-1.808,b6 00 00 00 00 00 00 05 17 78 ff b8 01 7f e0 07 1e aa
0.079,fused,,0,0x07,"IMU0_OK, IMU1_OK, FUSION_READY",0.999400,0.024800,0.021100,0.004400,0.564,0.564,2.405,2.854,,,,,,,,,,,,,0,,,Not running,,,,,,,,,,,0.999400,0.024800,0.021100,0.004400,1.000000,0.000000,0.000000,0.000000,0.000,0.000,0.000,b6 00 00 00 00 00 00 0a 27 f8 00 d3 00 2c 00 07 00 2d
0.079,fused,,50,0x07,"IMU0_OK, IMU1_OK, FUSION_READY",0.378600,0.001200,-0.012300,-0.925400,-135.498,224.502,-0.406,1.357,,,,,,,,,,,,,0,,,Not running,,,,,,,,,,,0.999400,0.024800,0.021100,0.004400,0.374121,0.011283,-0.043242,-0.926303,-136.043,-0.656,5.081,b6 00 00 00 00 00 00 ca 0e 0c 00 85 ff da db 07 32 86
0.081,fused,,20,0x07,"IMU0_OK, IMU1_OK, FUSION_READY",0.022500,-0.967500,0.251500,-0.002100,-29.129,-29.129,0.416,-177.443,,,,,,,,,,,,,0,,,Not running,,,,,,,,,,,0.999400,0.024800,0.021100,0.004400,0.003790,-0.966472,0.255118,-0.028854,-29.608,-3.086,-178.735,b6 00 00 00 00 00 00 e1 00 35 da d3 09 eb ff 07 14 d3
0.082,fused,,40,0x07,"IMU0_OK, IMU1_OK, FUSION_READY",0.843800,0.003800,0.018700,-0.536200,-64.876,-64.876,2.042,-0.782,,,,,,,,,,,,,0,,,Not running,,,,,,,,,,,0.999400,0.024800,0.021100,0.004400,0.841527,-0.005733,-0.012431,-0.540041,-65.383,-1.554,0.217,b6 00 00 00 00 00 00 f6 20 26 00 bb 00 0e eb 07 28 81
0.083,fused,,30,0x07,"IMU0_OK, IMU1_OK, FUSION_READY",0.589300,-0.013700,0.044100,-0.806500,-107.756,252.244,1.712,-5.009,,,,,,,,,,,,,0,,,Not running,,,,,,,,,,,0.999400,0.024800,0.021100,0.004400,0.586068,-0.011097,0.011700,-0.810101,-108.228,-0.244,-1.832,b6 00 00 00 00 00 00 05 17 77 ff b9 01 7f e0 07 1e a4
0.084,fused,,0,0x07,"IMU0_OK, IMU1_OK, FUSION_READY",0.999400,0.024800,0.021100,0.004400,0.564,0.564,2.405,2.854,,,,,,,,,,,,,0,,,Not running,,,,,,,,,,,0.999400,0.024800,0.021100,0.004400,1.000000,0.000000,0.000000,0.000000,0.000,0.000,0.000,b6 00 00 00 00 00 00 0a 27 f8 00 d3 00 2c 00 07 00 2d
0.184,fused,,50,0x07,"IMU0_OK, IMU1_OK, FUSION_READY",0.378500,0.001100,-0.012400,-0.925500,-135.518,224.482,-0.421,1.363,,,,,,,,,,,,,0,,,Not running,,,,,,,,,,,0.999400,0.024800,0.021100,0.004400,0.373995,0.011187,-0.043339,-0.926350,-136.059,-0.670,5.087,b6 00 00 00 00 00 00 c9 0e 0b 00 84 ff d9 db 07 32 80
0.185,fused,,20,0x07,"IMU0_OK, IMU1_OK, FUSION_READY",0.022500,-0.967500,0.251500,-0.002100,-29.129,-29.129,0.416,-177.443,,,,,,,,,,,,,0,,,Not running,,,,,,,,,,,0.999400,0.024800,0.021100,0.004400,0.003790,-0.966472,0.255118,-0.028854,-29.608,-3.086,-178.735,b6 00 00 00 00 00 00 e1 00 35 da d3 09 eb ff 07 14 d3
0.186,fused,,40,0x07,"IMU0_OK, IMU1_OK, FUSION_READY",0.843800,0.003800,0.018700,-0.536100,-64.861,-64.861,2.042,-0.782,,,,,,,,,,,,,0,,,Not running,,,,,,,,,,,0.999400,0.024800,0.021100,0.004400,0.841573,-0.005736,-0.012430,-0.539970,-65.373,-1.554,0.216,b6 00 00 00 00 00 00 f6 20 26 00 bb 00 0f eb 07 28 80
0.187,fused,,30,0x07,"IMU0_OK, IMU1_OK, FUSION_READY",0.589300,-0.013700,0.044200,-0.806500,-107.757,252.243,1.719,-5.019,,,,,,,,,,,,,0,,,Not running,,,,,,,,,,,0.999400,0.024800,0.021100,0.004400,0.586067,-0.011096,0.011800,-0.810100,-108.228,-0.238,-1.841,b6 00 00 00 00 00 00 05 17 77 ff ba 01 7f e0 07 1e a7
0.188,fused,,0,0x07,"IMU0_OK, IMU1_OK, FUSION_READY",0.999400,0.024800,0.021100,0.004400,0.564,0.564,2.405,2.854,,,,,,,,,,,,,0,,,Not running,,,,,,,,,,,0.999400,0.024800,0.021100,0.004400,1.000000,0.000000,0.000000,0.000000,0.000,0.000,0.000,b6 00 00 00 00 00 00 0a 27 f8 00 d3 00 2c 00 07 00 2d
0.188,fused,,50,0x07,"IMU0_OK, IMU1_OK, FUSION_READY",0.378500,0.001000,-0.012500,-0.925400,-135.506,224.494,-0.436,1.369,,,,,,,,,,,,,0,,,Not running,,,,,,,,,,,0.999400,0.024800,0.021100,0.004400,0.374025,0.011085,-0.043440,-0.926334,-136.056,-0.685,5.093,b6 00 00 00 00 00 00 c9 0e 0a 00 83 ff da db 07 32 85
0.190,fused,,20,0x07,"IMU0_OK, IMU1_OK, FUSION_READY",0.022500,-0.967500,0.251500,-0.002100,-29.129,-29.129,0.416,-177.443,,,,,,,,,,,,,0,,,Not running,,,,,,,,,,,0.999400,0.024800,0.021100,0.004400,0.003790,-0.966472,0.255118,-0.028854,-29.608,-3.086,-178.735,b6 00 00 00 00 00 00 e1 00 35 da d3 09 eb ff 07 14 d3
0.191,fused,,40,0x07,"IMU0_OK, IMU1_OK, FUSION_READY",0.843800,0.003800,0.018700,-0.536100,-64.861,-64.861,2.042,-0.782,,,,,,,,,,,,,0,,,Not running,,,,,,,,,,,0.999400,0.024800,0.021100,0.004400,0.841573,-0.005736,-0.012430,-0.539970,-65.373,-1.554,0.216,b6 00 00 00 00 00 00 f6 20 26 00 bb 00 0f eb 07 28 80
0.193,fused,,30,0x07,"IMU0_OK, IMU1_OK, FUSION_READY",0.589400,-0.013600,0.044000,-0.806500,-107.753,252.247,1.715,-4.993,,,,,,,,,,,,,0,,,Not running,,,,,,,,,,,0.999400,0.024800,0.021100,0.004400,0.586137,-0.010999,0.011597,-0.810054,-108.219,-0.242,-1.816,b6 00 00 00 00 00 00 06 17 78 ff b8 01 7f e0 07 1e a9
0.194,fused,,0,0x07,"IMU0_OK, IMU1_OK, FUSION_READY",0.999400,0.024800,0.021100,0.004400,0.564,0.564,2.405,2.854,,,,,,,,,,,,,0,,,Not running,,,,,,,,,,,0.999400,0.024800,0.021100,0.004400,1.000000,0.000000,0.000000,0.000000,0.000,0.000,0.000,b6 00 00 00 00 00 00 0a 27 f8 00 d3 00 2c 00 07 00 2d
0.196,fused,,50,0x07,"IMU0_OK, IMU1_OK, FUSION_READY",0.378500,0.001100,-0.012400,-0.925500,-135.518,224.482,-0.421,1.363,,,,,,,,,,,,,0,,,Not running,,,,,,,,,,,0.999400,0.024800,0.021100,0.004400,0.373995,0.011187,-0.043339,-0.926350,-136.059,-0.670,5.087,b6 00 00 00 00 00 00 c9 0e 0b 00 84 ff d9 db 07 32 80
0.197,fused,,20,0x07,"IMU0_OK, IMU1_OK, FUSION_READY",0.022500,-0.967500,0.251500,-0.002000,-29.128,-29.128,0.427,-177.446,,,,,,,,,,,,,0,,,Not running,,,,,,,,,,,0.999400,0.024800,0.021100,0.004400,0.003791,-0.966474,0.255120,-0.028754,-29.608,-3.075,-178.738,b6 00 00 00 00 00 00 e1 00 35 da d3 09 ec ff 07 14 d4
0.198,fused,,40,0x07,"IMU0_OK, IMU1_OK, FUSION_READY",0.843900,0.003900,0.018700,-0.536100,-64.863,-64.863,2.048,-0.772,,,,,,,,,,,,,0,,,Not running,,,,,,,,,,,0.999400,0.024800,0.021100,0.004400,0.841604,-0.005638,-0.012431,-0.539923,-65.367,-1.548,0.226,b6 00 00 00 00 00 00 f7 20 27 00 bb 00 0f eb 07 28 80
0.200,fused,,30,0x07,"IMU0_OK, IMU1_OK, FUSION_READY",0.589400,-0.013600,0.044000,-0.806400,-107.737,252.263,1.715,-4.993,,,,,,,,,,,,,0,,,Not running,,,,,,,,,,,0.999400,0.024800,0.021100,0.004400,0.586185,-0.011002,0.011600,-0.810020,-108.212,-0.242,-1.816,b6 00 00 00 00 00 00 06 17 78 ff b8 01 80 e0 07 1e 56
0.201,fused,,0,0x07,"IMU0_OK, IMU1_OK, FUSION_READY",0.999400,0.024800,0.021100,0.004400,0.564,0.564,2.405,2.854,,,,,,,,,,,,,0,,,Not running,,,,,,,,,,,0.999400,0.024800,0.021100,0.004400,1.000000,0.000000,0.000000,0.000000,0.000,0.000,0.000,b6 00 00 00 00 00 00 0a 27 f8 00 d3 00 2c 00 07 00 2d
0.202,fused,,50,0x07,"IMU0_OK, IMU1_OK, FUSION_READY",0.378400,0.001200,-0.012300,-0.925500,-135.525,224.475,-0.406,1.357,,,,,,,,,,,,,0,,,Not running,,,,,,,,,,,0.999400,0.024800,0.021100,0.004400,0.373914,0.011290,-0.043240,-0.926386,-136.068,-0.654,5.081,b6 00 00 00 00 00 00 c8 0e 0c 00 85 ff d9 db 07 32 87
0.204,fused,,20,0x07,"IMU0_OK, IMU1_OK, FUSION_READY",0.022500,-0.967500,0.251500,-0.002000,-29.128,-29.128,0.427,-177.446,,,,,,,,,,,,,0,,,Not running,,,,,,,,,,,0.999400,0.024800,0.021100,0.004400,0.003791,-0.966474,0.255120,-0.028754,-29.608,-3.075,-178.738,b6 00 00 00 00 00 00 e1 00 35 da d3 09 ec ff 07 14 d4
0.206,fused,,40,0x07,"IMU0_OK, IMU1_OK, FUSION_READY",0.843900,0.003900,0.018700,-0.536100,-64.863,-64.863,2.048,-0.772,,,,,,,,,,,,,0,,,Not running,,,,,,,,,,,0.999400,0.024800,0.021100,0.004400,0.841604,-0.005638,-0.012431,-0.539923,-65.367,-1.548,0.226,b6 00 00 00 00 00 00 f7 20 27 00 bb 00 0f eb 07 28 80
0.207,fused,,30,0x07,"IMU0_OK, IMU1_OK, FUSION_READY",0.589400,-0.013700,0.044100,-0.806400,-107.738,252.262,1.713,-5.009,,,,,,,,,,,,,0,,,Not running,,,,,,,,,,,0.999400,0.024800,0.021100,0.004400,0.586181,-0.011102,0.011701,-0.810020,-108.212,-0.245,-1.832,b6 00 00 00 00 00 00 06 17 77 ff b9 01 80 e0 07 1e 58
0.208,fused,,0,0x07,"IMU0_OK, IMU1_OK, FUSION_READY",0.999400,0.024800,0.021000,0.004400,0.564,0.564,2.393,2.854,,,,,,,,,,,,,0,,,Not running,,,,,,,,,,,0.999400,0.024800,0.021000,0.004400,1.000000,0.000000,0.000000,0.000000,0.000,0.000,0.000,b6 00 00 00 00 00 00 0a 27 f8 00 d2 00 2c 00 07 00 2c
0.209,fused,,50,0x07,"IMU0_OK, IMU1_OK, FUSION_READY",0.378400,0.001100,-0.012400,-0.925500,-135.525,224.475,-0.421,1.363,,,,,,,,,,,,,0,,,Not running,,,,,,,,,,,0.999400,0.024800,0.021000,0.004400,0.373911,0.011097,-0.043301,-0.926387,-136.070,-0.677,5.079,b6 00 00 00 00 00 00 c8 0e 0b 00 84 ff d9 db 07 32 81
0.210,fused,,20,0x07,"IMU0_OK, IMU1_OK, FUSION_READY",0.022500,-0.967500,0.251500,-0.002100,-29.129,-29.129,0.416,-177.443,,,,,,,,,,,,,0,,,Not running,,,,,,,,,,,0.999400,0.024800,0.021000,0.004400,0.003765,-0.966474,0.255120,-0.028757,-29.608,-3.076,-178.740,b6 00 00 00 00 00 00 e1 00 35 da d3 09 eb ff 07 14 d3
0.211,fused,,40,0x07,"IMU0_OK, IMU1_OK, FUSION_READY",0.843900,0.003900,0.018700,-0.536100,-64.863,-64.863,2.048,-0.772,,,,,,,,,,,,,0,,,Not running,,,,,,,,,,,0.999400,0.024800,0.021000,0.004400,0.841604,-0.005691,-0.012347,-0.539924,-65.367,-1.543,0.215,b6 00 00 00 00 00 00 f7 20 27 00 bb 00 0f eb 07 28 80
0.212,fused,,30,0x07,"IMU0_OK, IMU1_OK, FUSION_READY",0.589400,-0.013700,0.044200,-0.806400,-107.739,252.261,1.720,-5.018,,,,,,,,,,,,,0,,,Not running,,,,,,,,,,,0.999400,0.024800,0.021000,0.004400,0.586177,-0.011182,0.011859,-0.810019,-108.213,-0.241,-1.852,b6 00 00 00 00 00 00 06 17 77 ff ba 01 80 e0 07 1e 5b
0.213,fused,,0,0x07,"IMU0_OK, IMU1_OK, FUSION_READY",0.999400,0.024800,0.021000,0.004400,0.564,0.564,2.393,2.854,,,,,,,,,,,,,0,,,Not running,,,,,,,,,,,0.999400,0.024800,0.021000,0.004400,1.000000,0.000000,0.000000,0.000000,0.000,0.000,0.000,b6 00 00 00 00 00 00 0a 27 f8 00 d2 00 2c 00 07 00 2c
0.213,fused,,50,0x07,"IMU0_OK, IMU1_OK, FUSION_READY",0.378400,0.001000,-0.012500,-0.925500,-135.526,224.474,-0.436,1.369,,,,,,,,,,,,,0,,,Not running,,,,,,,,,,,0.999400,0.024800,0.021000,0.004400,0.373906,0.010997,-0.043401,-0.926385,-136.071,-0.692,5.085,b6 00 00 00 00 00 00 c8 0e 0a 00 83 ff d9 db 07 32 87
0.214,fused,,20,0x07,"IMU0_OK, IMU1_OK, FUSION_READY",0.022500,-0.967500,0.251500,-0.002100,-29.129,-29.129,0.416,-177.443,,,,,,,,,,,,,0,,,Not running,,,,,,,,,,,0.999400,0.024800,0.021000,0.004400,0.003765,-0.966474,0.255120,-0.028757,-29.608,-3.076,-178.740,b6 00 00 00 00 00 00 e1 00 35 da d3 09 eb ff 07 14 d3
0.215,fused,,40,0x07,"IMU0_OK, IMU1_OK, FUSION_READY",0.843900,0.003900,0.018700,-0.536100,-64.863,-64.863,2.048,-0.772,,,,,,,,,,,,,0,,,Not running,,,,,,,,,,,0.999400,0.024800,0.021000,0.004400,0.841604,-0.005691,-0.012347,-0.539924,-65.367,-1.543,0.215,b6 00 00 00 00 00 00 f7 20 27 00 bb 00 0f eb 07 28 80
0.216,fused,,30,0x07,"IMU0_OK, IMU1_OK, FUSION_READY",0.589400,-0.013600,0.044100,-0.806400,-107.738,252.262,1.722,-5.002,,,,,,,,,,,,,0,,,Not running,,,,,,,,,,,0.999400,0.024800,0.021000,0.004400,0.586181,-0.011082,0.011759,-0.810019,-108.212,-0.239,-1.836,b6 00 00 00 00 00 00 06 17 78 ff b9 01 80 e0 07 1e 57
0.217,fused,,0,0x07,"IMU0_OK, IMU1_OK, FUSION_READY",0.999400,0.024800,0.021000,0.004400,0.564,0.564,2.393,2.854,,,,,,,,,,,,,0,,,Not running,,,,,,,,,,,0.999400,0.024800,0.021000,0.004400,1.000000,0.000000,0.000000,0.000000,0.000,0.000,0.000,b6 00 00 00 00 00 00 0a 27 f8 00 d2 00 2c 00 07 00 2c
0.217,fused,,50,0x07,"IMU0_OK, IMU1_OK, FUSION_READY",0.378400,0.001100,-0.012400,-0.925500,-135.525,224.475,-0.421,1.363,,,,,,,,,,,,,0,,,Not running,,,,,,,,,,,0.999400,0.024800,0.021000,0.004400,0.373911,0.011097,-0.043301,-0.926387,-136.070,-0.677,5.079,b6 00 00 00 00 00 00 c8 0e 0b 00 84 ff d9 db 07 32 81
0.218,fused,,20,0x07,"IMU0_OK, IMU1_OK, FUSION_READY",0.022500,-0.967500,0.251600,-0.002000,-29.141,-29.141,0.427,-177.446,,,,,,,,,,,,,0,,,Not running,,,,,,,,,,,0.999400,0.024800,0.021000,0.004400,0.003768,-0.966452,0.255217,-0.028659,-29.619,-3.065,-178.743,b6 00 00 00 00 00 00 e1 00 35 da d4 09 ec ff 07 14 d3
0.219,fused,,40,0x07,"IMU0_OK, IMU1_OK, FUSION_READY",0.843900,0.003900,0.018700,-0.536000,-64.848,-64.848,2.048,-0.772,,,,,,,,,,,,,0,,,Not running,,,,,,,,,,,0.999400,0.024800,0.021000,0.004400,0.841649,-0.005694,-0.012345,-0.539853,-65.357,-1.543,0.215,b6 00 00 00 00 00 00 f7 20 27 00 bb 00 10 eb 07 28 9f
0.221,fused,,30,0x07,"IMU0_OK, IMU1_OK, FUSION_READY",0.589500,-0.013600,0.044000,-0.806400,-107.734,252.266,1.716,-4.993,,,,,,,,,,,,,0,,,Not running,,,,,,,,,,,0.999400,0.024800,0.021000,0.004400,0.586247,-0.011085,0.011656,-0.809973,-108.203,-0.246,-1.827,b6 00 00 00 00 00 00 07 17 78 ff b8 01 80 e0 07 1e 57
0.221,fused,,0,0x07,"IMU0_OK, IMU1_OK, FUSION_READY",0.999400,0.024800,0.021000,0.004400,0.564,0.564,2.393,2.854,,,,,,,,,,,,,0,,,Not running,,,,,,,,,,,0.999400,0.024800,0.021000,0.004400,1.000000,0.000000,0.000000,0.000000,0.000,0.000,0.000,b6 00 00 00 00 00 00 0a 27 f8 00 d2 00 2c 00 07 00 2c
0.222,fused,,50,0x07,"IMU0_OK, IMU1_OK, FUSION_READY",0.378300,0.001200,-0.012300,-0.925500,-135.533,224.467,-0.406,1.357,,,,,,,,,,,,,0,,,Not running,,,,,,,,,,,0.999400,0.024800,0.021000,0.004400,0.373830,0.011201,-0.043201,-0.926423,-136.079,-0.662,5.073,b6 00 00 00 00 00 00 c7 0e 0c 00 85 ff d9 db 07 32 88
0.223,fused,,20,0x07,"IMU0_OK, IMU1_OK, FUSION_READY",0.022500,-0.967500,0.251600,-0.002000,-29.141,-29.141,0.427,-177.446,,,,,,,,,,,,,0,,,Not running,,,,,,,,,,,0.999400,0.024800,0.021000,0.004400,0.003768,-0.966452,0.255217,-0.028659,-29.619,-3.065,-178.743,b6 00 00 00 00 00 00 e1 00 35 da d4 09 ec ff 07 14 d3
0.224,fused,,40,0x07,"IMU0_OK, IMU1_OK, FUSION_READY",0.843900,0.003900,0.018700,-0.536000,-64.848,-64.848,2.048,-0.772,,,,,,,,,,,,,0,,,Not running,,,,,,,,,,,0.999400,0.024800,0.021000,0.004400,0.841649,-0.005694,-0.012345,-0.539853,-65.357,-1.543,0.215,b6 00 00 00 00 00 00 f7 20 27 00 bb 00 10 eb 07 28 9f
0.226,fused,,30,0x07,"IMU0_OK, IMU1_OK, FUSION_READY",0.589500,-0.013600,0.044000,-0.806400,-107.734,252.266,1.716,-4.993,,,,,,,,,,,,,0,,,Not running,,,,,,,,,,,0.999400,0.024800,0.021000,0.004400,0.586247,-0.011085,0.011656,-0.809973,-108.203,-0.246,-1.827,b6 00 00 00 00 00 00 07 17 78 ff b8 01 80 e0 07 1e 57
0.227,fused,,0,0x07,"IMU0_OK, IMU1_OK, FUSION_READY",0.999400,0.024800,0.021000,0.004400,0.564,0.564,2.393,2.854,,,,,,,,,,,,,0,,,Not running,,,,,,,,,,,0.999400,0.024800,0.021000,0.004400,1.000000,0.000000,0.000000,0.000000,0.000,0.000,0.000,b6 00 00 00 00 00 00 0a 27 f8 00 d2 00 2c 00 07 00 2c
0.229,fused,,50,0x07,"IMU0_OK, IMU1_OK, FUSION_READY",0.378300,0.001100,-0.012400,-0.925500,-135.533,224.467,-0.421,1.363,,,,,,,,,,,,,0,,,Not running,,,,,,,,,,,0.999400,0.024800,0.021000,0.004400,0.373825,0.011100,-0.043301,-0.926421,-136.080,-0.677,5.079,b6 00 00 00 00 00 00 c7 0e 0b 00 84 ff d9 db 07 32 8e
0.230,fused,,20,0x07,"IMU0_OK, IMU1_OK, FUSION_READY",0.022500,-0.967500,0.251600,-0.002100,-29.141,-29.141,0.416,-177.443,,,,,,,,,,,,,0,,,Not running,,,,,,,,,,,0.999400,0.024800,0.021000,0.004400,0.003767,-0.966449,0.255214,-0.028759,-29.619,-3.076,-178.740,b6 00 00 00 00 00 00 e1 00 35 da d4 09 eb ff 07 14 d4
0.231,fused,,40,0x07,"IMU0_OK, IMU1_OK, FUSION_READY",0.843900,0.003900,0.018700,-0.536000,-64.848,-64.848,2.048,-0.772,,,,,,,,,,,,,0,,,Not running,,,,,,,,,,,0.999400,0.024800,0.021000,0.004400,0.841649,-0.005694,-0.012345,-0.539853,-65.357,-1.543,0.215,b6 00 00 00 00 00 00 f7 20 27 00 bb 00 10 eb 07 28 9f
0.233,fused,,30,0x07,"IMU0_OK, IMU1_OK, FUSION_READY",0.589500,-0.013700,0.044100,-0.806400,-107.735,252.265,1.713,-5.009,,,,,,,,,,,,,0,,,Not running,,,,,,,,,,,0.999400,0.024800,0.021000,0.004400,0.586243,-0.011184,0.011757,-0.809973,-108.203,-0.248,-1.843,b6 00 00 00 00 00 00 07 17 77 ff b9 01 80 e0 07 1e 59
0.234,fused,,0,0x07,"IMU0_OK, IMU1_OK, FUSION_READY",0.999400,0.024800,0.021000,0.004400,0.564,0.564,2.393,2.854,,,,,,,,,,,,,0,,,Not running,,,,,,,,,,,0.999400,0.024800,0.021000,0.004400,1.000000,0.000000,0.000000,0.000000,0.000,0.000,0.000,b6 00 00 00 00 00 00 0a 27 f8 00 d2 00 2c 00 07 00 2c
0.236,fused,,50,0x07,"IMU0_OK, IMU1_OK, FUSION_READY",0.378300,0.001000,-0.012500,-0.925500,-135.533,224.467,-0.436,1.369,,,,,,,,,,,,,0,,,Not running,,,,,,,,,,,0.999400,0.024800,0.021000,0.004400,0.373820,0.011000,-0.043400,-0.926420,-136.082,-0.691,5.086,b6 00 00 00 00 00 00 c7 0e 0a 00 83 ff d9 db 07 32 88
0.237,fused,,20,0x07,"IMU0_OK, IMU1_OK, FUSION_READY",0.022500,-0.967500,0.251600,-0.002000,-29.141,-29.141,0.427,-177.446,,,,,,,,,,,,,0,,,Not running,,,,,,,,,,,0.999400,0.024800,0.021000,0.004400,0.003768,-0.966452,0.255217,-0.028659,-29.619,-3.065,-178.743,b6 00 00 00 00 00 00 e1 00 35 da d4 09 ec ff 07 14 d3
0.237,fused,,40,0x07,"IMU0_OK, IMU1_OK, FUSION_READY",0.843900,0.003900,0.018700,-0.536000,-64.848,-64.848,2.048,-0.772,,,,,,,,,,,,,0,,,Not running,,,,,,,,,,,0.999400,0.024800,0.021000,0.004400,0.841649,-0.005694,-0.012345,-0.539853,-65.357,-1.543,0.215,b6 00 00 00 00 00 00 f7 20 27 00 bb 00 10 eb 07 28 9f
0.238,fused,,30,0x07,"IMU0_OK, IMU1_OK, FUSION_READY",0.589500,-0.013700,0.044100,-0.806400,-107.735,252.265,1.713,-5.009,,,,,,,,,,,,,0,,,Not running,,,,,,,,,,,0.999400,0.024800,0.021000,0.004400,0.586243,-0.011184,0.011757,-0.809973,-108.203,-0.248,-1.843,b6 00 00 00 00 00 00 07 17 77 ff b9 01 80 e0 07 1e 59
0.239,fused,,0,0x07,"IMU0_OK, IMU1_OK, FUSION_READY",0.999400,0.024800,0.021000,0.004400,0.564,0.564,2.393,2.854,,,,,,,,,,,,,0,,,Not running,,,,,,,,,,,0.999400,0.024800,0.021000,0.004400,1.000000,0.000000,0.000000,0.000000,0.000,0.000,0.000,b6 00 00 00 00 00 00 0a 27 f8 00 d2 00 2c 00 07 00 2c
0.240,fused,,50,0x07,"IMU0_OK, IMU1_OK, FUSION_READY",0.378200,0.001100,-0.012400,-0.925600,-135.552,224.448,-0.421,1.363,,,,,,,,,,,,,0,,,Not running,,,,,,,,,,,0.999400,0.024800,0.021000,0.004400,0.373704,0.011104,-0.043299,-0.926470,-136.095,-0.675,5.079,b6 00 00 00 00 00 00 c6 0e 0b 00 84 ff d8 db 07 32 8e
0.240,fused,,20,0x07,"IMU0_OK, IMU1_OK, FUSION_READY",0.022500,-0.967500,0.251600,-0.002000,-29.141,-29.141,0.427,-177.446,,,,,,,,,,,,,0,,,Not running,,,,,,,,,,,0.999400,0.024800,0.021000,0.004400,0.003768,-0.966452,0.255217,-0.028659,-29.619,-3.065,-178.743,b6 00 00 00 00 00 00 e1 00 35 da d4 09 ec ff 07 14 d3
0.242,fused,,40,0x07,"IMU0_OK, IMU1_OK, FUSION_READY",0.843900,0.003900,0.018700,-0.536000,-64.848,-64.848,2.048,-0.772,,,,,,,,,,,,,0,,,Not running,,,,,,,,,,,0.999400,0.024800,0.021000,0.004400,0.841649,-0.005694,-0.012345,-0.539853,-65.357,-1.543,0.215,b6 00 00 00 00 00 00 f7 20 27 00 bb 00 10 eb 07 28 9f
0.243,fused,,30,0x07,"IMU0_OK, IMU1_OK, FUSION_READY",0.589500,-0.013600,0.044000,-0.806400,-107.734,252.266,1.716,-4.993,,,,,,,,,,,,,0,,,Not running,,,,,,,,,,,0.999400,0.024800,0.021000,0.004400,0.586247,-0.011085,0.011656,-0.809973,-108.203,-0.246,-1.827,b6 00 00 00 00 00 00 07 17 78 ff b8 01 80 e0 07 1e 57
0.244,fused,,0,0x07,"IMU0_OK, IMU1_OK, FUSION_READY",0.999400,0.024800,0.021000,0.004400,0.564,0.564,2.393,2.854,,,,,,,,,,,,,0,,,Not running,,,,,,,,,,,0.999400,0.024800,0.021000,0.004400,1.000000,0.000000,0.000000,0.000000,0.000,0.000,0.000,b6 00 00 00 00 00 00 0a 27 f8 00 d2 00 2c 00 07 00 2c
0.246,fused,,50,0x07,"IMU0_OK, IMU1_OK, FUSION_READY",0.378200,0.001200,-0.012300,-0.925600,-135.552,224.448,-0.406,1.357,,,,,,,,,,,,,0,,,Not running,,,,,,,,,,,0.999400,0.024800,0.021000,0.004400,0.373709,0.011205,-0.043199,-0.926472,-136.094,-0.660,5.073,b6 00 00 00 00 00 00 c6 0e 0c 00 85 ff d8 db 07 32 88
0.247,fused,,20,0x07,"IMU0_OK, IMU1_OK, FUSION_READY",0.022500,-0.967500,0.251600,-0.002000,-29.141,-29.141,0.427,-177.446,,,,,,,,,,,,,0,,,Not running,,,,,,,,,,,0.999400,0.024800,0.021000,0.004400,0.003768,-0.966452,0.255217,-0.028659,-29.619,-3.065,-178.743,b6 00 00 00 00 00 00 e1 00 35 da d4 09 ec ff 07 14 d3
0.249,fused,,40,0x07,"IMU0_OK, IMU1_OK, FUSION_READY",0.843900,0.003900,0.018700,-0.536000,-64.848,-64.848,2.048,-0.772,,,,,,,,,,,,,0,,,Not running,,,,,,,,,,,0.999400,0.024800,0.021000,0.004400,0.841649,-0.005694,-0.012345,-0.539853,-65.357,-1.543,0.215,b6 00 00 00 00 00 00 f7 20 27 00 bb 00 10 eb 07 28 9f
0.250,fused,,30,0x07,"IMU0_OK, IMU1_OK, FUSION_READY",0.589500,-0.013600,0.044000,-0.806400,-107.734,252.266,1.716,-4.993,,,,,,,,,,,,,0,,,Not running,,,,,,,,,,,0.999400,0.024800,0.021000,0.004400,0.586247,-0.011085,0.011656,-0.809973,-108.203,-0.246,-1.827,b6 00 00 00 00 00 00 07 17 78 ff b8 01 80 e0 07 1e 57
0.252,fused,,0,0x07,"IMU0_OK, IMU1_OK, FUSION_READY",0.999400,0.024800,0.021000,0.004400,0.564,0.564,2.393,2.854,,,,,,,,,,,,,0,,,Not running,,,,,,,,,,,0.999400,0.024800,0.021000,0.004400,1.000000,0.000000,0.000000,0.000000,0.000,0.000,0.000,b6 00 00 00 00 00 00 0a 27 f8 00 d2 00 2c 00 07 00 2c
0.253,fused,,50,0x07,"IMU0_OK, IMU1_OK, FUSION_READY",0.378200,0.001200,-0.012400,-0.925600,-135.552,224.448,-0.410,1.367,,,,,,,,,,,,,0,,,Not running,,,,,,,,,,,0.999400,0.024800,0.021000,0.004400,0.373707,0.011204,-0.043299,-0.926468,-136.094,-0.665,5.084,b6 00 00 00 00 00 00 c6 0e 0c 00 84 ff d8 db 07 32 89
0.254,fused,,20,0x07,"IMU0_OK, IMU1_OK, FUSION_READY",0.022500,-0.967500,0.251600,-0.002000,-29.141,-29.141,0.427,-177.446,,,,,,,,,,,,,0,,,Not running,,,,,,,,,,,0.999400,0.024800,0.021000,0.004400,0.003768,-0.966452,0.255217,-0.028659,-29.619,-3.065,-178.743,b6 00 00 00 00 00 00 e1 00 35 da d4 09 ec ff 07 14 d3
0.255,fused,,40,0x07,"IMU0_OK, IMU1_OK, FUSION_READY",0.843900,0.003900,0.018700,-0.536000,-64.848,-64.848,2.048,-0.772,,,,,,,,,,,,,0,,,Not running,,,,,,,,,,,0.999400,0.024800,0.021000,0.004400,0.841649,-0.005694,-0.012345,-0.539853,-65.357,-1.543,0.215,b6 00 00 00 00 00 00 f7 20 27 00 bb 00 10 eb 07 28 9f
0.256,fused,,30,0x07,"IMU0_OK, IMU1_OK, FUSION_READY",0.589500,-0.013700,0.044100,-0.806300,-107.720,252.280,1.713,-5.009,,,,,,,,,,,,,0,,,Not running,,,,,,,,,,,0.999400,0.024800,0.021000,0.004400,0.586291,-0.011187,0.011760,-0.809938,-108.197,-0.248,-1.843,b6 00 00 00 00 00 00 07 17 77 ff b9 01 81 e0 07 1e 58
0.257,fused,,0,0x07,"IMU0_OK, IMU1_OK, FUSION_READY",0.999400,0.024800,0.021000,0.004400,0.564,0.564,2.393,2.854,,,,,,,,,,,,,0,,,Not running,,,,,,,,,,,0.999400,0.024800,0.021000,0.004400,1.000000,0.000000,0.000000,0.000000,0.000,0.000,0.000,b6 00 00 00 00 00 00 0a 27 f8 00 d2 00 2c 00 07 00 2c
0.258,fused,,50,0x07,"IMU0_OK, IMU1_OK, FUSION_READY",0.378100,0.001000,-0.012500,-0.925600,-135.560,224.440,-0.436,1.369,,,,,,,,,,,,,0,,,Not running,,,,,,,,,,,0.999400,0.024800,0.021000,0.004400,0.373614,0.011007,-0.043398,-0.926503,-136.107,-0.689,5.086,b6 00 00 00 00 00 00 c5 0e 0a 00 83 ff d8 db 07 32 8b
0.260,fused,,20,0x07,"IMU0_OK, IMU1_OK, FUSION_READY",0.022500,-0.967500,0.251600,-0.002100,-29.141,-29.141,0.416,-177.443,,,,,,,,,,,,,0,,,Not running,,,,,,,,,,,0.999400,0.024800,0.021000,0.004400,0.003767,-0.966449,0.255214,-0.028759,-29.619,-3.076,-178.740,b6 00 00 00 00 00 00 e1 00 35 da d4 09 eb ff 07 14 d4
0.261,fused,,40,0x07,"IMU0_OK, IMU1_OK, FUSION_READY",0.844000,0.003900,0.018700,-0.535900,-64.835,-64.835,2.049,-0.772,,,,,,,,,,,,,0,,,Not running,,,,,,,,,,,0.999400,0.024800,0.021000,0.004400,0.841724,-0.005698,-0.012344,-0.539737,-65.341,-1.543,0.214,b6 00 00 00 00 00 00 f8 20 27 00 bb 00 11 eb 07 28 91
0.262,fused,,30,0x07,"IMU0_OK, IMU1_OK, FUSION_READY",0.589500,-0.013700,0.044100,-0.806300,-107.720,252.280,1.713,-5.009,,,,,,,,,,,,,0,,,Not running,,,,,,,,,,,0.999400,0.024800,0.021000,0.004400,0.586291,-0.011187,0.011760,-0.809938,-108.197,-0.248,-1.843,b6 00 00 00 00 00 00 07 17 77 ff b9 01 81 e0 07 1e 58
0.264,fused,,0,0x07,"IMU0_OK, IMU1_OK, FUSION_READY",0.999400,0.024800,0.021000,0.004400,0.564,0.564,2.393,2.854,,,,,,,,,,,,,0,,,Not running,,,,,,,,,,,0.999400,0.024800,0.021000,0.004400,1.000000,0.000000,0.000000,0.000000,0.000,0.000,0.000,b6 00 00 00 00 00 00 0a 27 f8 00 d2 00 2c 00 07 00 2c
0.265,fused,,50,0x07,"IMU0_OK, IMU1_OK, FUSION_READY",0.378100,0.001000,-0.012500,-0.925600,-135.560,224.440,-0.436,1.369,,,,,,,,,,,,,0,,,Not running,,,,,,,,,,,0.999400,0.024800,0.021000,0.004400,0.373614,0.011007,-0.043398,-0.926503,-136.107,-0.689,5.086,b6 00 00 00 00 00 00 c5 0e 0a 00 83 ff d8 db 07 32 8b
0.267,fused,,20,0x07,"IMU0_OK, IMU1_OK, FUSION_READY",0.022500,-0.967500,0.251600,-0.002000,-29.141,-29.141,0.427,-177.446,,,,,,,,,,,,,0,,,Not running,,,,,,,,,,,0.999400,0.024800,0.021000,0.004400,0.003768,-0.966452,0.255217,-0.028659,-29.619,-3.065,-178.743,b6 00 00 00 00 00 00 e1 00 35 da d4 09 ec ff 07 14 d3
0.268,fused,,40,0x07,"IMU0_OK, IMU1_OK, FUSION_READY",0.844000,0.003900,0.018700,-0.535900,-64.835,-64.835,2.049,-0.772,,,,,,,,,,,,,0,,,Not running,,,,,,,,,,,0.999400,0.024800,0.021000,0.004400,0.841724,-0.005698,-0.012344,-0.539737,-65.341,-1.543,0.214,b6 00 00 00 00 00 00 f8 20 27 00 bb 00 11 eb 07 28 91
0.269,fused,,30,0x07,"IMU0_OK, IMU1_OK, FUSION_READY",0.589600,-0.013600,0.044100,-0.806300,-107.717,252.283,1.723,-5.002,,,,,,,,,,,,,0,,,Not running,,,,,,,,,,,0.999400,0.024800,0.021000,0.004400,0.586360,-0.011089,0.011757,-0.809890,-108.187,-0.239,-1.837,b6 00 00 00 00 00 00 08 17 78 ff b9 01 81 e0 07 1e 58
0.270,fused,,0,0x07,"IMU0_OK, IMU1_OK, FUSION_READY",0.999400,0.024900,0.020900,0.004400,0.564,0.564,2.382,2.866,,,,,,,,,,,,,0,,,Not running,,,,,,,,,,,0.999400,0.024900,0.020900,0.004400,1.000000,0.000000,-0.000000,0.000000,0.000,-0.000,0.000,b6 00 00 00 00 00 00 0a 27 f9 00 d1 00 2c 00 07 00 2e
0.270,fused,,50,0x07,"IMU0_OK, IMU1_OK, FUSION_READY",0.378100,0.001200,-0.012400,-0.925600,-135.560,224.440,-0.410,1.367,,,,,,,,,,,,,0,,,Not running,,,,,,,,,,,0.999400,0.024900,0.020900,0.004400,0.373622,0.011077,-0.043353,-0.926501,-136.106,-0.680,5.084,b6 00 00 00 00 00 00 c5 0e 0c 00 84 ff d8 db 07 32 8a
0.271,fused,,20,0x07,"IMU0_OK, IMU1_OK, FUSION_READY",0.022500,-0.967500,0.251600,-0.002000,-29.141,-29.141,0.427,-177.446,,,,,,,,,,,,,0,,,Not running,,,,,,,,,,,0.999400,0.024900,0.020900,0.004400,0.003646,-0.966454,0.255218,-0.028587,-29.619,-3.061,-178.758,b6 00 00 00 00 00 00 e1 00 35 da d4 09 ec ff 07 14 d3
0.272,fused,,40,0x07,"IMU0_OK, IMU1_OK, FUSION_READY",0.844000,0.003900,0.018700,-0.535900,-64.835,-64.835,2.049,-0.772,,,,,,,,,,,,,0,,,Not running,,,,,,,,,,,0.999400,0.024900,0.020900,0.004400,0.841722,-0.005836,-0.012313,-0.539739,-65.341,-1.549,0.199,b6 00 00 00 00 00 00 f8 20 27 00 bb 00 11 eb 07 28 91
0.273,fused,,30,0x07,"IMU0_OK, IMU1_OK, FUSION_READY",0.589600,-0.013600,0.044100,-0.806300,-107.717,252.283,1.723,-5.002,,,,,,,,,,,,,0,,,Not running,,,,,,,,,,,0.999400,0.024900,0.020900,0.004400,0.586354,-0.011229,0.011735,-0.809892,-108.188,-0.254,-1.844,b6 00 00 00 00 00 00 08 17 78 ff b9 01 81 e0 07 1e 58
0.274,fused,,0,0x07,"IMU0_OK, IMU1_OK, FUSION_READY",0.999400,0.024900,0.020900,0.004400,0.564,0.564,2.382,2.866,,,,,,,,,,,,,0,,,Not running,,,,,,,,,,,0.999400,0.024900,0.020900,0.004400,1.000000,0.000000,-0.000000,0.000000,0.000,-0.000,0.000,b6 00 00 00 00 00 00 0a 27 f9 00 d1 00 2c 00 07 00 2e
0.275,fused,,50,0x07,"IMU0_OK, IMU1_OK, FUSION_READY",0.378100,0.001200,-0.012400,-0.925600,-135.560,224.440,-0.410,1.367,,,,,,,,,,,,,0,,,Not running,,,,,,,,,,,0.999400,0.024900,0.020900,0.004400,0.373622,0.011077,-0.043353,-0.926501,-136.106,-0.680,5.084,b6 00 00 00 00 00 00 c5 0e 0c 00 84 ff d8 db 07 32 8a
0.276,fused,,20,0x07,"IMU0_OK, IMU1_OK, FUSION_READY",0.022500,-0.967500,0.251600,-0.002100,-29.141,-29.141,0.416,-177.443,,,,,,,,,,,,,0,,,Not running,,,,,,,,,,,0.999400,0.024900,0.020900,0.004400,0.003645,-0.966452,0.255216,-0.028687,-29.619,-3.072,-178.755,b6 00 00 00 00 00 00 e1 00 35 da d4 09 eb ff 07 14 d4
0.277,fused,,40,0x07,"IMU0_OK, IMU1_OK, FUSION_READY",0.844000,0.003900,0.018700,-0.535900,-64.835,-64.835,2.049,-0.772,,,,,,,,,,,,,0,,,Not running,,,,,,,,,,,0.999400,0.024900,0.020900,0.004400,0.841722,-0.005836,-0.012313,-0.539739,-65.341,-1.549,0.199,b6 00 00 00 00 00 00 f8 20 27 00 bb 00 11 eb 07 28 91
0.278,fused,,30,0x07,"IMU0_OK, IMU1_OK, FUSION_READY",0.589600,-0.013700,0.044100,-0.806300,-107.717,252.283,1.714,-5.009,,,,,,,,,,,,,0,,,Not running,,,,,,,,,,,0.999400,0.024900,0.020900,0.004400,0.586350,-0.011328,0.011736,-0.809893,-108.188,-0.263,-1.851,b6 00 00 00 00 00 00 08 17 77 ff b9 01 81 e0 07 1e 57
0.279,fused,,0,0x07,"IMU0_OK, IMU1_OK, FUSION_READY",0.999400,0.024900,0.020900,0.004500,0.575,0.575,2.381,2.866,,,,,,,,,,,,,0,,,Not running,,,,,,,,,,,0.999400,0.024900,0.020900,0.004500,1.000000,0.000000,0.000000,0.000000,0.000,0.000,0.000,b6 00 00 00 00 00 00 0a 27 f9 00 d1 00 2d 00 07 00 2f
0.280,fused,,50,0x07,"IMU0_OK, IMU1_OK, FUSION_READY",0.378000,0.001000,-0.012500,-0.925700,-135.579,224.421,-0.435,1.369,,,,,,,,,,,,,0,,,Not running,,,,,,,,,,,0.999400,0.024900,0.020900,0.004500,0.373401,0.010879,-0.043451,-0.926588,-136.134,-0.704,5.086,b6 00 00 00 00 00 00 c4 0e 0a 00 83 ff d7 db 07 32 85
0.281,fused,,20,0x07,"IMU0_OK, IMU1_OK, FUSION_READY",0.022500,-0.967500,0.251600,-0.002000,-29.141,-29.141,0.427,-177.446,,,,,,,,,,,,,0,,,Not running,,,,,,,,,,,0.999400,0.024900,0.020900,0.004500,0.003646,-0.966428,0.255315,-0.028589,-29.630,-3.061,-178.758,b6 00 00 00 00 00 00 e1 00 35 da d4 09 ec ff 07 14 d3
0.282,fused,,40,0x07,"IMU0_OK, IMU1_OK, FUSION_READY",0.844000,0.003900,0.018700,-0.535900,-64.835,-64.835,2.049,-0.772,,,,,,,,,,,,,0,,,Not running,,,,,,,,,,,0.999400,0.024900,0.020900,0.004500,0.841668,-0.005834,-0.012314,-0.539823,-65.353,-1.549,0.199,b6 00 00 00 00 00 00 f8 20 27 00 bb 00 11 eb 07 28 91
0.284,fused,,30,0x07,"IMU0_OK, IMU1_OK, FUSION_READY",0.589600,-0.013700,0.044100,-0.806300,-107.717,252.283,1.714,-5.009,,,,,,,,,,,,,0,,,Not running,,,,,,,,,,,0.999400,0.024900,0.020900,0.004500,0.586269,-0.011324,0.011737,-0.809952,-108.199,-0.263,-1.850,b6 00 00 00 00 00 00 08 17 77 ff b9 01 81 e0 07 1e 57
0.285,fused,,0,0x07,"IMU0_OK, IMU1_OK, FUSION_READY",0.999400,0.024900,0.020900,0.004500,0.575,0.575,2.381,2.866,,,,,,,,,,,,,0,,,Not running,,,,,,,,,,,0.999400,0.024900,0.020900,0.004500,1.000000,0.000000,0.000000,0.000000,0.000,0.000,0.000,b6 00 00 00 00 00 00 0a 27 f9 00 d1 00 2d 00 07 00 2f
0.286,fused,,50,0x07,"IMU0_OK, IMU1_OK, FUSION_READY",0.378000,0.001000,-0.012500,-0.925700,-135.579,224.421,-0.435,1.369,,,,,,,,,,,,,0,,,Not running,,,,,,,,,,,0.999400,0.024900,0.020900,0.004500,0.373401,0.010879,-0.043451,-0.926588,-136.134,-0.704,5.086,b6 00 00 00 00 00 00 c4 0e 0a 00 83 ff d7 db 07 32 85
0.287,fused,,20,0x07,"IMU0_OK, IMU1_OK, FUSION_READY",0.022500,-0.967500,0.251600,-0.002000,-29.141,-29.141,0.427,-177.446,,,,,,,,,,,,,0,,,Not running,,,,,,,,,,,0.999400,0.024900,0.020900,0.004500,0.003646,-0.966428,0.255315,-0.028589,-29.630,-3.061,-178.758,b6 00 00 00 00 00 00 e1 00 35 da d4 09 ec ff 07 14 d3
0.287,fused,,40,0x07,"IMU0_OK, IMU1_OK, FUSION_READY",0.844000,0.003900,0.018700,-0.535900,-64.835,-64.835,2.049,-0.772,,,,,,,,,,,,,0,,,Not running,,,,,,,,,,,0.999400,0.024900,0.020900,0.004500,0.841668,-0.005834,-0.012314,-0.539823,-65.353,-1.549,0.199,b6 00 00 00 00 00 00 f8 20 27 00 bb 00 11 eb 07 28 91
0.288,fused,,30,0x07,"IMU0_OK, IMU1_OK, FUSION_READY",0.589700,-0.013600,0.044000,-0.806300,-107.713,252.287,1.717,-4.993,,,,,,,,,,,,,0,,,Not running,,,,,,,,,,,0.999400,0.024900,0.020900,0.004500,0.586339,-0.011226,0.011634,-0.809905,-108.190,-0.260,-1.834,b6 00 00 00 00 00 00 09 17 78 ff b8 01 81 e0 07 1e 58
0.289,fused,,0,0x07,"IMU0_OK, IMU1_OK, FUSION_READY",0.999400,0.024900,0.020900,0.004500,0.575,0.575,2.381,2.866,,,,,,,,,,,,,0,,,Not running,,,,,,,,,,,0.999400,0.024900,0.020900,0.004500,1.000000,0.000000,0.000000,0.000000,0.000,0.000,0.000,b6 00 00 00 00 00 00 0a 27 f9 00 d1 00 2d 00 07 00 2f
0.290,fused,,50,0x07,"IMU0_OK, IMU1_OK, FUSION_READY",0.378000,0.001200,-0.012400,-0.925700,-135.579,224.421,-0.410,1.368,,,,,,,,,,,,,0,,,Not running,,,,,,,,,,,0.999400,0.024900,0.020900,0.004500,0.373409,0.011079,-0.043352,-0.926587,-136.132,-0.679,5.084,b6 00 00 00 00 00 00 c4 0e 0c 00 84 ff d7 db 07 32 84
0.291,fused,,20,0x07,"IMU0_OK, IMU1_OK, FUSION_READY",0.022500,-0.967500,0.251600,-0.002000,-29.141,-29.141,0.427,-177.446,,,,,,,,,,,,,0,,,Not running,,,,,,,,,,,0.999400,0.024900,0.020900,0.004500,0.003646,-0.966428,0.255315,-0.028589,-29.630,-3.061,-178.758,b6 00 00 00 00 00 00 e1 00 35 da d4 09 ec ff 07 14 d3
0.293,fused,,40,0x07,"IMU0_OK, IMU1_OK, FUSION_READY",0.844000,0.003900,0.018700,-0.535900,-64.835,-64.835,2.049,-0.772,,,,,,,,,,,,,0,,,Not running,,,,,,,,,,,0.999400,0.024900,0.020900,0.004500,0.841668,-0.005834,-0.012314,-0.539823,-65.353,-1.549,0.199,b6 00 00 00 00 00 00 f8 20 27 00 bb 00 11 eb 07 28 91
0.294,fused,,30,0x07,"IMU0_OK, IMU1_OK, FUSION_READY",0.589700,-0.013600,0.044000,-0.806200,-107.698,252.302,1.717,-4.992,,,,,,,,,,,,,0,,,Not running,,,,,,,,,,,0.999400,0.024900,0.020900,0.004500,0.586386,-0.011229,0.011637,-0.809870,-108.183,-0.260,-1.835,b6 00 00 00 00 00 00 09 17 78 ff b8 01 82 e0 07 1e 5b
0.295,fused,,0,0x07,"IMU0_OK, IMU1_OK, FUSION_READY",0.999400,0.024900,0.020800,0.004500,0.575,0.575,2.370,2.866,,,,,,,,,,,,,0,,,Not running,,,,,,,,,,,0.999400,0.024900,0.020800,0.004500,1.000000,0.000000,0.000000,0.000000,0.000,0.000,0.000,b6 00 00 00 00 00 00 0a 27 f9 00 d0 00 2d 00 07 00 2e
0.297,fused,,50,0x07,"IMU0_OK, IMU1_OK, FUSION_READY",0.377900,0.001200,-0.012400,-0.925700,-135.587,224.413,-0.410,1.367,,,,,,,,,,,,,0,,,Not running,,,,,,,,,,,0.999400,0.024900,0.020800,0.004500,0.373325,0.010990,-0.043313,-0.926624,-136.143,-0.686,5.076,b6 00 00 00 00 00 00 c3 0e 0c 00 84 ff d7 db 07 32 83
0.299,fused,,20,0x07,"IMU0_OK, IMU1_OK, FUSION_READY",0.022600,-0.967500,0.251600,-0.002100,-29.141,-29.141,0.419,-177.432,,,,,,,,,,,,,0,,,Not running,,,,,,,,,,,0.999400,0.024900,0.020800,0.004500,0.003720,-0.966428,0.255313,-0.028593,-29.630,-3.059,-178.750,b6 00 00 00 00 00 00 e2 00 35 da d4 09 eb ff 07 14 d7
0.300,fused,,40,0x07,"IMU0_OK, IMU1_OK, FUSION_READY",0.844000,0.003900,0.018700,-0.535800,-64.820,-64.820,2.048,-0.771,,,,,,,,,,,,,0,,,Not running,,,,,,,,,,,0.999400,0.024900,0.020800,0.004500,0.841713,-0.005890,-0.012227,-0.539754,-65.343,-1.544,0.188,b6 00 00 00 00 00 00 f8 20 27 00 bb 00 12 eb 07 28 92
0.301,fused,,30,0x07,"IMU0_OK, IMU1_OK, FUSION_READY",0.589700,-0.013700,0.044100,-0.806200,-107.698,252.302,1.715,-5.009,,,,,,,,,,,,,0,,,Not running,,,,,,,,,,,0.999400,0.024900,0.020800,0.004500,0.586379,-0.011410,0.011797,-0.809870,-108.184,-0.266,-1.862,b6 00 00 00 00 00 00 09 17 77 ff b9 01 82 e0 07 1e 55
0.302,fused,,0,0x07,"IMU0_OK, IMU1_OK, FUSION_READY",0.999400,0.024900,0.020800,0.004500,0.575,0.575,2.370,2.866,,,,,,,,,,,,,0,,,Not running,,,,,,,,,,,0.999400,0.024900,0.020800,0.004500,1.000000,0.000000,0.000000,0.000000,0.000,0.000,0.000,b6 00 00 00 00 00 00 0a 27 f9 00 d0 00 2d 00 07 00 2e
0.302,fused,,50,0x07,"IMU0_OK, IMU1_OK, FUSION_READY",0.377900,0.001100,-0.012500,-0.925700,-135.587,224.413,-0.425,1.374,,,,,,,,,,,,,0,,,Not running,,,,,,,,,,,0.999400,0.024900,0.020800,0.004500,0.373320,0.010889,-0.043413,-0.926622,-136.144,-0.701,5.083,b6 00 00 00 00 00 00 c3 0e 0b 00 83 ff d7 db 07 32 83
0.303,fused,,20,0x07,"IMU0_OK, IMU1_OK, FUSION_READY",0.022600,-0.967500,0.251600,-0.002100,-29.141,-29.141,0.419,-177.432,,,,,,,,,,,,,0,,,Not running,,,,,,,,,,,0.999400,0.024900,0.020800,0.004500,0.003720,-0.966428,0.255313,-0.028593,-29.630,-3.059,-178.750,b6 00 00 00 00 00 00 e2 00 35 da d4 09 eb ff 07 14 d7
