time_s,protocol,sequence,node_id,status_hex,status_bits,quat_w,quat_x,quat_y,quat_z,yaw_deg,yaw_unwrapped_deg,pitch_deg,roll_deg,imu0_accel_x_mg,imu0_accel_y_mg,imu0_accel_z_mg,imu0_gyro_x_dps,imu0_gyro_y_dps,imu0_gyro_z_dps,imu1_accel_x_mg,imu1_accel_y_mg,imu1_accel_z_mg,imu1_gyro_x_dps,imu1_gyro_y_dps,imu1_gyro_z_dps,guided_test_active,guided_test_step,guided_test_step_label,guided_test_step_status,guided_test_elapsed_s,guided_test_target_node,guided_test_target_label,guided_test_error_deg,guided_test_reference_node,guided_test_reference_label,palm_ref_quat_w,palm_ref_quat_x,palm_ref_quat_y,palm_ref_quat_z,palm_live_quat_w,palm_live_quat_x,palm_live_quat_y,palm_live_quat_z,relative_to_palm_quat_w,relative_to_palm_quat_x,relative_to_palm_quat_y,relative_to_palm_quat_z,relative_to_palm_yaw_deg,relative_to_palm_pitch_deg,relative_to_palm_roll_deg,raw_frame_hex
0.000,fused,,20,0x07,"IMU0_OK, IMU1_OK, FUSION_READY",0.007700,-0.998300,-0.057100,0.000000,6.546,6.546,-0.050,-179.119,,,,,,,,,,,,,0,,,Not running,,,,,,,,,,,0.998700,0.032300,0.038900,-0.000300,0.026778,0.997293,0.057628,0.036989,6.732,-4.054,176.685,b6 00 00 00 00 00 00 4d 00 01 d9 c5 fd 00 00 07 14 be
0.001,fused,,0,0x07,"IMU0_OK, IMU1_OK, FUSION_READY",0.998700,0.032300,0.038800,-0.000300,0.110,0.110,4.446,3.709,,,,,,,,,,,,,0,,,Not running,,,,,,,,,,,0.998700,0.032300,0.038800,-0.000300,1.000000,0.000000,0.000000,0.000000,0.000,0.000,0.000,b6 00 00 00 00 00 00 03 27 43 01 84 01 fd ff 07 00 e6
0.002,fused,,50,0x07,"IMU0_OK, IMU1_OK, FUSION_READY",0.264200,0.013200,0.001800,-0.964300,-149.349,-149.349,1.513,0.201,,,,,,,,,,,,,0,,,Not running,,,,,,,,,,,0.998700,0.032300,0.038800,-0.000300,0.264668,0.042068,-0.039600,-0.962607,-149.083,3.441,5.663,b6 00 00 00 00 00 00 52 0a 84 00 12 00 55 da 07 32 74
0.003,fused,,30,0x07,"IMU0_OK, IMU1_OK, FUSION_READY",0.861300,-0.029000,-0.004900,0.507100,60.935,60.935,1.202,-3.149,,,,,,,,,,,,,0,,,Not running,,,,,,,,,,,0.998700,0.032300,0.038800,-0.000300,0.858986,-0.076464,-0.021944,0.505782,60.805,2.272,-8.840,b6 00 00 00 00 00 00 a5 21 de fe cf ff cf 13 07 1e 51
0.004,fused,,40,0x07,"IMU0_OK, IMU1_OK, FUSION_READY",0.909400,-0.012500,0.017800,-0.415200,-49.098,-49.098,1.260,-2.151,,,,,,,,,,,,,0,,,Not running,,,,,,,,,,,0.998700,0.032300,0.038800,-0.000300,0.908710,-0.025755,-0.030925,-0.415484,-49.095,-4.451,-1.213,b6 00 00 00 00 00 00 86 23 83 ff b2 00 c8 ef 07 28 63
0.006,fused,,20,0x07,"IMU0_OK, IMU1_OK, FUSION_READY",0.007700,-0.998300,-0.057100,0.000000,6.546,6.546,-0.050,-179.119,,,,,,,,,,,,,0,,,Not running,,,,,,,,,,,0.998700,0.032300,0.038800,-0.000300,0.026772,0.997297,0.057628,0.036890,6.731,-4.042,176.687,b6 00 00 00 00 00 00 4d 00 01 d9 c5 fd 00 00 07 14 be
0.007,fused,,0,0x07,"IMU0_OK, IMU1_OK, FUSION_READY",0.998700,0.032300,0.038900,-0.000300,0.110,0.110,4.457,3.709,,,,,,,,,,,,,0,,,Not running,,,,,,,,,,,0.998700,0.032300,0.038900,-0.000300,1.000000,0.000000,-0.000000,0.000000,0.000,-0.000,-0.000,b6 00 00 00 00 00 00 03 27 43 01 85 01 fd ff 07 00 e7
0.008,fused,,50,0x07,"IMU0_OK, IMU1_OK, FUSION_READY",0.264200,0.013200,0.001700,-0.964300,-149.349,-149.349,1.510,0.212,,,,,,,,,,,,,0,,,Not running,,,,,,,,,,,0.998700,0.032300,0.038900,-0.000300,0.264663,0.042164,-0.039726,-0.962599,-149.082,3.448,5.680,b6 00 00 00 00 00 00 52 0a 84 00 11 00 55 da 07 32 77
0.009,fused,,30,0x07,"IMU0_OK, IMU1_OK, FUSION_READY",0.861300,-0.029000,-0.004900,0.507100,60.935,60.935,1.202,-3.149,,,,,,,,,,,,,0,,,Not running,,,,,,,,,,,0.998700,0.032300,0.038900,-0.000300,0.858982,-0.076514,-0.022030,0.505777,60.805,2.267,-8.850,b6 00 00 00 00 00 00 a5 21 de fe cf ff cf 13 07 1e 51
0.010,fused,,40,0x07,"IMU0_OK, IMU1_OK, FUSION_READY",0.909400,-0.012600,0.017800,-0.415200,-49.098,-49.098,1.256,-2.161,,,,,,,,,,,,,0,,,Not running,,,,,,,,,,,0.998700,0.032300,0.038900,-0.000300,0.908704,-0.025813,-0.031016,-0.415487,-49.095,-4.463,-1.215,b6 00 00 00 00 00 00 86 23 82 ff b2 00 c8 ef 07 28 62
0.011,fused,,20,0x07,"IMU0_OK, IMU1_OK, FUSION_READY",0.007700,-0.998300,-0.057100,0.000000,6.546,6.546,-0.050,-179.119,,,,,,,,,,,,,0,,,Not running,,,,,,,,,,,0.998700,0.032300,0.038900,-0.000300,0.026778,0.997293,0.057628,0.036989,6.732,-4.054,176.685,b6 00 00 00 00 00 00 4d 00 01 d9 c5 fd 00 00 07 14 be
0.012,fused,,0,0x07,"IMU0_OK, IMU1_OK, FUSION_READY",0.998700,0.032300,0.038800,-0.000300,0.110,0.110,4.446,3.709,,,,,,,,,,,,,0,,,Not running,,,,,,,,,,,0.998700,0.032300,0.038800,-0.000300,1.000000,0.000000,0.000000,0.000000,0.000,0.000,0.000,b6 00 00 00 00 00 00 03 27 43 01 84 01 fd ff 07 00 e6
0.013,fused,,50,0x07,"IMU0_OK, IMU1_OK, FUSION_READY",0.264100,0.013200,0.001800,-0.964300,-149.359,-149.359,1.513,0.201,,,,,,,,,,,,,0,,,Not running,,,,,,,,,,,0.998700,0.032300,0.038800,-0.000300,0.264575,0.042072,-0.039597,-0.962633,-149.094,3.442,5.663,b6 00 00 00 00 00 00 51 0a 84 00 12 00 55 da 07 32 77
0.014,fused,,30,0x07,"IMU0_OK, IMU1_OK, FUSION_READY",0.861300,-0.029000,-0.004900,0.507200,60.950,60.950,1.202,-3.149,,,,,,,,,,,,,0,,,Not running,,,,,,,,,,,0.998700,0.032300,0.038800,-0.000300,0.858942,-0.076464,-0.021939,0.505856,60.814,2.274,-8.840,b6 00 00 00 00 00 00 a5 21 de fe cf ff d0 13 07 1e 4e
0.014,fused,,40,0x07,"IMU0_OK, IMU1_OK, FUSION_READY",0.909400,-0.012600,0.017800,-0.415200,-49.098,-49.098,1.256,-2.161,,,,,,,,,,,,,0,,,Not running,,,,,,,,,,,0.998700,0.032300,0.038800,-0.000300,0.908705,-0.025855,-0.030925,-0.415487,-49.095,-4.456,-1.224,b6 00 00 00 00 00 00 86 23 82 ff b2 00 c8 ef 07 28 62
0.015,fused,,20,0x07,"IMU0_OK, IMU1_OK, FUSION_READY",0.007700,-0.998300,-0.057100,0.000000,6.546,6.546,-0.050,-179.119,,,,,,,,,,,,,0,,,Not running,,,,,,,,,,,0.998700,0.032300,0.038800,-0.000300,0.026772,0.997297,0.057628,0.036890,6.731,-4.042,176.687,b6 00 00 00 00 00 00 4d 00 01 d9 c5 fd 00 00 07 14 be
0.016,fused,,0,0x07,"IMU0_OK, IMU1_OK, FUSION_READY",0.998700,0.032300,0.038800,-0.000300,0.110,0.110,4.446,3.709,,,,,,,,,,,,,0,,,Not running,,,,,,,,,,,0.998700,0.032300,0.038800,-0.000300,1.000000,0.000000,0.000000,0.000000,0.000,0.000,0.000,b6 00 00 00 00 00 00 03 27 43 01 84 01 fd ff 07 00 e6
0.017,fused,,50,0x07,"IMU0_OK, IMU1_OK, FUSION_READY",0.264100,0.013200,0.001800,-0.964300,-149.359,-149.359,1.513,0.201,,,,,,,,,,,,,0,,,Not running,,,,,,,,,,,0.998700,0.032300,0.038800,-0.000300,0.264575,0.042072,-0.039597,-0.962633,-149.094,3.442,5.663,b6 00 00 00 00 00 00 51 0a 84 00 12 00 55 da 07 32 77
0.018,fused,,30,0x07,"IMU0_OK, IMU1_OK, FUSION_READY",0.861300,-0.029000,-0.004900,0.507200,60.950,60.950,1.202,-3.149,,,,,,,,,,,,,0,,,Not running,,,,,,,,,,,0.998700,0.032300,0.038800,-0.000300,0.858942,-0.076464,-0.021939,0.505856,60.814,2.274,-8.840,b6 00 00 00 00 00 00 a5 21 de fe cf ff d0 13 07 1e 4e
0.019,fused,,40,0x07,"IMU0_OK, IMU1_OK, FUSION_READY",0.909400,-0.012600,0.017800,-0.415200,-49.098,-49.098,1.256,-2.161,,,,,,,,,,,,,0,,,Not running,,,,,,,,,,,0.998700,0.032300,0.038800,-0.000300,0.908705,-0.025855,-0.030925,-0.415487,-49.095,-4.456,-1.224,b6 00 00 00 00 00 00 86 23 82 ff b2 00 c8 ef 07 28 62
0.020,fused,,20,0x07,"IMU0_OK, IMU1_OK, FUSION_READY",0.007700,-0.998300,-0.057100,0.000000,6.546,6.546,-0.050,-179.119,,,,,,,,,,,,,0,,,Not running,,,,,,,,,,,0.998700,0.032300,0.038800,-0.000300,0.026772,0.997297,0.057628,0.036890,6.731,-4.042,176.687,b6 00 00 00 00 00 00 4d 00 01 d9 c5 fd 00 00 07 14 be
0.022,fused,,0,0x07,"IMU0_OK, IMU1_OK, FUSION_READY",0.998700,0.032300,0.038800,-0.000300,0.110,0.110,4.446,3.709,,,,,,,,,,,,,0,,,Not running,,,,,,,,,,,0.998700,0.032300,0.038800,-0.000300,1.000000,0.000000,0.000000,0.000000,0.000,0.000,0.000,b6 00 00 00 00 00 00 03 27 43 01 84 01 fd ff 07 00 e6
0.023,fused,,50,0x07,"IMU0_OK, IMU1_OK, FUSION_READY",0.264100,0.013200,0.001700,-0.964300,-149.359,-149.359,1.510,0.212,,,,,,,,,,,,,0,,,Not running,,,,,,,,,,,0.998700,0.032300,0.038800,-0.000300,0.264571,0.042072,-0.039697,-0.962630,-149.094,3.439,5.674,b6 00 00 00 00 00 00 51 0a 84 00 11 00 55 da 07 32 74
0.025,fused,,30,0x07,"IMU0_OK, IMU1_OK, FUSION_READY",0.861200,-0.029000,-0.004900,0.507200,60.948,60.948,1.202,-3.149,,,,,,,,,,,,,0,,,Not running,,,,,,,,,,,0.998700,0.032300,0.038800,-0.000300,0.858916,-0.076467,-0.021937,0.505900,60.820,2.274,-8.840,b6 00 00 00 00 00 00 a4 21 de fe cf ff d0 13 07 1e 4f
0.027,fused,,40,0x07,"IMU0_OK, IMU1_OK, FUSION_READY",0.909400,-0.012600,0.017900,-0.415200,-49.098,-49.098,1.266,-2.166,,,,,,,,,,,,,0,,,Not running,,,,,,,,,,,0.998700,0.032300,0.038800,-0.000300,0.908708,-0.025855,-0.030825,-0.415490,-49.095,-4.445,-1.228,b6 00 00 00 00 00 00 86 23 82 ff b3 00 c8 ef 07 28 63
0.029,fused,,20,0x07,"IMU0_OK, IMU1_OK, FUSION_READY",0.007700,-0.998300,-0.057100,0.000000,6.546,6.546,-0.050,-179.119,,,,,,,,,,,,,0,,,Not running,,,,,,,,,,,0.998700,0.032300,0.038800,-0.000300,0.026772,0.997297,0.057628,0.036890,6.731,-4.042,176.687,b6 00 00 00 00 00 00 4d 00 01 d9 c5 fd 00 00 07 14 be
0.030,fused,,0,0x07,"IMU0_OK, IMU1_OK, FUSION_READY",0.998700,0.032300,0.038800,-0.000300,0.110,0.110,4.446,3.709,,,,,,,,,,,,,0,,,Not running,,,,,,,,,,,0.998700,0.032300,0.038800,-0.000300,1.000000,0.000000,0.000000,0.000000,0.000,0.000,0.000,b6 00 00 00 00 00 00 03 27 43 01 84 01 fd ff 07 00 e6
0.031,fused,,50,0x07,"IMU0_OK, IMU1_OK, FUSION_READY",0.264000,0.013200,0.001700,-0.964400,-149.377,-149.377,1.510,0.212,,,,,,,,,,,,,0,,,Not running,,,,,,,,,,,0.998700,0.032300,0.038800,-0.000300,0.264453,0.042076,-0.039694,-0.962662,-149.108,3.441,5.673,b6 00 00 00 00 00 00 50 0a 84 00 11 00 54 da 07 32 74
0.032,fused,,30,0x07,"IMU0_OK, IMU1_OK, FUSION_READY",0.861200,-0.029000,-0.004900,0.507200,60.948,60.948,1.202,-3.149,,,,,,,,,,,,,0,,,Not running,,,,,,,,,,,0.998700,0.032300,0.038800,-0.000300,0.858916,-0.076467,-0.021937,0.505900,60.820,2.274,-8.840,b6 00 00 00 00 00 00 a4 21 de fe cf ff d0 13 07 1e 4f
0.033,fused,,40,0x07,"IMU0_OK, IMU1_OK, FUSION_READY",0.909400,-0.012600,0.017800,-0.415200,-49.098,-49.098,1.256,-2.161,,,,,,,,,,,,,0,,,Not running,,,,,,,,,,,0.998700,0.032300,0.038800,-0.000300,0.908705,-0.025855,-0.030925,-0.415487,-49.095,-4.456,-1.224,b6 00 00 00 00 00 00 86 23 82 ff b2 00 c8 ef 07 28 62
0.034,fused,,20,0x07,"IMU0_OK, IMU1_OK, FUSION_READY",0.007700,-0.998300,-0.057100,0.000000,6.546,6.546,-0.050,-179.119,,,,,,,,,,,,,0,,,Not running,,,,,,,,,,,0.998700,0.032300,0.038800,-0.000300,0.026772,0.997297,0.057628,0.036890,6.731,-4.042,176.687,b6 00 00 00 00 00 00 4d 00 01 d9 c5 fd 00 00 07 14 be
0.034,fused,,0,0x07,"IMU0_OK, IMU1_OK, FUSION_READY",0.998700,0.032300,0.038800,-0.000300,0.110,0.110,4.446,3.709,,,,,,,,,,,,,0,,,Not running,,,,,,,,,,,0.998700,0.032300,0.038800,-0.000300,1.000000,0.000000,0.000000,0.000000,0.000,0.000,0.000,b6 00 00 00 00 00 00 03 27 43 01 84 01 fd ff 07 00 e6
0.035,fused,,50,0x07,"IMU0_OK, IMU1_OK, FUSION_READY",0.264000,0.013200,0.001700,-0.964400,-149.377,-149.377,1.510,0.212,,,,,,,,,,,,,0,,,Not running,,,,,,,,,,,0.998700,0.032300,0.038800,-0.000300,0.264453,0.042076,-0.039694,-0.962662,-149.108,3.441,5.673,b6 00 00 00 00 00 00 50 0a 84 00 11 00 54 da 07 32 74
0.036,fused,,30,0x07,"IMU0_OK, IMU1_OK, FUSION_READY",0.861200,-0.029000,-0.004900,0.507200,60.948,60.948,1.202,-3.149,,,,,,,,,,,,,0,,,Not running,,,,,,,,,,,0.998700,0.032300,0.038800,-0.000300,0.858916,-0.076467,-0.021937,0.505900,60.820,2.274,-8.840,b6 00 00 00 00 00 00 a4 21 de fe cf ff d0 13 07 1e 4f
0.038,fused,,40,0x07,"IMU0_OK, IMU1_OK, FUSION_READY",0.909400,-0.012600,0.017800,-0.415100,-49.084,-49.084,1.256,-2.161,,,,,,,,,,,,,0,,,Not running,,,,,,,,,,,0.998700,0.032300,0.038800,-0.000300,0.908743,-0.025860,-0.030923,-0.415405,-49.085,-4.456,-1.225,b6 00 00 00 00 00 00 86 23 82 ff b2 00 c9 ef 07 28 63
0.039,fused,,20,0x07,"IMU0_OK, IMU1_OK, FUSION_READY",0.007700,-0.998300,-0.057100,0.000000,6.546,6.546,-0.050,-179.119,,,,,,,,,,,,,0,,,Not running,,,,,,,,,,,0.998700,0.032300,0.038800,-0.000300,0.026772,0.997297,0.057628,0.036890,6.731,-4.042,176.687,b6 00 00 00 00 00 00 4d 00 01 d9 c5 fd 00 00 07 14 be
0.040,fused,,0,0x07,"IMU0_OK, IMU1_OK, FUSION_READY",0.998700,0.032300,0.038800,-0.000300,0.110,0.110,4.446,3.709,,,,,,,,,,,,,0,,,Not running,,,,,,,,,,,0.998700,0.032300,0.038800,-0.000300,1.000000,0.000000,0.000000,0.000000,0.000,0.000,0.000,b6 00 00 00 00 00 00 03 27 43 01 84 01 fd ff 07 00 e6
0.042,fused,,50,0x07,"IMU0_OK, IMU1_OK, FUSION_READY",0.264000,0.013200,0.001700,-0.964400,-149.377,-149.377,1.510,0.212,,,,,,,,,,,,,0,,,Not running,,,,,,,,,,,0.998700,0.032300,0.038800,-0.000300,0.264453,0.042076,-0.039694,-0.962662,-149.108,3.441,5.673,b6 00 00 00 00 00 00 50 0a 84 00 11 00 54 da 07 32 74
0.043,fused,,30,0x07,"IMU0_OK, IMU1_OK, FUSION_READY",0.861200,-0.029000,-0.004900,0.507300,60.963,60.963,1.202,-3.149,,,,,,,,,,,,,0,,,Not running,,,,,,,,,,,0.998700,0.032300,0.038800,-0.000300,0.858873,-0.076467,-0.021933,0.505974,60.830,2.276,-8.840,b6 00 00 00 00 00 00 a4 21 de fe cf ff d1 13 07 1e 4e
0.044,fused,,40,0x07,"IMU0_OK, IMU1_OK, FUSION_READY",0.909400,-0.012600,0.017800,-0.415100,-49.084,-49.084,1.256,-2.161,,,,,,,,,,,,,0,,,Not running,,,,,,,,,,,0.998700,0.032300,0.038800,-0.000300,0.908743,-0.025860,-0.030923,-0.415405,-49.085,-4.456,-1.225,b6 00 00 00 00 00 00 86 23 82 ff b2 00 c9 ef 07 28 63
0.045,fused,,20,0x07,"IMU0_OK, IMU1_OK, FUSION_READY",0.007700,-0.998300,-0.057100,0.000000,6.546,6.546,-0.050,-179.119,,,,,,,,,,,,,0,,,Not running,,,,,,,,,,,0.998700,0.032300,0.038800,-0.000300,0.026772,0.997297,0.057628,0.036890,6.731,-4.042,176.687,b6 00 00 00 00 00 00 4d 00 01 d9 c5 fd 00 00 07 14 be
0.046,fused,,0,0x07,"IMU0_OK, IMU1_OK, FUSION_READY",0.998700,0.032300,0.038800,-0.000300,0.110,0.110,4.446,3.709,,,,,,,,,,,,,0,,,Not running,,,,,,,,,,,0.998700,0.032300,0.038800,-0.000300,1.000000,0.000000,0.000000,0.000000,0.000,0.000,0.000,b6 00 00 00 00 00 00 03 27 43 01 84 01 fd ff 07 00 e6
0.046,fused,,50,0x07,"IMU0_OK, IMU1_OK, FUSION_READY",0.263900,0.013200,0.001700,-0.964400,-149.386,-149.386,1.510,0.211,,,,,,,,,,,,,0,,,Not running,,,,,,,,,,,0.998700,0.032300,0.038800,-0.000300,0.264360,0.042080,-0.039691,-0.962688,-149.119,3.442,5.673,b6 00 00 00 00 00 00 4f 0a 84 00 11 00 54 da 07 32 6b
0.047,fused,,30,0x07,"IMU0_OK, IMU1_OK, FUSION_READY",0.861200,-0.029000,-0.004900,0.507300,60.963,60.963,1.202,-3.149,,,,,,,,,,,,,0,,,Not running,,,,,,,,,,,0.998700,0.032300,0.038800,-0.000300,0.858873,-0.076467,-0.021933,0.505974,60.830,2.276,-8.840,b6 00 00 00 00 00 00 a4 21 de fe cf ff d1 13 07 1e 4e
0.048,fused,,40,0x07,"IMU0_OK, IMU1_OK, FUSION_READY",0.909400,-0.012600,0.017900,-0.415100,-49.084,-49.084,1.266,-2.166,,,,,,,,,,,,,0,,,Not running,,,,,,,,,,,0.998700,0.032300,0.038800,-0.000300,0.908745,-0.025860,-0.030823,-0.415407,-49.085,-4.445,-1.229,b6 00 00 00 00 00 00 86 23 82 ff b3 00 c9 ef 07 28 62
0.049,fused,,20,0x07,"IMU0_OK, IMU1_OK, FUSION_READY",0.007700,-0.998300,-0.057100,0.000000,6.546,6.546,-0.050,-179.119,,,,,,,,,,,,,0,,,Not running,,,,,,,,,,,0.998700,0.032300,0.038800,-0.000300,0.026772,0.997297,0.057628,0.036890,6.731,-4.042,176.687,b6 00 00 00 00 00 00 4d 00 01 d9 c5 fd 00 00 07 14 be
0.050,fused,,0,0x07,"IMU0_OK, IMU1_OK, FUSION_READY",0.998700,0.032400,0.038800,-0.000300,0.110,0.110,4.446,3.720,,,,,,,,,,,,,0,,,Not running,,,,,,,,,,,0.998700,0.032400,0.038800,-0.000300,1.000000,0.000000,-0.000000,0.000000,0.000,-0.000,-0.000,b6 00 00 00 00 00 00 03 27 44 01 84 01 fd ff 07 00 e1
0.050,fused,,50,0x07,"IMU0_OK, IMU1_OK, FUSION_READY",0.263900,0.013200,0.001700,-0.964400,-149.386,-149.386,1.510,0.211,,,,,,,,,,,,,0,,,Not running,,,,,,,,,,,0.998700,0.032400,0.038800,-0.000300,0.264360,0.042054,-0.039787,-0.962685,-149.119,3.436,5.683,b6 00 00 00 00 00 00 4f 0a 84 00 11 00 54 da 07 32 6b
0.051,fused,,30,0x07,"IMU0_OK, IMU1_OK, FUSION_READY",0.861200,-0.029000,-0.004900,0.507300,60.963,60.963,1.202,-3.149,,,,,,,,,,,,,0,,,Not running,,,,,,,,,,,0.998700,0.032400,0.038800,-0.000300,0.858867,-0.076553,-0.021882,0.505973,60.829,2.286,-8.845,b6 00 00 00 00 00 00 a4 21 de fe cf ff d1 13 07 1e 4e
0.052,fused,,40,0x07,"IMU0_OK, IMU1_OK, FUSION_READY",0.909400,-0.012500,0.017800,-0.415100,-49.084,-49.084,1.260,-2.150,,,,,,,,,,,,,0,,,Not running,,,,,,,,,,,0.998700,0.032400,0.038800,-0.000300,0.908743,-0.025851,-0.030965,-0.415402,-49.084,-4.460,-1.222,b6 00 00 00 00 00 00 86 23 83 ff b2 00 c9 ef 07 28 62
0.053,fused,,20,0x07,"IMU0_OK, IMU1_OK, FUSION_READY",0.007700,-0.998300,-0.057100,0.000000,6.546,6.546,-0.050,-179.119,,,,,,,,,,,,,0,,,Not running,,,,,,,,,,,0.998700,0.032400,0.038800,-0.000300,0.026872,0.997295,0.057627,0.036884,6.732,-4.041,176.675,b6 00 00 00 00 00 00 4d 00 01 d9 c5 fd 00 00 07 14 be
0.054,fused,,0,0x07,"IMU0_OK, IMU1_OK, FUSION_READY",0.998700,0.032400,0.038800,-0.000300,0.110,0.110,4.446,3.720,,,,,,,,,,,,,0,,,Not running,,,,,,,,,,,0.998700,0.032400,0.038800,-0.000300,1.000000,0.000000,-0.000000,0.000000,0.000,-0.000,-0.000,b6 00 00 00 00 00 00 03 27 44 01 84 01 fd ff 07 00 e1
0.055,fused,,50,0x07,"IMU0_OK, IMU1_OK, FUSION_READY",0.263900,0.013200,0.001700,-0.964400,-149.386,-149.386,1.510,0.211,,,,,,,,,,,,,0,,,Not running,,,,,,,,,,,0.998700,0.032400,0.038800,-0.000300,0.264360,0.042054,-0.039787,-0.962685,-149.119,3.436,5.683,b6 00 00 00 00 00 00 4f 0a 84 00 11 00 54 da 07 32 6b
0.056,fused,,30,0x07,"IMU0_OK, IMU1_OK, FUSION_READY",0.861200,-0.029000,-0.004900,0.507300,60.963,60.963,1.202,-3.149,,,,,,,,,,,,,0,,,Not running,,,,,,,,,,,0.998700,0.032400,0.038800,-0.000300,0.858867,-0.076553,-0.021882,0.505973,60.829,2.286,-8.845,b6 00 00 00 00 00 00 a4 21 de fe cf ff d1 13 07 1e 4e
0.057,fused,,40,0x07,"IMU0_OK, IMU1_OK, FUSION_READY",0.909400,-0.012600,0.017800,-0.415100,-49.084,-49.084,1.256,-2.161,,,,,,,,,,,,,0,,,Not running,,,,,,,,,,,0.998700,0.032400,0.038800,-0.000300,0.908739,-0.025951,-0.030965,-0.415405,-49.084,-4.464,-1.232,b6 00 00 00 00 00 00 86 23 82 ff b2 00 c9 ef 07 28 63
0.060,fused,,20,0x07,"IMU0_OK, IMU1_OK, FUSION_READY",0.007700,-0.998300,-0.057100,0.000000,6.546,6.546,-0.050,-179.119,,,,,,,,,,,,,0,,,Not running,,,,,,,,,,,0.998700,0.032400,0.038800,-0.000300,0.026872,0.997295,0.057627,0.036884,6.732,-4.041,176.675,b6 00 00 00 00 00 00 4d 00 01 d9 c5 fd 00 00 07 14 be
0.062,fused,,0,0x07,"IMU0_OK, IMU1_OK, FUSION_READY",0.998700,0.032400,0.038800,-0.000300,0.110,0.110,4.446,3.720,,,,,,,,,,,,,0,,,Not running,,,,,,,,,,,0.998700,0.032400,0.038800,-0.000300,1.000000,0.000000,-0.000000,0.000000,0.000,-0.000,-0.000,b6 00 00 00 00 00 00 03 27 44 01 84 01 fd ff 07 00 e1
0.063,fused,,50,0x07,"IMU0_OK, IMU1_OK, FUSION_READY",0.263800,0.013200,0.001700,-0.964400,-149.396,-149.396,1.510,0.211,,,,,,,,,,,,,0,,,Not running,,,,,,,,,,,0.998700,0.032400,0.038800,-0.000300,0.264268,0.042058,-0.039784,-0.962710,-149.130,3.437,5.682,b6 00 00 00 00 00 00 4e 0a 84 00 11 00 54 da 07 32 6a
0.064,fused,,30,0x07,"IMU0_OK, IMU1_OK, FUSION_READY",0.861200,-0.029000,-0.004900,0.507300,60.963,60.963,1.202,-3.149,,,,,,,,,,,,,0,,,Not running,,,,,,,,,,,0.998700,0.032400,0.038800,-0.000300,0.858867,-0.076553,-0.021882,0.505973,60.829,2.286,-8.845,b6 00 00 00 00 00 00 a4 21 de fe cf ff d1 13 07 1e 4e
0.066,fused,,40,0x07,"IMU0_OK, IMU1_OK, FUSION_READY",0.909400,-0.012600,0.017800,-0.415100,-49.084,-49.084,1.256,-2.161,,,,,,,,,,,,,0,,,Not running,,,,,,,,,,,0.998700,0.032400,0.038800,-0.000300,0.908739,-0.025951,-0.030965,-0.415405,-49.084,-4.464,-1.232,b6 00 00 00 00 00 00 86 23 82 ff b2 00 c9 ef 07 28 63
0.067,fused,,20,0x07,"IMU0_OK, IMU1_OK, FUSION_READY",0.007700,-0.998300,-0.057100,0.000000,6.546,6.546,-0.050,-179.119,,,,,,,,,,,,,0,,,Not running,,,,,,,,,,,0.998700,0.032400,0.038800,-0.000300,0.026872,0.997295,0.057627,0.036884,6.732,-4.041,176.675,b6 00 00 00 00 00 00 4d 00 01 d9 c5 fd 00 00 07 14 be
0.069,fused,,0,0x07,"IMU0_OK, IMU1_OK, FUSION_READY",0.998700,0.032400,0.038800,-0.000300,0.110,0.110,4.446,3.720,,,,,,,,,,,,,0,,,Not running,,,,,,,,,,,0.998700,0.032400,0.038800,-0.000300,1.000000,0.000000,-0.000000,0.000000,0.000,-0.000,-0.000,b6 00 00 00 00 00 00 03 27 44 01 84 01 fd ff 07 00 e1
0.070,fused,,50,0x07,"IMU0_OK, IMU1_OK, FUSION_READY",0.263800,0.013200,0.001700,-0.964400,-149.396,-149.396,1.510,0.211,,,,,,,,,,,,,0,,,Not running,,,,,,,,,,,0.998700,0.032400,0.038800,-0.000300,0.264268,0.042058,-0.039784,-0.962710,-149.130,3.437,5.682,b6 00 00 00 00 00 00 4e 0a 84 00 11 00 54 da 07 32 6a
0.072,fused,,30,0x07,"IMU0_OK, IMU1_OK, FUSION_READY",0.861200,-0.029000,-0.004900,0.507400,60.978,60.978,1.203,-3.149,,,,,,,,,,,,,0,,,Not running,,,,,,,,,,,0.998700,0.032400,0.038800,-0.000300,0.858823,-0.076553,-0.021878,0.506047,60.839,2.287,-8.845,b6 00 00 00 00 00 00 a4 21 de fe cf ff d2 13 07 1e 4d
0.073,fused,,40,0x07,"IMU0_OK, IMU1_OK, FUSION_READY",0.909400,-0.012600,0.017900,-0.415100,-49.084,-49.084,1.266,-2.166,,,,,,,,,,,,,0,,,Not running,,,,,,,,,,,0.998700,0.032400,0.038800,-0.000300,0.908741,-0.025951,-0.030865,-0.415408,-49.084,-4.454,-1.237,b6 00 00 00 00 00 00 86 23 82 ff b3 00 c9 ef 07 28 62
0.074,fused,,20,0x07,"IMU0_OK, IMU1_OK, FUSION_READY",0.007700,-0.998300,-0.057100,0.000000,6.546,6.546,-0.050,-179.119,,,,,,,,,,,,,0,,,Not running,,,,,,,,,,,0.998700,0.032400,0.038800,-0.000300,0.026872,0.997295,0.057627,0.036884,6.732,-4.041,176.675,b6 00 00 00 00 00 00 4d 00 01 d9 c5 fd 00 00 07 14 be
0.075,fused,,0,0x07,"IMU0_OK, IMU1_OK, FUSION_READY",0.998700,0.032300,0.038800,-0.000300,0.110,0.110,4.446,3.709,,,,,,,,,,,,,0,,,Not running,,,,,,,,,,,0.998700,0.032300,0.038800,-0.000300,1.000000,0.000000,0.000000,0.000000,0.000,0.000,0.000,b6 00 00 00 00 00 00 03 27 43 01 84 01 fd ff 07 00 e6
0.076,fused,,50,0x07,"IMU0_OK, IMU1_OK, FUSION_READY",0.263800,0.013200,0.001700,-0.964400,-149.396,-149.396,1.510,0.211,,,,,,,,,,,,,0,,,Not running,,,,,,,,,,,0.998700,0.032300,0.038800,-0.000300,0.264267,0.042085,-0.039688,-0.962713,-149.130,3.443,5.672,b6 00 00 00 00 00 00 4e 0a 84 00 11 00 54 da 07 32 6a
0.077,fused,,30,0x07,"IMU0_OK, IMU1_OK, FUSION_READY",0.861100,-0.029000,-0.004900,0.507400,60.975,60.975,1.203,-3.149,,,,,,,,,,,,,0,,,Not running,,,,,,,,,,,0.998700,0.032300,0.038800,-0.000300,0.858803,-0.076471,-0.021927,0.506092,60.846,2.278,-8.839,b6 00 00 00 00 00 00 a3 21 de fe cf ff d2 13 07 1e 4a
0.078,fused,,40,0x07,"IMU0_OK, IMU1_OK, FUSION_READY",0.909500,-0.012500,0.017800,-0.415100,-49.087,-49.087,1.261,-2.150,,,,,,,,,,,,,0,,,Not running,,,,,,,,,,,0.998700,0.032300,0.038800,-0.000300,0.908765,-0.025761,-0.030924,-0.415364,-49.080,-4.451,-1.215,b6 00 00 00 00 00 00 87 23 83 ff b2 00 c9 ef 07 28 63
0.079,fused,,20,0x07,"IMU0_OK, IMU1_OK, FUSION_READY",0.007700,-0.998300,-0.057100,0.000000,6.546,6.546,-0.050,-179.119,,,,,,,,,,,,,0,,,Not running,,,,,,,,,,,0.998700,0.032300,0.038800,-0.000300,0.026772,0.997297,0.057628,0.036890,6.731,-4.042,176.687,b6 00 00 00 00 00 00 4d 00 01 d9 c5 fd 00 00 07 14 be
0.163,fused,,0,0x07,"IMU0_OK, IMU1_OK, FUSION_READY",0.998700,0.032400,0.038800,-0.000300,0.110,0.110,4.446,3.720,,,,,,,,,,,,,0,,,Not running,,,,,,,,,,,0.998700,0.032400,0.038800,-0.000300,1.000000,0.000000,-0.000000,0.000000,0.000,-0.000,-0.000,b6 00 00 00 00 00 00 03 27 44 01 84 01 fd ff 07 00 e1
0.164,fused,,50,0x07,"IMU0_OK, IMU1_OK, FUSION_READY",0.263700,0.013200,0.001700,-0.964500,-149.414,-149.414,1.510,0.211,,,,,,,,,,,,,0,,,Not running,,,,,,,,,,,0.998700,0.032400,0.038800,-0.000300,0.264149,0.042062,-0.039781,-0.962743,-149.144,3.438,5.681,b6 00 00 00 00 00 00 4d 0a 84 00 11 00 53 da 07 32 6e
0.165,fused,,30,0x07,"IMU0_OK, IMU1_OK, FUSION_READY",0.861100,-0.029000,-0.004900,0.507400,60.975,60.975,1.203,-3.149,,,,,,,,,,,,,0,,,Not running,,,,,,,,,,,0.998700,0.032400,0.038800,-0.000300,0.858797,-0.076556,-0.021876,0.506090,60.845,2.288,-8.845,b6 00 00 00 00 00 00 a3 21 de fe cf ff d2 13 07 1e 4a
0.167,fused,,40,0x07,"IMU0_OK, IMU1_OK, FUSION_READY",0.909500,-0.012600,0.017800,-0.415100,-49.087,-49.087,1.256,-2.161,,,,,,,,,,,,,0,,,Not running,,,,,,,,,,,0.998700,0.032400,0.038800,-0.000300,0.908756,-0.025952,-0.030966,-0.415367,-49.080,-4.464,-1.232,b6 00 00 00 00 00 00 87 23 82 ff b2 00 c9 ef 07 28 62
0.168,fused,,20,0x07,"IMU0_OK, IMU1_OK, FUSION_READY",0.007800,-0.998300,-0.057100,0.000000,6.546,6.546,-0.051,-179.108,,,,,,,,,,,,,0,,,Not running,,,,,,,,,,,0.998700,0.032400,0.038800,-0.000300,0.026772,0.997297,0.057631,0.036884,6.732,-4.042,176.687,b6 00 00 00 00 00 00 4e 00 01 d9 c5 fd 00 00 07 14 bd
0.169,fused,,0,0x07,"IMU0_OK, IMU1_OK, FUSION_READY",0.998700,0.032300,0.038800,-0.000300,0.110,0.110,4.446,3.709,,,,,,,,,,,,,0,,,Not running,,,,,,,,,,,0.998700,0.032300,0.038800,-0.000300,1.000000,0.000000,0.000000,0.000000,0.000,0.000,0.000,b6 00 00 00 00 00 00 03 27 43 01 84 01 fd ff 07 00 e6
0.170,fused,,50,0x07,"IMU0_OK, IMU1_OK, FUSION_READY",0.263700,0.013200,0.001700,-0.964500,-149.414,-149.414,1.510,0.211,,,,,,,,,,,,,0,,,Not running,,,,,,,,,,,0.998700,0.032300,0.038800,-0.000300,0.264149,0.042089,-0.039685,-0.962746,-149.144,3.444,5.672,b6 00 00 00 00 00 00 4d 0a 84 00 11 00 53 da 07 32 6e
0.172,fused,,30,0x07,"IMU0_OK, IMU1_OK, FUSION_READY",0.861100,-0.029000,-0.004900,0.507400,60.975,60.975,1.203,-3.149,,,,,,,,,,,,,0,,,Not running,,,,,,,,,,,0.998700,0.032300,0.038800,-0.000300,0.858803,-0.076471,-0.021927,0.506092,60.846,2.278,-8.839,b6 00 00 00 00 00 00 a3 21 de fe cf ff d2 13 07 1e 4a
0.173,fused,,40,0x07,"IMU0_OK, IMU1_OK, FUSION_READY",0.909500,-0.012600,0.017800,-0.415100,-49.087,-49.087,1.256,-2.161,,,,,,,,,,,,,0,,,Not running,,,,,,,,,,,0.998700,0.032300,0.038800,-0.000300,0.908760,-0.025861,-0.030924,-0.415367,-49.080,-4.456,-1.225,b6 00 00 00 00 00 00 87 23 82 ff b2 00 c9 ef 07 28 62
0.175,fused,,20,0x07,"IMU0_OK, IMU1_OK, FUSION_READY",0.007800,-0.998300,-0.057100,0.000000,6.546,6.546,-0.051,-179.108,,,,,,,,,,,,,0,,,Not running,,,,,,,,,,,0.998700,0.032300,0.038800,-0.000300,0.026672,0.997300,0.057632,0.036890,6.731,-4.043,176.698,b6 00 00 00 00 00 00 4e 00 01 d9 c5 fd 00 00 07 14 bd
0.176,fused,,0,0x07,"IMU0_OK, IMU1_OK, FUSION_READY",0.998700,0.032400,0.038800,-0.000300,0.110,0.110,4.446,3.720,,,,,,,,,,,,,0,,,Not running,,,,,,,,,,,0.998700,0.032400,0.038800,-0.000300,1.000000,0.000000,-0.000000,0.000000,0.000,-0.000,-0.000,b6 00 00 00 00 00 00 03 27 44 01 84 01 fd ff 07 00 e1
0.178,fused,,50,0x07,"IMU0_OK, IMU1_OK, FUSION_READY",0.263600,0.013200,0.001700,-0.964500,-149.423,-149.423,1.510,0.211,,,,,,,,,,,,,0,,,Not running,,,,,,,,,,,0.998700,0.032400,0.038800,-0.000300,0.264056,0.042067,-0.039778,-0.962768,-149.155,3.439,5.681,b6 00 00 00 00 00 00 4c 0a 84 00 11 00 53 da 07 32 6f
0.179,fused,,30,0x07,"IMU0_OK, IMU1_OK, FUSION_READY",0.861100,-0.029000,-0.004900,0.507400,60.975,60.975,1.203,-3.149,,,,,,,,,,,,,0,,,Not running,,,,,,,,,,,0.998700,0.032400,0.038800,-0.000300,0.858797,-0.076556,-0.021876,0.506090,60.845,2.288,-8.845,b6 00 00 00 00 00 00 a3 21 de fe cf ff d2 13 07 1e 4a
0.181,fused,,40,0x07,"IMU0_OK, IMU1_OK, FUSION_READY",0.909500,-0.012600,0.017800,-0.415000,-49.073,-49.073,1.256,-2.161,,,,,,,,,,,,,0,,,Not running,,,,,,,,,,,0.998700,0.032400,0.038800,-0.000300,0.908794,-0.025957,-0.030964,-0.415285,-49.069,-4.464,-1.233,b6 00 00 00 00 00 00 87 23 82 ff b2 00 ca ef 07 28 61
0.182,fused,,20,0x07,"IMU0_OK, IMU1_OK, FUSION_READY",0.007800,-0.998300,-0.057100,0.000000,6.546,6.546,-0.051,-179.108,,,,,,,,,,,,,0,,,Not running,,,,,,,,,,,0.998700,0.032400,0.038800,-0.000300,0.026772,0.997297,0.057631,0.036884,6.732,-4.042,176.687,b6 00 00 00 00 00 00 4e 00 01 d9 c5 fd 00 00 07 14 bd
0.183,fused,,0,0x07,"IMU0_OK, IMU1_OK, FUSION_READY",0.998700,0.032400,0.038800,-0.000300,0.110,0.110,4.446,3.720,,,,,,,,,,,,,0,,,Not running,,,,,,,,,,,0.998700,0.032400,0.038800,-0.000300,1.000000,0.000000,-0.000000,0.000000,0.000,-0.000,-0.000,b6 00 00 00 00 00 00 03 27 44 01 84 01 fd ff 07 00 e1
0.184,fused,,50,0x07,"IMU0_OK, IMU1_OK, FUSION_READY",0.263600,0.013200,0.001700,-0.964500,-149.423,-149.423,1.510,0.211,,,,,,,,,,,,,0,,,Not running,,,,,,,,,,,0.998700,0.032400,0.038800,-0.000300,0.264056,0.042067,-0.039778,-0.962768,-149.155,3.439,5.681,b6 00 00 00 00 00 00 4c 0a 84 00 11 00 53 da 07 32 6f
0.185,fused,,30,0x07,"IMU0_OK, IMU1_OK, FUSION_READY",0.861100,-0.028900,-0.004800,0.507400,60.974,60.974,1.207,-3.133,,,,,,,,,,,,,0,,,Not running,,,,,,,,,,,0.998700,0.032400,0.038800,-0.000300,0.858807,-0.076457,-0.021776,0.506093,60.845,2.292,-8.829,b6 00 00 00 00 00 00 a3 21 df fe d0 ff d2 13 07 1e 54
0.186,fused,,40,0x07,"IMU0_OK, IMU1_OK, FUSION_READY",0.909500,-0.012500,0.017800,-0.415000,-49.073,-49.073,1.261,-2.150,,,,,,,,,,,,,0,,,Not running,,,,,,,,,,,0.998700,0.032400,0.038800,-0.000300,0.908798,-0.025857,-0.030964,-0.415281,-49.069,-4.460,-1.223,b6 00 00 00 00 00 00 87 23 83 ff b2 00 ca ef 07 28 60
0.188,fused,,20,0x07,"IMU0_OK, IMU1_OK, FUSION_READY",0.007800,-0.998300,-0.057100,0.000000,6.546,6.546,-0.051,-179.108,,,,,,,,,,,,,0,,,Not running,,,,,,,,,,,0.998700,0.032400,0.038800,-0.000300,0.026772,0.997297,0.057631,0.036884,6.732,-4.042,176.687,b6 00 00 00 00 00 00 4e 00 01 d9 c5 fd 00 00 07 14 bd
0.189,fused,,0,0x07,"IMU0_OK, IMU1_OK, FUSION_READY",0.998700,0.032400,0.038800,-0.000300,0.110,0.110,4.446,3.720,,,,,,,,,,,,,0,,,Not running,,,,,,,,,,,0.998700,0.032400,0.038800,-0.000300,1.000000,0.000000,-0.000000,0.000000,0.000,-0.000,-0.000,b6 00 00 00 00 00 00 03 27 44 01 84 01 fd ff 07 00 e1
0.191,fused,,50,0x07,"IMU0_OK, IMU1_OK, FUSION_READY",0.263600,0.013200,0.001700,-0.964500,-149.423,-149.423,1.510,0.211,,,,,,,,,,,,,0,,,Not running,,,,,,,,,,,0.998700,0.032400,0.038800,-0.000300,0.264056,0.042067,-0.039778,-0.962768,-149.155,3.439,5.681,b6 00 00 00 00 00 00 4c 0a 84 00 11 00 53 da 07 32 6f
0.192,fused,,30,0x07,"IMU0_OK, IMU1_OK, FUSION_READY",0.861100,-0.029000,-0.004900,0.507500,60.990,60.990,1.203,-3.149,,,,,,,,,,,,,0,,,Not running,,,,,,,,,,,0.998700,0.032400,0.038800,-0.000300,0.858754,-0.076556,-0.021871,0.506165,60.855,2.289,-8.844,b6 00 00 00 00 00 00 a3 21 de fe cf ff d3 13 07 1e 4b
0.194,fused,,40,0x07,"IMU0_OK, IMU1_OK, FUSION_READY",0.909500,-0.012500,0.017800,-0.415000,-49.073,-49.073,1.261,-2.150,,,,,,,,,,,,,0,,,Not running,,,,,,,,,,,0.998700,0.032400,0.038800,-0.000300,0.908798,-0.025857,-0.030964,-0.415281,-49.069,-4.460,-1.223,b6 00 00 00 00 00 00 87 23 83 ff b2 00 ca ef 07 28 60
0.195,fused,,20,0x07,"IMU0_OK, IMU1_OK, FUSION_READY",0.007800,-0.998300,-0.057100,0.000000,6.546,6.546,-0.051,-179.108,,,,,,,,,,,,,0,,,Not running,,,,,,,,,,,0.998700,0.032400,0.038800,-0.000300,0.026772,0.997297,0.057631,0.036884,6.732,-4.042,176.687,b6 00 00 00 00 00 00 4e 00 01 d9 c5 fd 00 00 07 14 bd
0.197,fused,,0,0x07,"IMU0_OK, IMU1_OK, FUSION_READY",0.998700,0.032400,0.038800,-0.000300,0.110,0.110,4.446,3.720,,,,,,,,,,,,,0,,,Not running,,,,,,,,,,,0.998700,0.032400,0.038800,-0.000300,1.000000,0.000000,-0.000000,0.000000,0.000,-0.000,-0.000,b6 00 00 00 00 00 00 03 27 44 01 84 01 fd ff 07 00 e1
0.199,fused,,50,0x07,"IMU0_OK, IMU1_OK, FUSION_READY",0.263500,0.013200,0.001700,-0.964500,-149.433,-149.433,1.510,0.211,,,,,,,,,,,,,0,,,Not running,,,,,,,,,,,0.998700,0.032400,0.038800,-0.000300,0.263963,0.042071,-0.039775,-0.962793,-149.166,3.441,5.680,b6 00 00 00 00 00 00 4b 0a 84 00 11 00 53 da 07 32 68
0.200,fused,,30,0x07,"IMU0_OK, IMU1_OK, FUSION_READY",0.861100,-0.029000,-0.004900,0.507500,60.990,60.990,1.203,-3.149,,,,,,,,,,,,,0,,,Not running,,,,,,,,,,,0.998700,0.032400,0.038800,-0.000300,0.858754,-0.076556,-0.021871,0.506165,60.855,2.289,-8.844,b6 00 00 00 00 00 00 a3 21 de fe cf ff d3 13 07 1e 4b
0.201,fused,,40,0x07,"IMU0_OK, IMU1_OK, FUSION_READY",0.909500,-0.012600,0.017900,-0.415000,-49.073,-49.073,1.266,-2.165,,,,,,,,,,,,,0,,,Not running,,,,,,,,,,,0.998700,0.032400,0.038800,-0.000300,0.908796,-0.025957,-0.030864,-0.415287,-49.069,-4.454,-1.238,b6 00 00 00 00 00 00 87 23 82 ff b3 00 ca ef 07 28 60
0.202,fused,,20,0x07,"IMU0_OK, IMU1_OK, FUSION_READY",0.007800,-0.998300,-0.057100,0.000000,6.546,6.546,-0.051,-179.108,,,,,,,,,,,,,0,,,Not running,,,,,,,,,,,0.998700,0.032400,0.038800,-0.000300,0.026772,0.997297,0.057631,0.036884,6.732,-4.042,176.687,b6 00 00 00 00 00 00 4e 00 01 d9 c5 fd 00 00 07 14 bd
0.203,fused,,0,0x07,"IMU0_OK, IMU1_OK, FUSION_READY",0.998700,0.032400,0.038800,-0.000300,0.110,0.110,4.446,3.720,,,,,,,,,,,,,0,,,Not running,,,,,,,,,,,0.998700,0.032400,0.038800,-0.000300,1.000000,0.000000,-0.000000,0.000000,0.000,-0.000,-0.000,b6 00 00 00 00 00 00 03 27 44 01 84 01 fd ff 07 00 e1
0.204,fused,,50,0x07,"IMU0_OK, IMU1_OK, FUSION_READY",0.263500,0.013200,0.001700,-0.964500,-149.433,-149.433,1.510,0.211,,,,,,,,,,,,,0,,,Not running,,,,,,,,,,,0.998700,0.032400,0.038800,-0.000300,0.263963,0.042071,-0.039775,-0.962793,-149.166,3.441,5.680,b6 00 00 00 00 00 00 4b 0a 84 00 11 00 53 da 07 32 68
0.205,fused,,30,0x07,"IMU0_OK, IMU1_OK, FUSION_READY",0.861100,-0.029000,-0.004800,0.507500,60.989,60.989,1.213,-3.143,,,,,,,,,,,,,0,,,Not running,,,,,,,,,,,0.998700,0.032400,0.038800,-0.000300,0.858758,-0.076556,-0.021772,0.506162,60.853,2.299,-8.839,b6 00 00 00 00 00 00 a3 21 de fe d0 ff d3 13 07 1e 54
0.207,fused,,40,0x07,"IMU0_OK, IMU1_OK, FUSION_READY",0.909500,-0.012500,0.017800,-0.415000,-49.073,-49.073,1.261,-2.150,,,,,,,,,,,,,0,,,Not running,,,,,,,,,,,0.998700,0.032400,0.038800,-0.000300,0.908798,-0.025857,-0.030964,-0.415281,-49.069,-4.460,-1.223,b6 00 00 00 00 00 00 87 23 83 ff b2 00 ca ef 07 28 60
0.208,fused,,20,0x07,"IMU0_OK, IMU1_OK, FUSION_READY",0.007800,-0.998300,-0.057100,0.000000,6.546,6.546,-0.051,-179.108,,,,,,,,,,,,,0,,,Not running,,,,,,,,,,,0.998700,0.032400,0.038800,-0.000300,0.026772,0.997297,0.057631,0.036884,6.732,-4.042,176.687,b6 00 00 00 00 00 00 4e 00 01 d9 c5 fd 00 00 07 14 bd
0.209,fused,,0,0x07,"IMU0_OK, IMU1_OK, FUSION_READY",0.998700,0.032400,0.038800,-0.000300,0.110,0.110,4.446,3.720,,,,,,,,,,,,,0,,,Not running,,,,,,,,,,,0.998700,0.032400,0.038800,-0.000300,1.000000,0.000000,-0.000000,0.000000,0.000,-0.000,-0.000,b6 00 00 00 00 00 00 03 27 44 01 84 01 fd ff 07 00 e1
0.211,fused,,50,0x07,"IMU0_OK, IMU1_OK, FUSION_READY",0.263500,0.013200,0.001700,-0.964500,-149.433,-149.433,1.510,0.211,,,,,,,,,,,,,0,,,Not running,,,,,,,,,,,0.998700,0.032400,0.038800,-0.000300,0.263963,0.042071,-0.039775,-0.962793,-149.166,3.441,5.680,b6 00 00 00 00 00 00 4b 0a 84 00 11 00 53 da 07 32 68
0.212,fused,,30,0x07,"IMU0_OK, IMU1_OK, FUSION_READY",0.861100,-0.029000,-0.004800,0.507500,60.989,60.989,1.213,-3.143,,,,,,,,,,,,,0,,,Not running,,,,,,,,,,,0.998700,0.032400,0.038800,-0.000300,0.858758,-0.076556,-0.021772,0.506162,60.853,2.299,-8.839,b6 00 00 00 00 00 00 a3 21 de fe d0 ff d3 13 07 1e 54
0.213,fused,,40,0x07,"IMU0_OK, IMU1_OK, FUSION_READY",0.909500,-0.012500,0.017800,-0.415000,-49.073,-49.073,1.261,-2.150,,,,,,,,,,,,,0,,,Not running,,,,,,,,,,,0.998700,0.032400,0.038800,-0.000300,0.908798,-0.025857,-0.030964,-0.415281,-49.069,-4.460,-1.223,b6 00 00 00 00 00 00 87 23 83 ff b2 00 ca ef 07 28 60
0.215,fused,,20,0x07,"IMU0_OK, IMU1_OK, FUSION_READY",0.007800,-0.998300,-0.057100,0.000000,6.546,6.546,-0.051,-179.108,,,,,,,,,,,,,0,,,Not running,,,,,,,,,,,0.998700,0.032400,0.038800,-0.000300,0.026772,0.997297,0.057631,0.036884,6.732,-4.042,176.687,b6 00 00 00 00 00 00 4e 00 01 d9 c5 fd 00 00 07 14 bd
0.216,fused,,0,0x07,"IMU0_OK, IMU1_OK, FUSION_READY",0.998700,0.032400,0.038800,-0.000300,0.110,0.110,4.446,3.720,,,,,,,,,,,,,0,,,Not running,,,,,,,,,,,0.998700,0.032400,0.038800,-0.000300,1.000000,0.000000,-0.000000,0.000000,0.000,-0.000,-0.000,b6 00 00 00 00 00 00 03 27 44 01 84 01 fd ff 07 00 e1
0.218,fused,,50,0x07,"IMU0_OK, IMU1_OK, FUSION_READY",0.263400,0.013200,0.001700,-0.964500,-149.442,-149.442,1.510,0.211,,,,,,,,,,,,,0,,,Not running,,,,,,,,,,,0.998700,0.032400,0.038800,-0.000300,0.263870,0.042076,-0.039772,-0.962819,-149.177,3.442,5.680,b6 00 00 00 00 00 00 4a 0a 84 00 11 00 53 da 07 32 69
0.219,fused,,30,0x07,"IMU0_OK, IMU1_OK, FUSION_READY",0.861100,-0.028900,-0.004800,0.507500,60.989,60.989,1.207,-3.133,,,,,,,,,,,,,0,,,Not running,,,,,,,,,,,0.998700,0.032400,0.038800,-0.000300,0.858764,-0.076457,-0.021772,0.506167,60.854,2.293,-8.829,b6 00 00 00 00 00 00 a3 21 df fe d0 ff d3 13 07 1e 55
0.220,fused,,40,0x07,"IMU0_OK, IMU1_OK, FUSION_READY",0.909500,-0.012500,0.017800,-0.415000,-49.073,-49.073,1.261,-2.150,,,,,,,,,,,,,0,,,Not running,,,,,,,,,,,0.998700,0.032400,0.038800,-0.000300,0.908798,-0.025857,-0.030964,-0.415281,-49.069,-4.460,-1.223,b6 00 00 00 00 00 00 87 23 83 ff b2 00 ca ef 07 28 60
0.222,fused,,20,0x07,"IMU0_OK, IMU1_OK, FUSION_READY",0.007800,-0.998300,-0.057100,0.000000,6.546,6.546,-0.051,-179.108,,,,,,,,,,,,,0,,,Not running,,,,,,,,,,,0.998700,0.032400,0.038800,-0.000300,0.026772,0.997297,0.057631,0.036884,6.732,-4.042,176.687,b6 00 00 00 00 00 00 4e 00 01 d9 c5 fd 00 00 07 14 bd
0.223,fused,,0,0x07,"IMU0_OK, IMU1_OK, FUSION_READY",0.998700,0.032400,0.038800,-0.000300,0.110,0.110,4.446,3.720,,,,,,,,,,,,,0,,,Not running,,,,,,,,,,,0.998700,0.032400,0.038800,-0.000300,1.000000,0.000000,-0.000000,0.000000,0.000,-0.000,-0.000,b6 00 00 00 00 00 00 03 27 44 01 84 01 fd ff 07 00 e1
0.224,fused,,50,0x07,"IMU0_OK, IMU1_OK, FUSION_READY",0.263400,0.013200,0.001700,-0.964500,-149.442,-149.442,1.510,0.211,,,,,,,,,,,,,0,,,Not running,,,,,,,,,,,0.998700,0.032400,0.038800,-0.000300,0.263870,0.042076,-0.039772,-0.962819,-149.177,3.442,5.680,b6 00 00 00 00 00 00 4a 0a 84 00 11 00 53 da 07 32 69
0.225,fused,,30,0x07,"IMU0_OK, IMU1_OK, FUSION_READY",0.861000,-0.029000,-0.004800,0.507600,61.002,61.002,1.213,-3.143,,,,,,,,,,,,,0,,,Not running,,,,,,,,,,,0.998700,0.032400,0.038800,-0.000300,0.858689,-0.076560,-0.021765,0.506279,60.869,2.301,-8.838,b6 00 00 00 00 00 00 a2 21 de fe d0 ff d4 13 07 1e 52
0.226,fused,,40,0x07,"IMU0_OK, IMU1_OK, FUSION_READY",0.909500,-0.012600,0.017800,-0.415000,-49.073,-49.073,1.256,-2.161,,,,,,,,,,,,,0,,,Not running,,,,,,,,,,,0.998700,0.032400,0.038800,-0.000300,0.908794,-0.025957,-0.030964,-0.415285,-49.069,-4.464,-1.233,b6 00 00 00 00 00 00 87 23 82 ff b2 00 ca ef 07 28 61
0.228,fused,,20,0x07,"IMU0_OK, IMU1_OK, FUSION_READY",0.007800,-0.998300,-0.057100,0.000000,6.546,6.546,-0.051,-179.108,,,,,,,,,,,,,0,,,Not running,,,,,,,,,,,0.998700,0.032400,0.038800,-0.000300,0.026772,0.997297,0.057631,0.036884,6.732,-4.042,176.687,b6 00 00 00 00 00 00 4e 00 01 d9 c5 fd 00 00 07 14 bd
0.229,fused,,0,0x07,"IMU0_OK, IMU1_OK, FUSION_READY",0.998700,0.032400,0.038800,-0.000300,0.110,0.110,4.446,3.720,,,,,,,,,,,,,0,,,Not running,,,,,,,,,,,0.998700,0.032400,0.038800,-0.000300,1.000000,0.000000,-0.000000,0.000000,0.000,-0.000,-0.000,b6 00 00 00 00 00 00 03 27 44 01 84 01 fd ff 07 00 e1
0.231,fused,,50,0x07,"IMU0_OK, IMU1_OK, FUSION_READY",0.263400,0.013200,0.001700,-0.964500,-149.442,-149.442,1.510,0.211,,,,,,,,,,,,,0,,,Not running,,,,,,,,,,,0.998700,0.032400,0.038800,-0.000300,0.263870,0.042076,-0.039772,-0.962819,-149.177,3.442,5.680,b6 00 00 00 00 00 00 4a 0a 84 00 11 00 53 da 07 32 69
0.233,fused,,30,0x07,"IMU0_OK, IMU1_OK, FUSION_READY",0.861000,-0.029000,-0.004800,0.507600,61.002,61.002,1.213,-3.143,,,,,,,,,,,,,0,,,Not running,,,,,,,,,,,0.998700,0.032400,0.038800,-0.000300,0.858689,-0.076560,-0.021765,0.506279,60.869,2.301,-8.838,b6 00 00 00 00 00 00 a2 21 de fe d0 ff d4 13 07 1e 52
0.234,fused,,40,0x07,"IMU0_OK, IMU1_OK, FUSION_READY",0.909500,-0.012600,0.017800,-0.415000,-49.073,-49.073,1.256,-2.161,,,,,,,,,,,,,0,,,Not running,,,,,,,,,,,0.998700,0.032400,0.038800,-0.000300,0.908794,-0.025957,-0.030964,-0.415285,-49.069,-4.464,-1.233,b6 00 00 00 00 00 00 87 23 82 ff b2 00 ca ef 07 28 61
0.236,fused,,20,0x07,"IMU0_OK, IMU1_OK, FUSION_READY",0.007800,-0.998300,-0.057100,0.000000,6.546,6.546,-0.051,-179.108,,,,,,,,,,,,,0,,,Not running,,,,,,,,,,,0.998700,0.032400,0.038800,-0.000300,0.026772,0.997297,0.057631,0.036884,6.732,-4.042,176.687,b6 00 00 00 00 00 00 4e 00 01 d9 c5 fd 00 00 07 14 bd
0.237,fused,,0,0x07,"IMU0_OK, IMU1_OK, FUSION_READY",0.998700,0.032400,0.038800,-0.000300,0.110,0.110,4.446,3.720,,,,,,,,,,,,,0,,,Not running,,,,,,,,,,,0.998700,0.032400,0.038800,-0.000300,1.000000,0.000000,-0.000000,0.000000,0.000,-0.000,-0.000,b6 00 00 00 00 00 00 03 27 44 01 84 01 fd ff 07 00 e1
0.239,fused,,50,0x07,"IMU0_OK, IMU1_OK, FUSION_READY",0.263300,0.013200,0.001700,-0.964600,-149.461,-149.461,1.511,0.210,,,,,,,,,,,,,0,,,Not running,,,,,,,,,,,0.998700,0.032400,0.038800,-0.000300,0.263752,0.042080,-0.039769,-0.962851,-149.191,3.443,5.679,b6 00 00 00 00 00 00 49 0a 84 00 11 00 52 da 07 32 6b
0.240,fused,,30,0x07,"IMU0_OK, IMU1_OK, FUSION_READY",0.861000,-0.028900,-0.004800,0.507600,61.001,61.001,1.208,-3.133,,,,,,,,,,,,,0,,,Not running,,,,,,,,,,,0.998700,0.032400,0.038800,-0.000300,0.858694,-0.076460,-0.021765,0.506285,60.870,2.295,-8.828,b6 00 00 00 00 00 00 a2 21 df fe d0 ff d4 13 07 1e 53
0.242,fused,,40,0x07,"IMU0_OK, IMU1_OK, FUSION_READY",0.909500,-0.012500,0.017800,-0.414900,-49.059,-49.059,1.261,-2.150,,,,,,,,,,,,,0,,,Not running,,,,,,,,,,,0.998700,0.032400,0.038800,-0.000300,0.908836,-0.025862,-0.030962,-0.415199,-49.059,-4.459,-1.224,b6 00 00 00 00 00 00 87 23 83 ff b2 00 cb ef 07 28 61
0.243,fused,,20,0x07,"IMU0_OK, IMU1_OK, FUSION_READY",0.007800,-0.998300,-0.057100,0.000000,6.546,6.546,-0.051,-179.108,,,,,,,,,,,,,0,,,Not running,,,,,,,,,,,0.998700,0.032400,0.038800,-0.000300,0.026772,0.997297,0.057631,0.036884,6.732,-4.042,176.687,b6 00 00 00 00 00 00 4e 00 01 d9 c5 fd 00 00 07 14 bd
0.244,fused,,0,0x07,"IMU0_OK, IMU1_OK, FUSION_READY",0.998700,0.032400,0.038800,-0.000300,0.110,0.110,4.446,3.720,,,,,,,,,,,,,0,,,Not running,,,,,,,,,,,0.998700,0.032400,0.038800,-0.000300,1.000000,0.000000,-0.000000,0.000000,0.000,-0.000,-0.000,b6 00 00 00 00 00 00 03 27 44 01 84 01 fd ff 07 00 e1
0.247,fused,,50,0x07,"IMU0_OK, IMU1_OK, FUSION_READY",0.263300,0.013200,0.001700,-0.964600,-149.461,-149.461,1.511,0.210,,,,,,,,,,,,,0,,,Not running,,,,,,,,,,,0.998700,0.032400,0.038800,-0.000300,0.263752,0.042080,-0.039769,-0.962851,-149.191,3.443,5.679,b6 00 00 00 00 00 00 49 0a 84 00 11 00 52 da 07 32 6b
0.249,fused,,30,0x07,"IMU0_OK, IMU1_OK, FUSION_READY",0.861000,-0.028900,-0.004800,0.507600,61.001,61.001,1.208,-3.133,,,,,,,,,,,,,0,,,Not running,,,,,,,,,,,0.998700,0.032400,0.038800,-0.000300,0.858694,-0.076460,-0.021765,0.506285,60.870,2.295,-8.828,b6 00 00 00 00 00 00 a2 21 df fe d0 ff d4 13 07 1e 53
0.250,fused,,40,0x07,"IMU0_OK, IMU1_OK, FUSION_READY",0.909500,-0.012500,0.017800,-0.414900,-49.059,-49.059,1.261,-2.150,,,,,,,,,,,,,0,,,Not running,,,,,,,,,,,0.998700,0.032400,0.038800,-0.000300,0.908836,-0.025862,-0.030962,-0.415199,-49.059,-4.459,-1.224,b6 00 00 00 00 00 00 87 23 83 ff b2 00 cb ef 07 28 61
0.251,fused,,20,0x07,"IMU0_OK, IMU1_OK, FUSION_READY",0.007800,-0.998300,-0.057100,0.000000,6.546,6.546,-0.051,-179.108,,,,,,,,,,,,,0,,,Not running,,,,,,,,,,,0.998700,0.032400,0.038800,-0.000300,0.026772,0.997297,0.057631,0.036884,6.732,-4.042,176.687,b6 00 00 00 00 00 00 4e 00 01 d9 c5 fd 00 00 07 14 bd
0.252,fused,,0,0x07,"IMU0_OK, IMU1_OK, FUSION_READY",0.998700,0.032400,0.038800,-0.000300,0.110,0.110,4.446,3.720,,,,,,,,,,,,,0,,,Not running,,,,,,,,,,,0.998700,0.032400,0.038800,-0.000300,1.000000,0.000000,-0.000000,0.000000,0.000,-0.000,-0.000,b6 00 00 00 00 00 00 03 27 44 01 84 01 fd ff 07 00 e1
0.253,fused,,50,0x07,"IMU0_OK, IMU1_OK, FUSION_READY",0.263300,0.013200,0.001700,-0.964600,-149.461,-149.461,1.511,0.210,,,,,,,,,,,,,0,,,Not running,,,,,,,,,,,0.998700,0.032400,0.038800,-0.000300,0.263752,0.042080,-0.039769,-0.962851,-149.191,3.443,5.679,b6 00 00 00 00 00 00 49 0a 84 00 11 00 52 da 07 32 6b
0.254,fused,,30,0x07,"IMU0_OK, IMU1_OK, FUSION_READY",0.861000,-0.028900,-0.004800,0.507600,61.001,61.001,1.208,-3.133,,,,,,,,,,,,,0,,,Not running,,,,,,,,,,,0.998700,0.032400,0.038800,-0.000300,0.858694,-0.076460,-0.021765,0.506285,60.870,2.295,-8.828,b6 00 00 00 00 00 00 a2 21 df fe d0 ff d4 13 07 1e 53
0.255,fused,,40,0x07,"IMU0_OK, IMU1_OK, FUSION_READY",0.909500,-0.012500,0.017800,-0.414900,-49.059,-49.059,1.261,-2.150,,,,,,,,,,,,,0,,,Not running,,,,,,,,,,,0.998700,0.032400,0.038800,-0.000300,0.908836,-0.025862,-0.030962,-0.415199,-49.059,-4.459,-1.224,b6 00 00 00 00 00 00 87 23 83 ff b2 00 cb ef 07 28 61
0.256,fused,,20,0x07,"IMU0_OK, IMU1_OK, FUSION_READY",0.007800,-0.998300,-0.057100,0.000000,6.546,6.546,-0.051,-179.108,,,,,,,,,,,,,0,,,Not running,,,,,,,,,,,0.998700,0.032400,0.038800,-0.000300,0.026772,0.997297,0.057631,0.036884,6.732,-4.042,176.687,b6 00 00 00 00 00 00 4e 00 01 d9 c5 fd 00 00 07 14 bd
0.257,fused,,0,0x07,"IMU0_OK, IMU1_OK, FUSION_READY",0.998700,0.032400,0.038800,-0.000300,0.110,0.110,4.446,3.720,,,,,,,,,,,,,0,,,Not running,,,,,,,,,,,0.998700,0.032400,0.038800,-0.000300,1.000000,0.000000,-0.000000,0.000000,0.000,-0.000,-0.000,b6 00 00 00 00 00 00 03 27 44 01 84 01 fd ff 07 00 e1
0.258,fused,,50,0x07,"IMU0_OK, IMU1_OK, FUSION_READY",0.263200,0.013200,0.001700,-0.964600,-149.470,-149.470,1.511,0.210,,,,,,,,,,,,,0,,,Not running,,,,,,,,,,,0.998700,0.032400,0.038800,-0.000300,0.263659,0.042084,-0.039766,-0.962877,-149.202,3.444,5.679,b6 00 00 00 00 00 00 48 0a 84 00 11 00 52 da 07 32 6a
0.259,fused,,30,0x07,"IMU0_OK, IMU1_OK, FUSION_READY",0.861000,-0.028900,-0.004800,0.507700,61.016,61.016,1.208,-3.133,,,,,,,,,,,,,0,,,Not running,,,,,,,,,,,0.998700,0.032400,0.038800,-0.000300,0.858651,-0.076460,-0.021761,0.506359,60.880,2.296,-8.828,b6 00 00 00 00 00 00 a2 21 df fe d0 ff d5 13 07 1e 52
0.260,fused,,40,0x07,"IMU0_OK, IMU1_OK, FUSION_READY",0.909500,-0.012600,0.017800,-0.414900,-49.059,-49.059,1.256,-2.161,,,,,,,,,,,,,0,,,Not running,,,,,,,,,,,0.998700,0.032400,0.038800,-0.000300,0.908831,-0.025962,-0.030962,-0.415202,-49.059,-4.464,-1.234,b6 00 00 00 00 00 00 87 23 82 ff b2 00 cb ef 07 28 60
0.261,fused,,20,0x07,"IMU0_OK, IMU1_OK, FUSION_READY",0.007800,-0.998300,-0.057100,0.000000,6.546,6.546,-0.051,-179.108,,,,,,,,,,,,,0,,,Not running,,,,,,,,,,,0.998700,0.032400,0.038800,-0.000300,0.026772,0.997297,0.057631,0.036884,6.732,-4.042,176.687,b6 00 00 00 00 00 00 4e 00 01 d9 c5 fd 00 00 07 14 bd
0.263,fused,,0,0x07,"IMU0_OK, IMU1_OK, FUSION_READY",0.998700,0.032400,0.038800,-0.000300,0.110,0.110,4.446,3.720,,,,,,,,,,,,,0,,,Not running,,,,,,,,,,,0.998700,0.032400,0.038800,-0.000300,1.000000,0.000000,-0.000000,0.000000,0.000,-0.000,-0.000,b6 00 00 00 00 00 00 03 27 44 01 84 01 fd ff 07 00 e1
0.264,fused,,50,0x07,"IMU0_OK, IMU1_OK, FUSION_READY",0.263200,0.013200,0.001700,-0.964600,-149.470,-149.470,1.511,0.210,,,,,,,,,,,,,0,,,Not running,,,,,,,,,,,0.998700,0.032400,0.038800,-0.000300,0.263659,0.042084,-0.039766,-0.962877,-149.202,3.444,5.679,b6 00 00 00 00 00 00 48 0a 84 00 11 00 52 da 07 32 6a
0.265,fused,,30,0x07,"IMU0_OK, IMU1_OK, FUSION_READY",0.861000,-0.028900,-0.004800,0.507700,61.016,61.016,1.208,-3.133,,,,,,,,,,,,,0,,,Not running,,,,,,,,,,,0.998700,0.032400,0.038800,-0.000300,0.858651,-0.076460,-0.021761,0.506359,60.880,2.296,-8.828,b6 00 00 00 00 00 00 a2 21 df fe d0 ff d5 13 07 1e 52
0.266,fused,,40,0x07,"IMU0_OK, IMU1_OK, FUSION_READY",0.909500,-0.012500,0.017800,-0.414900,-49.059,-49.059,1.261,-2.150,,,,,,,,,,,,,0,,,Not running,,,,,,,,,,,0.998700,0.032400,0.038800,-0.000300,0.908836,-0.025862,-0.030962,-0.415199,-49.059,-4.459,-1.224,b6 00 00 00 00 00 00 87 23 83 ff b2 00 cb ef 07 28 61
0.267,fused,,20,0x07,"IMU0_OK, IMU1_OK, FUSION_READY",0.007800,-0.998300,-0.057100,0.000000,6.546,6.546,-0.051,-179.108,,,,,,,,,,,,,0,,,Not running,,,,,,,,,,,0.998700,0.032400,0.038800,-0.000300,0.026772,0.997297,0.057631,0.036884,6.732,-4.042,176.687,b6 00 00 00 00 00 00 4e 00 01 d9 c5 fd 00 00 07 14 bd
0.268,fused,,0,0x07,"IMU0_OK, IMU1_OK, FUSION_READY",0.998700,0.032400,0.038800,-0.000300,0.110,0.110,4.446,3.720,,,,,,,,,,,,,0,,,Not running,,,,,,,,,,,0.998700,0.032400,0.038800,-0.000300,1.000000,0.000000,-0.000000,0.000000,0.000,-0.000,-0.000,b6 00 00 00 00 00 00 03 27 44 01 84 01 fd ff 07 00 e1
0.269,fused,,50,0x07,"IMU0_OK, IMU1_OK, FUSION_READY",0.263200,0.013200,0.001700,-0.964600,-149.470,-149.470,1.511,0.210,,,,,,,,,,,,,0,,,Not running,,,,,,,,,,,0.998700,0.032400,0.038800,-0.000300,0.263659,0.042084,-0.039766,-0.962877,-149.202,3.444,5.679,b6 00 00 00 00 00 00 48 0a 84 00 11 00 52 da 07 32 6a
0.271,fused,,30,0x07,"IMU0_OK, IMU1_OK, FUSION_READY",0.861000,-0.028900,-0.004800,0.507700,61.016,61.016,1.208,-3.133,,,,,,,,,,,,,0,,,Not running,,,,,,,,,,,0.998700,0.032400,0.038800,-0.000300,0.858651,-0.076460,-0.021761,0.506359,60.880,2.296,-8.828,b6 00 00 00 00 00 00 a2 21 df fe d0 ff d5 13 07 1e 52
0.272,fused,,40,0x07,"IMU0_OK, IMU1_OK, FUSION_READY",0.909500,-0.012500,0.017800,-0.414900,-49.059,-49.059,1.261,-2.150,,,,,,,,,,,,,0,,,Not running,,,,,,,,,,,0.998700,0.032400,0.038800,-0.000300,0.908836,-0.025862,-0.030962,-0.415199,-49.059,-4.459,-1.224,b6 00 00 00 00 00 00 87 23 83 ff b2 00 cb ef 07 28 61
0.274,fused,,20,0x07,"IMU0_OK, IMU1_OK, FUSION_READY",0.007800,-0.998300,-0.057100,0.000000,6.546,6.546,-0.051,-179.108,,,,,,,,,,,,,0,,,Not running,,,,,,,,,,,0.998700,0.032400,0.038800,-0.000300,0.026772,0.997297,0.057631,0.036884,6.732,-4.042,176.687,b6 00 00 00 00 00 00 4e 00 01 d9 c5 fd 00 00 07 14 bd
0.275,fused,,0,0x07,"IMU0_OK, IMU1_OK, FUSION_READY",0.998700,0.032400,0.038800,-0.000300,0.110,0.110,4.446,3.720,,,,,,,,,,,,,0,,,Not running,,,,,,,,,,,0.998700,0.032400,0.038800,-0.000300,1.000000,0.000000,-0.000000,0.000000,0.000,-0.000,-0.000,b6 00 00 00 00 00 00 03 27 44 01 84 01 fd ff 07 00 e1
0.277,fused,,50,0x07,"IMU0_OK, IMU1_OK, FUSION_READY",0.263100,0.013200,0.001700,-0.964600,-149.480,-149.480,1.510,0.210,,,,,,,,,,,,,0,,,Not running,,,,,,,,,,,0.998700,0.032400,0.038800,-0.000300,0.263566,0.042088,-0.039763,-0.962902,-149.213,3.445,5.678,b6 00 00 00 00 00 00 47 0a 84 00 11 00 52 da 07 32 65
0.279,fused,,30,0x07,"IMU0_OK, IMU1_OK, FUSION_READY",0.861000,-0.028900,-0.004800,0.507700,61.016,61.016,1.208,-3.133,,,,,,,,,,,,,0,,,Not running,,,,,,,,,,,0.998700,0.032400,0.038800,-0.000300,0.858651,-0.076460,-0.021761,0.506359,60.880,2.296,-8.828,b6 00 00 00 00 00 00 a2 21 df fe d0 ff d5 13 07 1e 52
0.280,fused,,40,0x07,"IMU0_OK, IMU1_OK, FUSION_READY",0.909500,-0.012500,0.017800,-0.414900,-49.059,-49.059,1.261,-2.150,,,,,,,,,,,,,0,,,Not running,,,,,,,,,,,0.998700,0.032400,0.038800,-0.000300,0.908836,-0.025862,-0.030962,-0.415199,-49.059,-4.459,-1.224,b6 00 00 00 00 00 00 87 23 83 ff b2 00 cb ef 07 28 61
0.280,fused,,20,0x07,"IMU0_OK, IMU1_OK, FUSION_READY",0.007800,-0.998300,-0.057200,0.000000,6.558,6.558,-0.051,-179.108,,,,,,,,,,,,,0,,,Not running,,,,,,,,,,,0.998700,0.032400,0.038800,-0.000300,0.026776,0.997291,0.057731,0.036880,6.743,-4.041,176.686,b6 00 00 00 00 00 00 4e 00 01 d9 c4 fd 00 00 07 14 bc
0.281,fused,,0,0x07,"IMU0_OK, IMU1_OK, FUSION_READY",0.998700,0.032400,0.038800,-0.000300,0.110,0.110,4.446,3.720,,,,,,,,,,,,,0,,,Not running,,,,,,,,,,,0.998700,0.032400,0.038800,-0.000300,1.000000,0.000000,-0.000000,0.000000,0.000,-0.000,-0.000,b6 00 00 00 00 00 00 03 27 44 01 84 01 fd ff 07 00 e1
0.282,fused,,50,0x07,"IMU0_OK, IMU1_OK, FUSION_READY",0.263100,0.013200,0.001700,-0.964600,-149.480,-149.480,1.510,0.210,,,,,,,,,,,,,0,,,Not running,,,,,,,,,,,0.998700,0.032400,0.038800,-0.000300,0.263566,0.042088,-0.039763,-0.962902,-149.213,3.445,5.678,b6 00 00 00 00 00 00 47 0a 84 00 11 00 52 da 07 32 65
0.283,fused,,30,0x07,"IMU0_OK, IMU1_OK, FUSION_READY",0.861000,-0.028900,-0.004800,0.507700,61.016,61.016,1.208,-3.133,,,,,,,,,,,,,0,,,Not running,,,,,,,,,,,0.998700,0.032400,0.038800,-0.000300,0.858651,-0.076460,-0.021761,0.506359,60.880,2.296,-8.828,b6 00 00 00 00 00 00 a2 21 df fe d0 ff d5 13 07 1e 52
0.284,fused,,40,0x07,"IMU0_OK, IMU1_OK, FUSION_READY",0.909500,-0.012600,0.017800,-0.414900,-49.059,-49.059,1.256,-2.161,,,,,,,,,,,,,0,,,Not running,,,,,,,,,,,0.998700,0.032400,0.038800,-0.000300,0.908831,-0.025962,-0.030962,-0.415202,-49.059,-4.464,-1.234,b6 00 00 00 00 00 00 87 23 82 ff b2 00 cb ef 07 28 60
0.285,fused,,20,0x07,"IMU0_OK, IMU1_OK, FUSION_READY",0.007800,-0.998300,-0.057200,0.000000,6.558,6.558,-0.051,-179.108,,,,,,,,,,,,,0,,,Not running,,,,,,,,,,,0.998700,0.032400,0.038800,-0.000300,0.026776,0.997291,0.057731,0.036880,6.743,-4.041,176.686,b6 00 00 00 00 00 00 4e 00 01 d9 c4 fd 00 00 07 14 bc
0.286,fused,,0,0x07,"IMU0_OK, IMU1_OK, FUSION_READY",0.998700,0.032400,0.038800,-0.000300,0.110,0.110,4.446,3.720,,,,,,,,,,,,,0,,,Not running,,,,,,,,,,,0.998700,0.032400,0.038800,-0.000300,1.000000,0.000000,-0.000000,0.000000,0.000,-0.000,-0.000,b6 00 00 00 00 00 00 03 27 44 01 84 01 fd ff 07 00 e1
0.288,fused,,50,0x07,"IMU0_OK, IMU1_OK, FUSION_READY",0.263100,0.013200,0.001700,-0.964600,-149.480,-149.480,1.510,0.210,,,,,,,,,,,,,0,,,Not running,,,,,,,,,,,0.998700,0.032400,0.038800,-0.000300,0.263566,0.042088,-0.039763,-0.962902,-149.213,3.445,5.678,b6 00 00 00 00 00 00 47 0a 84 00 11 00 52 da 07 32 65
0.288,fused,,30,0x07,"IMU0_OK, IMU1_OK, FUSION_READY",0.860900,-0.028900,-0.004800,0.507800,61.029,61.029,1.208,-3.133,,,,,,,,,,,,,0,,,Not running,,,,,,,,,,,0.998700,0.032400,0.038800,-0.000300,0.858581,-0.076463,-0.021755,0.506477,60.895,2.298,-8.827,b6 00 00 00 00 00 00 a1 21 df fe d0 ff d6 13 07 1e 52
0.289,fused,,40,0x07,"IMU0_OK, IMU1_OK, FUSION_READY",0.909500,-0.012500,0.017800,-0.414900,-49.059,-49.059,1.261,-2.150,,,,,,,,,,,,,0,,,Not running,,,,,,,,,,,0.998700,0.032400,0.038800,-0.000300,0.908836,-0.025862,-0.030962,-0.415199,-49.059,-4.459,-1.224,b6 00 00 00 00 00 00 87 23 83 ff b2 00 cb ef 07 28 61
0.290,fused,,20,0x07,"IMU0_OK, IMU1_OK, FUSION_READY",0.007800,-0.998300,-0.057200,0.000000,6.558,6.558,-0.051,-179.108,,,,,,,,,,,,,0,,,Not running,,,,,,,,,,,0.998700,0.032400,0.038800,-0.000300,0.026776,0.997291,0.057731,0.036880,6.743,-4.041,176.686,b6 00 00 00 00 00 00 4e 00 01 d9 c4 fd 00 00 07 14 bc
0.291,fused,,0,0x07,"IMU0_OK, IMU1_OK, FUSION_READY",0.998700,0.032400,0.038800,-0.000300,0.110,0.110,4.446,3.720,,,,,,,,,,,,,0,,,Not running,,,,,,,,,,,0.998700,0.032400,0.038800,-0.000300,1.000000,0.000000,-0.000000,0.000000,0.000,-0.000,-0.000,b6 00 00 00 00 00 00 03 27 44 01 84 01 fd ff 07 00 e1
0.292,fused,,50,0x07,"IMU0_OK, IMU1_OK, FUSION_READY",0.263000,0.013200,0.001700,-0.964600,-149.489,-149.489,1.510,0.210,,,,,,,,,,,,,0,,,Not running,,,,,,,,,,,0.998700,0.032400,0.038800,-0.000300,0.263473,0.042093,-0.039761,-0.962927,-149.224,3.446,5.678,b6 00 00 00 00 00 00 46 0a 84 00 11 00 52 da 07 32 64
0.293,fused,,30,0x07,"IMU0_OK, IMU1_OK, FUSION_READY",0.860900,-0.028900,-0.004800,0.507800,61.029,61.029,1.208,-3.133,,,,,,,,,,,,,0,,,Not running,,,,,,,,,,,0.998700,0.032400,0.038800,-0.000300,0.858581,-0.076463,-0.021755,0.506477,60.895,2.298,-8.827,b6 00 00 00 00 00 00 a1 21 df fe d0 ff d6 13 07 1e 52
0.293,fused,,40,0x07,"IMU0_OK, IMU1_OK, FUSION_READY",0.909500,-0.012500,0.017800,-0.414900,-49.059,-49.059,1.261,-2.150,,,,,,,,,,,,,0,,,Not running,,,,,,,,,,,0.998700,0.032400,0.038800,-0.000300,0.908836,-0.025862,-0.030962,-0.415199,-49.059,-4.459,-1.224,b6 00 00 00 00 00 00 87 23 83 ff b2 00 cb ef 07 28 61
0.297,fused,,20,0x07,"IMU0_OK, IMU1_OK, FUSION_READY",0.007800,-0.998300,-0.057200,0.000000,6.558,6.558,-0.051,-179.108,,,,,,,,,,,,,0,,,Not running,,,,,,,,,,,0.998700,0.032400,0.038800,-0.000300,0.026776,0.997291,0.057731,0.036880,6.743,-4.041,176.686,b6 00 00 00 00 00 00 4e 00 01 d9 c4 fd 00 00 07 14 bc
0.298,fused,,0,0x07,"IMU0_OK, IMU1_OK, FUSION_READY",0.998700,0.032400,0.038800,-0.000300,0.110,0.110,4.446,3.720,,,,,,,,,,,,,0,,,Not running,,,,,,,,,,,0.998700,0.032400,0.038800,-0.000300,1.000000,0.000000,-0.000000,0.000000,0.000,-0.000,-0.000,b6 00 00 00 00 00 00 03 27 44 01 84 01 fd ff 07 00 e1
0.299,fused,,50,0x07,"IMU0_OK, IMU1_OK, FUSION_READY",0.263000,0.013200,0.001700,-0.964600,-149.489,-149.489,1.510,0.210,,,,,,,,,,,,,0,,,Not running,,,,,,,,,,,0.998700,0.032400,0.038800,-0.000300,0.263473,0.042093,-0.039761,-0.962927,-149.224,3.446,5.678,b6 00 00 00 00 00 00 46 0a 84 00 11 00 52 da 07 32 64
0.300,fused,,30,0x07,"IMU0_OK, IMU1_OK, FUSION_READY",0.860900,-0.028900,-0.004800,0.507800,61.029,61.029,1.208,-3.133,,,,,,,,,,,,,0,,,Not running,,,,,,,,,,,0.998700,0.032400,0.038800,-0.000300,0.858581,-0.076463,-0.021755,0.506477,60.895,2.298,-8.827,b6 00 00 00 00 00 00 a1 21 df fe d0 ff d6 13 07 1e 52
0.301,fused,,40,0x07,"IMU0_OK, IMU1_OK, FUSION_READY",0.909600,-0.012500,0.017800,-0.414800,-49.048,-49.048,1.261,-2.150,,,,,,,,,,,,,0,,,Not running,,,,,,,,,,,0.998700,0.032400,0.038800,-0.000300,0.908891,-0.025868,-0.030961,-0.415078,-49.043,-4.460,-1.225,b6 00 00 00 00 00 00 88 23 83 ff b2 00 cc ef 07 28 69
0.302,fused,,20,0x07,"IMU0_OK, IMU1_OK, FUSION_READY",0.007800,-0.998300,-0.057200,0.000000,6.558,6.558,-0.051,-179.108,,,,,,,,,,,,,0,,,Not running,,,,,,,,,,,0.998700,0.032400,0.038800,-0.000300,0.026776,0.997291,0.057731,0.036880,6.743,-4.041,176.686,b6 00 00 00 00 00 00 4e 00 01 d9 c4 fd 00 00 07 14 bc
0.302,fused,,0,0x07,"IMU0_OK, IMU1_OK, FUSION_READY",0.998700,0.032400,0.038800,-0.000300,0.110,0.110,4.446,3.720,,,,,,,,,,,,,0,,,Not running,,,,,,,,,,,0.998700,0.032400,0.038800,-0.000300,1.000000,0.000000,-0.000000,0.000000,0.000,-0.000,-0.000,b6 00 00 00 00 00 00 03 27 44 01 84 01 fd ff 07 00 e1
0.304,fused,,50,0x07,"IMU0_OK, IMU1_OK, FUSION_READY",0.263000,0.013200,0.001700,-0.964700,-149.498,-149.498,1.511,0.210,,,,,,,,,,,,,0,,,Not running,,,,,,,,,,,0.998700,0.032400,0.038800,-0.000300,0.263448,0.042093,-0.039760,-0.962934,-149.227,3.446,5.678,b6 00 00 00 00 00 00 46 0a 84 00 11 00 51 da 07 32 67
0.305,fused,,30,0x07,"IMU0_OK, IMU1_OK, FUSION_READY",0.860900,-0.028900,-0.004800,0.507800,61.029,61.029,1.208,-3.133,,,,,,,,,,,,,0,,,Not running,,,,,,,,,,,0.998700,0.032400,0.038800,-0.000300,0.858581,-0.076463,-0.021755,0.506477,60.895,2.298,-8.827,b6 00 00 00 00 00 00 a1 21 df fe d0 ff d6 13 07 1e 52
0.306,fused,,40,0x07,"IMU0_OK, IMU1_OK, FUSION_READY",0.909600,-0.012500,0.017800,-0.414800,-49.048,-49.048,1.261,-2.150,,,,,,,,,,,,,0,,,Not running,,,,,,,,,,,0.998700,0.032400,0.038800,-0.000300,0.908891,-0.025868,-0.030961,-0.415078,-49.043,-4.460,-1.225,b6 00 00 00 00 00 00 88 23 83 ff b2 00 cc ef 07 28 69
0.394,fused,,20,0x07,"IMU0_OK, IMU1_OK, FUSION_READY",0.007800,-0.998300,-0.057200,0.000000,6.558,6.558,-0.051,-179.108,,,,,,,,,,,,,0,,,Not running,,,,,,,,,,,0.998700,0.032400,0.038800,-0.000300,0.026776,0.997291,0.057731,0.036880,6.743,-4.041,176.686,b6 00 00 00 00 00 00 4e 00 01 d9 c4 fd 00 00 07 14 bc
0.396,fused,,0,0x07,"IMU0_OK, IMU1_OK, FUSION_READY",0.998700,0.032400,0.038800,-0.000300,0.110,0.110,4.446,3.720,,,,,,,,,,,,,0,,,Not running,,,,,,,,,,,0.998700,0.032400,0.038800,-0.000300,1.000000,0.000000,-0.000000,0.000000,0.000,-0.000,-0.000,b6 00 00 00 00 00 00 03 27 44 01 84 01 fd ff 07 00 e1
0.397,fused,,50,0x07,"IMU0_OK, IMU1_OK, FUSION_READY",0.262900,0.013200,0.001700,-0.964700,-149.507,-149.507,1.511,0.210,,,,,,,,,,,,,0,,,Not running,,,,,,,,,,,0.998700,0.032400,0.038800,-0.000300,0.263355,0.042097,-0.039757,-0.962960,-149.238,3.448,5.677,b6 00 00 00 00 00 00 45 0a 84 00 11 00 51 da 07 32 64
0.399,fused,,30,0x07,"IMU0_OK, IMU1_OK, FUSION_READY",0.860900,-0.028900,-0.004800,0.507800,61.029,61.029,1.208,-3.133,,,,,,,,,,,,,0,,,Not running,,,,,,,,,,,0.998700,0.032400,0.038800,-0.000300,0.858581,-0.076463,-0.021755,0.506477,60.895,2.298,-8.827,b6 00 00 00 00 00 00 a1 21 df fe d0 ff d6 13 07 1e 52
0.401,fused,,40,0x07,"IMU0_OK, IMU1_OK, FUSION_READY",0.909600,-0.012500,0.017800,-0.414800,-49.048,-49.048,1.261,-2.150,,,,,,,,,,,,,0,,,Not running,,,,,,,,,,,0.998700,0.032400,0.038800,-0.000300,0.908891,-0.025868,-0.030961,-0.415078,-49.043,-4.460,-1.225,b6 00 00 00 00 00 00 88 23 83 ff b2 00 cc ef 07 28 69
0.402,fused,,20,0x07,"IMU0_OK, IMU1_OK, FUSION_READY",0.007800,-0.998300,-0.057200,0.000000,6.558,6.558,-0.051,-179.108,,,,,,,,,,,,,0,,,Not running,,,,,,,,,,,0.998700,0.032400,0.038800,-0.000300,0.026776,0.997291,0.057731,0.036880,6.743,-4.041,176.686,b6 00 00 00 00 00 00 4e 00 01 d9 c4 fd 00 00 07 14 bc
0.404,fused,,0,0x07,"IMU0_OK, IMU1_OK, FUSION_READY",0.998700,0.032400,0.038900,-0.000300,0.110,0.110,4.457,3.720,,,,,,,,,,,,,0,,,Not running,,,,,,,,,,,0.998700,0.032400,0.038900,-0.000300,1.000000,0.000000,-0.000000,0.000000,0.000,-0.000,0.000,b6 00 00 00 00 00 00 03 27 44 01 85 01 fd ff 07 00 e0
0.405,fused,,50,0x07,"IMU0_OK, IMU1_OK, FUSION_READY",0.262900,0.013200,0.001600,-0.964700,-149.507,-149.507,1.508,0.221,,,,,,,,,,,,,0,,,Not running,,,,,,,,,,,0.998700,0.032400,0.038900,-0.000300,0.263350,0.042193,-0.039883,-0.962952,-149.237,3.454,5.694,b6 00 00 00 00 00 00 45 0a 84 00 10 00 51 da 07 32 65
