time_s,protocol,sequence,node_id,status_hex,status_bits,quat_w,quat_x,quat_y,quat_z,yaw_deg,yaw_unwrapped_deg,pitch_deg,roll_deg,imu0_accel_x_mg,imu0_accel_y_mg,imu0_accel_z_mg,imu0_gyro_x_dps,imu0_gyro_y_dps,imu0_gyro_z_dps,imu1_accel_x_mg,imu1_accel_y_mg,imu1_accel_z_mg,imu1_gyro_x_dps,imu1_gyro_y_dps,imu1_gyro_z_dps,guided_test_active,guided_test_step,guided_test_step_label,guided_test_step_status,guided_test_elapsed_s,guided_test_target_node,guided_test_target_label,guided_test_error_deg,guided_test_reference_node,guided_test_reference_label,palm_ref_quat_w,palm_ref_quat_x,palm_ref_quat_y,palm_ref_quat_z,palm_live_quat_w,palm_live_quat_x,palm_live_quat_y,palm_live_quat_z,relative_to_palm_quat_w,relative_to_palm_quat_x,relative_to_palm_quat_y,relative_to_palm_quat_z,relative_to_palm_yaw_deg,relative_to_palm_pitch_deg,relative_to_palm_roll_deg,raw_frame_hex
0.000,fused,,50,0x07,"IMU0_OK, IMU1_OK, FUSION_READY",0.383100,0.010100,-0.001200,-0.923600,-134.935,-134.935,1.016,0.570,,,,,,,,,,,,,0,,,Not running,,,,,,,,,,,0.997100,0.031500,0.037000,-0.057500,0.435417,0.032249,-0.043889,-0.898580,-128.233,1.131,6.141,b6 00 00 00 00 00 00 f7 0e 65 00 f4 ff ec db 07 32 95
0.001,fused,,0,0x07,"IMU0_OK, IMU1_OK, FUSION_READY",0.997100,0.031500,0.037000,-0.057600,-6.481,-6.481,4.440,3.367,,,,,,,,,,,,,0,,,Not running,,,,,,,,,,,0.997100,0.031500,0.037000,-0.057600,1.000000,0.000000,0.000000,0.000000,0.000,0.000,0.000,b6 00 00 00 00 00 00 f3 26 3b 01 72 01 c0 fd 07 00 a6
0.002,fused,,40,0x07,"IMU0_OK, IMU1_OK, FUSION_READY",0.981700,0.036500,0.015300,-0.186100,-21.384,-21.384,2.500,3.786,,,,,,,,,,,,,0,,,Not running,,,,,,,,,,,0.997100,0.031500,0.037000,-0.057600,0.991377,0.011476,-0.024829,-0.128157,-14.770,-2.653,1.670,b6 00 00 00 00 00 00 59 26 6d 01 99 00 bb f8 07 28 e6
0.003,fused,,30,0x07,"IMU0_OK, IMU1_OK, FUSION_READY",0.848200,-0.026300,-0.001700,0.528800,63.837,63.837,1.429,-2.661,,,,,,,,,,,,,0,,,Not running,,,,,,,,,,,0.997100,0.031500,0.037000,-0.057600,0.814531,-0.072422,-0.017939,0.575303,70.251,3.102,-7.980,b6 00 00 00 00 00 00 22 21 f9 fe ef ff a8 14 07 1e b1
0.003,fused,,50,0x07,"IMU0_OK, IMU1_OK, FUSION_READY",0.383100,0.010100,-0.001200,-0.923600,-134.935,-134.935,1.016,0.570,,,,,,,,,,,,,0,,,Not running,,,,,,,,,,,0.997100,0.031500,0.037000,-0.057600,0.435507,0.032249,-0.043887,-0.898536,-128.222,1.130,6.141,b6 00 00 00 00 00 00 f7 0e 65 00 f4 ff ec db 07 32 95
0.004,fused,,0,0x07,"IMU0_OK, IMU1_OK, FUSION_READY",0.997100,0.031500,0.037000,-0.057600,-6.481,-6.481,4.440,3.367,,,,,,,,,,,,,0,,,Not running,,,,,,,,,,,0.997100,0.031500,0.037000,-0.057600,1.000000,0.000000,0.000000,0.000000,0.000,0.000,0.000,b6 00 00 00 00 00 00 f3 26 3b 01 72 01 c0 fd 07 00 a6
0.004,fused,,40,0x07,"IMU0_OK, IMU1_OK, FUSION_READY",0.981700,0.036500,0.015300,-0.186100,-21.384,-21.384,2.500,3.786,,,,,,,,,,,,,0,,,Not running,,,,,,,,,,,0.997100,0.031500,0.037000,-0.057600,0.991377,0.011476,-0.024829,-0.128157,-14.770,-2.653,1.670,b6 00 00 00 00 00 00 59 26 6d 01 99 00 bb f8 07 28 e6
0.005,fused,,30,0x07,"IMU0_OK, IMU1_OK, FUSION_READY",0.848200,-0.026300,-0.001700,0.528800,63.837,63.837,1.429,-2.661,,,,,,,,,,,,,0,,,Not running,,,,,,,,,,,0.997100,0.031500,0.037000,-0.057600,0.814531,-0.072422,-0.017939,0.575303,70.251,3.102,-7.980,b6 00 00 00 00 00 00 22 21 f9 fe ef ff a8 14 07 1e b1
0.005,fused,,50,0x07,"IMU0_OK, IMU1_OK, FUSION_READY",0.383000,0.010100,-0.001200,-0.923600,-134.942,-134.942,1.016,0.570,,,,,,,,,,,,,0,,,Not running,,,,,,,,,,,0.997100,0.031500,0.037000,-0.057600,0.435424,0.032253,-0.043885,-0.898576,-128.232,1.131,6.141,b6 00 00 00 00 00 00 f6 0e 65 00 f4 ff ec db 07 32 94
0.006,fused,,0,0x07,"IMU0_OK, IMU1_OK, FUSION_READY",0.997100,0.031500,0.037000,-0.057600,-6.481,-6.481,4.440,3.367,,,,,,,,,,,,,0,,,Not running,,,,,,,,,,,0.997100,0.031500,0.037000,-0.057600,1.000000,0.000000,0.000000,0.000000,0.000,0.000,0.000,b6 00 00 00 00 00 00 f3 26 3b 01 72 01 c0 fd 07 00 a6
0.006,fused,,40,0x07,"IMU0_OK, IMU1_OK, FUSION_READY",0.981700,0.036500,0.015300,-0.186100,-21.384,-21.384,2.500,3.786,,,,,,,,,,,,,0,,,Not running,,,,,,,,,,,0.997100,0.031500,0.037000,-0.057600,0.991377,0.011476,-0.024829,-0.128157,-14.770,-2.653,1.670,b6 00 00 00 00 00 00 59 26 6d 01 99 00 bb f8 07 28 e6
0.007,fused,,30,0x07,"IMU0_OK, IMU1_OK, FUSION_READY",0.848200,-0.026300,-0.001700,0.528900,63.852,63.852,1.429,-2.661,,,,,,,,,,,,,0,,,Not running,,,,,,,,,,,0.997100,0.031500,0.037000,-0.057600,0.814482,-0.072422,-0.017935,0.575372,70.260,3.103,-7.979,b6 00 00 00 00 00 00 22 21 f9 fe ef ff a9 14 07 1e b0
0.007,fused,,50,0x07,"IMU0_OK, IMU1_OK, FUSION_READY",0.383000,0.010100,-0.001200,-0.923600,-134.942,-134.942,1.016,0.570,,,,,,,,,,,,,0,,,Not running,,,,,,,,,,,0.997100,0.031500,0.037000,-0.057600,0.435424,0.032253,-0.043885,-0.898576,-128.232,1.131,6.141,b6 00 00 00 00 00 00 f6 0e 65 00 f4 ff ec db 07 32 94
0.008,fused,,0,0x07,"IMU0_OK, IMU1_OK, FUSION_READY",0.997100,0.031500,0.037000,-0.057600,-6.481,-6.481,4.440,3.367,,,,,,,,,,,,,0,,,Not running,,,,,,,,,,,0.997100,0.031500,0.037000,-0.057600,1.000000,0.000000,0.000000,0.000000,0.000,0.000,0.000,b6 00 00 00 00 00 00 f3 26 3b 01 72 01 c0 fd 07 00 a6
0.008,fused,,40,0x07,"IMU0_OK, IMU1_OK, FUSION_READY",0.981700,0.036500,0.015300,-0.186000,-21.372,-21.372,2.500,3.786,,,,,,,,,,,,,0,,,Not running,,,,,,,,,,,0.997100,0.031500,0.037000,-0.057600,0.991389,0.011473,-0.024827,-0.128060,-14.759,-2.653,1.670,b6 00 00 00 00 00 00 59 26 6d 01 99 00 bc f8 07 28 e1
0.009,fused,,30,0x07,"IMU0_OK, IMU1_OK, FUSION_READY",0.848200,-0.026300,-0.001600,0.528900,63.852,63.852,1.439,-2.655,,,,,,,,,,,,,0,,,Not running,,,,,,,,,,,0.997100,0.031500,0.037000,-0.057600,0.814486,-0.072428,-0.017835,0.575369,70.259,3.112,-7.973,b6 00 00 00 00 00 00 22 21 f9 fe f0 ff a9 14 07 1e af
0.009,fused,,50,0x07,"IMU0_OK, IMU1_OK, FUSION_READY",0.383000,0.010100,-0.001200,-0.923600,-134.942,-134.942,1.016,0.570,,,,,,,,,,,,,0,,,Not running,,,,,,,,,,,0.997100,0.031500,0.037000,-0.057600,0.435424,0.032253,-0.043885,-0.898576,-128.232,1.131,6.141,b6 00 00 00 00 00 00 f6 0e 65 00 f4 ff ec db 07 32 94
0.010,fused,,0,0x07,"IMU0_OK, IMU1_OK, FUSION_READY",0.997100,0.031500,0.037000,-0.057600,-6.481,-6.481,4.440,3.367,,,,,,,,,,,,,0,,,Not running,,,,,,,,,,,0.997100,0.031500,0.037000,-0.057600,1.000000,0.000000,0.000000,0.000000,0.000,0.000,0.000,b6 00 00 00 00 00 00 f3 26 3b 01 72 01 c0 fd 07 00 a6
0.010,fused,,40,0x07,"IMU0_OK, IMU1_OK, FUSION_READY",0.981700,0.036500,0.015300,-0.186000,-21.372,-21.372,2.500,3.786,,,,,,,,,,,,,0,,,Not running,,,,,,,,,,,0.997100,0.031500,0.037000,-0.057600,0.991389,0.011473,-0.024827,-0.128060,-14.759,-2.653,1.670,b6 00 00 00 00 00 00 59 26 6d 01 99 00 bc f8 07 28 e1
0.010,fused,,30,0x07,"IMU0_OK, IMU1_OK, FUSION_READY",0.848200,-0.026300,-0.001600,0.528900,63.852,63.852,1.439,-2.655,,,,,,,,,,,,,0,,,Not running,,,,,,,,,,,0.997100,0.031500,0.037000,-0.057600,0.814486,-0.072428,-0.017835,0.575369,70.259,3.112,-7.973,b6 00 00 00 00 00 00 22 21 f9 fe f0 ff a9 14 07 1e af
0.011,fused,,50,0x07,"IMU0_OK, IMU1_OK, FUSION_READY",0.382900,0.010100,-0.001200,-0.923700,-134.962,-134.962,1.016,0.570,,,,,,,,,,,,,0,,,Not running,,,,,,,,,,,0.997100,0.031500,0.037000,-0.057600,0.435307,0.032258,-0.043882,-0.898633,-128.247,1.133,6.141,b6 00 00 00 00 00 00 f5 0e 65 00 f4 ff eb db 07 32 90
0.011,fused,,0,0x07,"IMU0_OK, IMU1_OK, FUSION_READY",0.997100,0.031500,0.037000,-0.057700,-6.493,-6.493,4.440,3.367,,,,,,,,,,,,,0,,,Not running,,,,,,,,,,,0.997100,0.031500,0.037000,-0.057700,1.000000,0.000000,0.000000,0.000000,0.000,0.000,0.000,b6 00 00 00 00 00 00 f3 26 3b 01 72 01 bf fd 07 00 d9
0.012,fused,,40,0x07,"IMU0_OK, IMU1_OK, FUSION_READY",0.981700,0.036500,0.015300,-0.186000,-21.372,-21.372,2.500,3.786,,,,,,,,,,,,,0,,,Not running,,,,,,,,,,,0.997100,0.031500,0.037000,-0.057700,0.991402,0.011471,-0.024823,-0.127961,-14.748,-2.653,1.669,b6 00 00 00 00 00 00 59 26 6d 01 99 00 bc f8 07 28 e1
0.012,fused,,30,0x07,"IMU0_OK, IMU1_OK, FUSION_READY",0.848200,-0.026300,-0.001600,0.528900,63.852,63.852,1.439,-2.655,,,,,,,,,,,,,0,,,Not running,,,,,,,,,,,0.997100,0.031500,0.037000,-0.057700,0.814428,-0.072427,-0.017838,0.575450,70.271,3.113,-7.973,b6 00 00 00 00 00 00 22 21 f9 fe f0 ff a9 14 07 1e af
0.013,fused,,50,0x07,"IMU0_OK, IMU1_OK, FUSION_READY",0.382900,0.010100,-0.001200,-0.923700,-134.962,-134.962,1.016,0.570,,,,,,,,,,,,,0,,,Not running,,,,,,,,,,,0.997100,0.031500,0.037000,-0.057700,0.435396,0.032258,-0.043881,-0.898590,-128.236,1.132,6.141,b6 00 00 00 00 00 00 f5 0e 65 00 f4 ff eb db 07 32 90
0.014,fused,,0,0x07,"IMU0_OK, IMU1_OK, FUSION_READY",0.997100,0.031500,0.037000,-0.057700,-6.493,-6.493,4.440,3.367,,,,,,,,,,,,,0,,,Not running,,,,,,,,,,,0.997100,0.031500,0.037000,-0.057700,1.000000,0.000000,0.000000,0.000000,0.000,0.000,0.000,b6 00 00 00 00 00 00 f3 26 3b 01 72 01 bf fd 07 00 d9
0.014,fused,,40,0x07,"IMU0_OK, IMU1_OK, FUSION_READY",0.981700,0.036500,0.015300,-0.186000,-21.372,-21.372,2.500,3.786,,,,,,,,,,,,,0,,,Not running,,,,,,,,,,,0.997100,0.031500,0.037000,-0.057700,0.991402,0.011471,-0.024823,-0.127961,-14.748,-2.653,1.669,b6 00 00 00 00 00 00 59 26 6d 01 99 00 bc f8 07 28 e1
0.015,fused,,30,0x07,"IMU0_OK, IMU1_OK, FUSION_READY",0.848200,-0.026300,-0.001600,0.529000,63.867,63.867,1.439,-2.655,,,,,,,,,,,,,0,,,Not running,,,,,,,,,,,0.997100,0.031500,0.037000,-0.057700,0.814379,-0.072427,-0.017834,0.575520,70.280,3.114,-7.973,b6 00 00 00 00 00 00 22 21 f9 fe f0 ff aa 14 07 1e ac
0.079,fused,,50,0x07,"IMU0_OK, IMU1_OK, FUSION_READY",0.382900,0.010100,-0.001200,-0.923700,-134.962,-134.962,1.016,0.570,,,,,,,,,,,,,0,,,Not running,,,,,,,,,,,0.997100,0.031500,0.037000,-0.057700,0.435396,0.032258,-0.043881,-0.898590,-128.236,1.132,6.141,b6 00 00 00 00 00 00 f5 0e 65 00 f4 ff eb db 07 32 90
0.079,fused,,0,0x07,"IMU0_OK, IMU1_OK, FUSION_READY",0.997100,0.031500,0.037000,-0.057700,-6.493,-6.493,4.440,3.367,,,,,,,,,,,,,0,,,Not running,,,,,,,,,,,0.997100,0.031500,0.037000,-0.057700,1.000000,0.000000,0.000000,0.000000,0.000,0.000,0.000,b6 00 00 00 00 00 00 f3 26 3b 01 72 01 bf fd 07 00 d9
0.080,fused,,40,0x07,"IMU0_OK, IMU1_OK, FUSION_READY",0.981700,0.036500,0.015300,-0.185900,-21.360,-21.360,2.500,3.786,,,,,,,,,,,,,0,,,Not running,,,,,,,,,,,0.997100,0.031500,0.037000,-0.057700,0.991415,0.011467,-0.024820,-0.127864,-14.736,-2.653,1.668,b6 00 00 00 00 00 00 59 26 6d 01 99 00 bd f8 07 28 e0
0.080,fused,,30,0x07,"IMU0_OK, IMU1_OK, FUSION_READY",0.848100,-0.026300,-0.001600,0.529000,63.864,63.864,1.439,-2.655,,,,,,,,,,,,,0,,,Not running,,,,,,,,,,,0.997100,0.031500,0.037000,-0.057700,0.814349,-0.072430,-0.017832,0.575563,70.286,3.115,-7.973,b6 00 00 00 00 00 00 21 21 f9 fe f0 ff aa 14 07 1e af
0.081,fused,,50,0x07,"IMU0_OK, IMU1_OK, FUSION_READY",0.382800,0.010100,-0.001200,-0.923700,-134.969,-134.969,1.016,0.570,,,,,,,,,,,,,0,,,Not running,,,,,,,,,,,0.997100,0.031500,0.037000,-0.057700,0.435313,0.032263,-0.043879,-0.898630,-128.246,1.133,6.141,b6 00 00 00 00 00 00 f4 0e 65 00 f4 ff eb db 07 32 91
0.082,fused,,0,0x07,"IMU0_OK, IMU1_OK, FUSION_READY",0.997100,0.031500,0.037000,-0.057700,-6.493,-6.493,4.440,3.367,,,,,,,,,,,,,0,,,Not running,,,,,,,,,,,0.997100,0.031500,0.037000,-0.057700,1.000000,0.000000,0.000000,0.000000,0.000,0.000,0.000,b6 00 00 00 00 00 00 f3 26 3b 01 72 01 bf fd 07 00 d9
0.082,fused,,40,0x07,"IMU0_OK, IMU1_OK, FUSION_READY",0.981700,0.036500,0.015300,-0.185900,-21.360,-21.360,2.500,3.786,,,,,,,,,,,,,0,,,Not running,,,,,,,,,,,0.997100,0.031500,0.037000,-0.057700,0.991415,0.011467,-0.024820,-0.127864,-14.736,-2.653,1.668,b6 00 00 00 00 00 00 59 26 6d 01 99 00 bd f8 07 28 e0
0.083,fused,,30,0x07,"IMU0_OK, IMU1_OK, FUSION_READY",0.848100,-0.026300,-0.001600,0.529000,63.864,63.864,1.439,-2.655,,,,,,,,,,,,,0,,,Not running,,,,,,,,,,,0.997100,0.031500,0.037000,-0.057700,0.814349,-0.072430,-0.017832,0.575563,70.286,3.115,-7.973,b6 00 00 00 00 00 00 21 21 f9 fe f0 ff aa 14 07 1e af
0.084,fused,,50,0x07,"IMU0_OK, IMU1_OK, FUSION_READY",0.382800,0.010100,-0.001200,-0.923700,-134.969,-134.969,1.016,0.570,,,,,,,,,,,,,0,,,Not running,,,,,,,,,,,0.997100,0.031500,0.037000,-0.057700,0.435313,0.032263,-0.043879,-0.898630,-128.246,1.133,6.141,b6 00 00 00 00 00 00 f4 0e 65 00 f4 ff eb db 07 32 91
0.084,fused,,0,0x07,"IMU0_OK, IMU1_OK, FUSION_READY",0.997100,0.031500,0.037000,-0.057700,-6.493,-6.493,4.440,3.367,,,,,,,,,,,,,0,,,Not running,,,,,,,,,,,0.997100,0.031500,0.037000,-0.057700,1.000000,0.000000,0.000000,0.000000,0.000,0.000,0.000,b6 00 00 00 00 00 00 f3 26 3b 01 72 01 bf fd 07 00 d9
0.085,fused,,40,0x07,"IMU0_OK, IMU1_OK, FUSION_READY",0.981700,0.036500,0.015300,-0.185900,-21.360,-21.360,2.500,3.786,,,,,,,,,,,,,0,,,Not running,,,,,,,,,,,0.997100,0.031500,0.037000,-0.057700,0.991415,0.011467,-0.024820,-0.127864,-14.736,-2.653,1.668,b6 00 00 00 00 00 00 59 26 6d 01 99 00 bd f8 07 28 e0
0.085,fused,,30,0x07,"IMU0_OK, IMU1_OK, FUSION_READY",0.848100,-0.026300,-0.001600,0.529000,63.864,63.864,1.439,-2.655,,,,,,,,,,,,,0,,,Not running,,,,,,,,,,,0.997100,0.031500,0.037000,-0.057700,0.814349,-0.072430,-0.017832,0.575563,70.286,3.115,-7.973,b6 00 00 00 00 00 00 21 21 f9 fe f0 ff aa 14 07 1e af
0.086,fused,,50,0x07,"IMU0_OK, IMU1_OK, FUSION_READY",0.382800,0.010100,-0.001200,-0.923700,-134.969,-134.969,1.016,0.570,,,,,,,,,,,,,0,,,Not running,,,,,,,,,,,0.997100,0.031500,0.037000,-0.057700,0.435313,0.032263,-0.043879,-0.898630,-128.246,1.133,6.141,b6 00 00 00 00 00 00 f4 0e 65 00 f4 ff eb db 07 32 91
0.086,fused,,0,0x07,"IMU0_OK, IMU1_OK, FUSION_READY",0.997100,0.031500,0.037000,-0.057800,-6.504,-6.504,4.441,3.366,,,,,,,,,,,,,0,,,Not running,,,,,,,,,,,0.997100,0.031500,0.037000,-0.057800,1.000000,0.000000,-0.000000,0.000000,0.000,-0.000,0.000,b6 00 00 00 00 00 00 f3 26 3b 01 72 01 be fd 07 00 d8
0.087,fused,,40,0x07,"IMU0_OK, IMU1_OK, FUSION_READY",0.981700,0.036500,0.015300,-0.185900,-21.360,-21.360,2.500,3.786,,,,,,,,,,,,,0,,,Not running,,,,,,,,,,,0.997100,0.031500,0.037000,-0.057800,0.991428,0.011466,-0.024816,-0.127765,-14.725,-2.652,1.668,b6 00 00 00 00 00 00 59 26 6d 01 99 00 bd f8 07 28 e0
0.087,fused,,30,0x07,"IMU0_OK, IMU1_OK, FUSION_READY",0.848100,-0.026300,-0.001600,0.529000,63.864,63.864,1.439,-2.655,,,,,,,,,,,,,0,,,Not running,,,,,,,,,,,0.997100,0.031500,0.037000,-0.057800,0.814291,-0.072430,-0.017834,0.575644,70.298,3.115,-7.972,b6 00 00 00 00 00 00 21 21 f9 fe f0 ff aa 14 07 1e af
0.088,fused,,50,0x07,"IMU0_OK, IMU1_OK, FUSION_READY",0.382700,0.010100,-0.001200,-0.923700,-134.977,-134.977,1.016,0.570,,,,,,,,,,,,,0,,,Not running,,,,,,,,,,,0.997100,0.031500,0.037000,-0.057800,0.435320,0.032267,-0.043876,-0.898627,-128.245,1.134,6.141,b6 00 00 00 00 00 00 f3 0e 65 00 f4 ff eb db 07 32 96
0.088,fused,,0,0x07,"IMU0_OK, IMU1_OK, FUSION_READY",0.997100,0.031500,0.037000,-0.057800,-6.504,-6.504,4.441,3.366,,,,,,,,,,,,,0,,,Not running,,,,,,,,,,,0.997100,0.031500,0.037000,-0.057800,1.000000,0.000000,-0.000000,0.000000,0.000,-0.000,0.000,b6 00 00 00 00 00 00 f3 26 3b 01 72 01 be fd 07 00 d8
0.089,fused,,40,0x07,"IMU0_OK, IMU1_OK, FUSION_READY",0.981700,0.036500,0.015300,-0.185900,-21.360,-21.360,2.500,3.786,,,,,,,,,,,,,0,,,Not running,,,,,,,,,,,0.997100,0.031500,0.037000,-0.057800,0.991428,0.011466,-0.024816,-0.127765,-14.725,-2.652,1.668,b6 00 00 00 00 00 00 59 26 6d 01 99 00 bd f8 07 28 e0
0.089,fused,,30,0x07,"IMU0_OK, IMU1_OK, FUSION_READY",0.848100,-0.026300,-0.001600,0.529100,63.879,63.879,1.439,-2.655,,,,,,,,,,,,,0,,,Not running,,,,,,,,,,,0.997100,0.031500,0.037000,-0.057800,0.814242,-0.072429,-0.017830,0.575713,70.308,3.116,-7.972,b6 00 00 00 00 00 00 21 21 f9 fe f0 ff ab 14 07 1e ae
0.090,fused,,50,0x07,"IMU0_OK, IMU1_OK, FUSION_READY",0.382700,0.010100,-0.001300,-0.923700,-134.977,-134.977,1.012,0.581,,,,,,,,,,,,,0,,,Not running,,,,,,,,,,,0.997100,0.031500,0.037000,-0.057800,0.435316,0.032273,-0.043976,-0.898624,-128.246,1.130,6.151,b6 00 00 00 00 00 00 f3 0e 65 00 f3 ff eb db 07 32 91
0.090,fused,,0,0x07,"IMU0_OK, IMU1_OK, FUSION_READY",0.997100,0.031500,0.037000,-0.057800,-6.504,-6.504,4.441,3.366,,,,,,,,,,,,,0,,,Not running,,,,,,,,,,,0.997100,0.031500,0.037000,-0.057800,1.000000,0.000000,-0.000000,0.000000,0.000,-0.000,0.000,b6 00 00 00 00 00 00 f3 26 3b 01 72 01 be fd 07 00 d8
0.091,fused,,40,0x07,"IMU0_OK, IMU1_OK, FUSION_READY",0.981700,0.036500,0.015300,-0.185800,-21.348,-21.348,2.499,3.787,,,,,,,,,,,,,0,,,Not running,,,,,,,,,,,0.997100,0.031500,0.037000,-0.057800,0.991440,0.011462,-0.024814,-0.127667,-14.714,-2.652,1.667,b6 00 00 00 00 00 00 59 26 6d 01 99 00 be f8 07 28 e3
0.091,fused,,30,0x07,"IMU0_OK, IMU1_OK, FUSION_READY",0.848100,-0.026300,-0.001600,0.529100,63.879,63.879,1.439,-2.655,,,,,,,,,,,,,0,,,Not running,,,,,,,,,,,0.997100,0.031500,0.037000,-0.057800,0.814242,-0.072429,-0.017830,0.575713,70.308,3.116,-7.972,b6 00 00 00 00 00 00 21 21 f9 fe f0 ff ab 14 07 1e ae
0.091,fused,,50,0x07,"IMU0_OK, IMU1_OK, FUSION_READY",0.382700,0.010100,-0.001300,-0.923800,-134.988,-134.988,1.012,0.581,,,,,,,,,,,,,0,,,Not running,,,,,,,,,,,0.997100,0.031500,0.037000,-0.057800,0.435282,0.032273,-0.043975,-0.898640,-128.250,1.130,6.151,b6 00 00 00 00 00 00 f3 0e 65 00 f3 ff ea db 07 32 90
0.095,fused,,0,0x07,"IMU0_OK, IMU1_OK, FUSION_READY",0.997100,0.031500,0.037000,-0.057800,-6.504,-6.504,4.441,3.366,,,,,,,,,,,,,0,,,Not running,,,,,,,,,,,0.997100,0.031500,0.037000,-0.057800,1.000000,0.000000,-0.000000,0.000000,0.000,-0.000,0.000,b6 00 00 00 00 00 00 f3 26 3b 01 72 01 be fd 07 00 d8
0.097,fused,,40,0x07,"IMU0_OK, IMU1_OK, FUSION_READY",0.981700,0.036500,0.015300,-0.185800,-21.348,-21.348,2.499,3.787,,,,,,,,,,,,,0,,,Not running,,,,,,,,,,,0.997100,0.031500,0.037000,-0.057800,0.991440,0.011462,-0.024814,-0.127667,-14.714,-2.652,1.667,b6 00 00 00 00 00 00 59 26 6d 01 99 00 be f8 07 28 e3
0.098,fused,,30,0x07,"IMU0_OK, IMU1_OK, FUSION_READY",0.848100,-0.026300,-0.001600,0.529100,63.879,63.879,1.439,-2.655,,,,,,,,,,,,,0,,,Not running,,,,,,,,,,,0.997100,0.031500,0.037000,-0.057800,0.814242,-0.072429,-0.017830,0.575713,70.308,3.116,-7.972,b6 00 00 00 00 00 00 21 21 f9 fe f0 ff ab 14 07 1e ae
0.099,fused,,50,0x07,"IMU0_OK, IMU1_OK, FUSION_READY",0.382600,0.010100,-0.001300,-0.923800,-134.996,-134.996,1.012,0.581,,,,,,,,,,,,,0,,,Not running,,,,,,,,,,,0.997100,0.031500,0.037000,-0.057800,0.435199,0.032278,-0.043973,-0.898680,-128.261,1.131,6.151,b6 00 00 00 00 00 00 f2 0e 65 00 f3 ff ea db 07 32 91
0.206,fused,,0,0x07,"IMU0_OK, IMU1_OK, FUSION_READY",0.997100,0.031500,0.037000,-0.057900,-6.516,-6.516,4.441,3.366,,,,,,,,,,,,,0,,,Not running,,,,,,,,,,,0.997100,0.031500,0.037000,-0.057900,1.000000,0.000000,0.000000,0.000000,0.000,0.000,0.000,b6 00 00 00 00 00 00 f3 26 3b 01 72 01 bd fd 07 00 db
0.206,fused,,40,0x07,"IMU0_OK, IMU1_OK, FUSION_READY",0.981700,0.036500,0.015300,-0.185800,-21.348,-21.348,2.499,3.787,,,,,,,,,,,,,0,,,Not running,,,,,,,,,,,0.997100,0.031500,0.037000,-0.057900,0.991453,0.011461,-0.024810,-0.127568,-14.702,-2.652,1.667,b6 00 00 00 00 00 00 59 26 6d 01 99 00 be f8 07 28 e3
0.207,fused,,30,0x07,"IMU0_OK, IMU1_OK, FUSION_READY",0.848100,-0.026300,-0.001600,0.529100,63.879,63.879,1.439,-2.655,,,,,,,,,,,,,0,,,Not running,,,,,,,,,,,0.997100,0.031500,0.037000,-0.057900,0.814184,-0.072429,-0.017833,0.575795,70.319,3.117,-7.972,b6 00 00 00 00 00 00 21 21 f9 fe f0 ff ab 14 07 1e ae
0.207,fused,,50,0x07,"IMU0_OK, IMU1_OK, FUSION_READY",0.382600,0.010100,-0.001300,-0.923800,-134.996,-134.996,1.012,0.581,,,,,,,,,,,,,0,,,Not running,,,,,,,,,,,0.997100,0.031500,0.037000,-0.057900,0.435289,0.032278,-0.043971,-0.898637,-128.249,1.131,6.151,b6 00 00 00 00 00 00 f2 0e 65 00 f3 ff ea db 07 32 91
0.208,fused,,0,0x07,"IMU0_OK, IMU1_OK, FUSION_READY",0.997100,0.031500,0.037000,-0.057900,-6.516,-6.516,4.441,3.366,,,,,,,,,,,,,0,,,Not running,,,,,,,,,,,0.997100,0.031500,0.037000,-0.057900,1.000000,0.000000,0.000000,0.000000,0.000,0.000,0.000,b6 00 00 00 00 00 00 f3 26 3b 01 72 01 bd fd 07 00 db
0.209,fused,,40,0x07,"IMU0_OK, IMU1_OK, FUSION_READY",0.981700,0.036500,0.015300,-0.185800,-21.348,-21.348,2.499,3.787,,,,,,,,,,,,,0,,,Not running,,,,,,,,,,,0.997100,0.031500,0.037000,-0.057900,0.991453,0.011461,-0.024810,-0.127568,-14.702,-2.652,1.667,b6 00 00 00 00 00 00 59 26 6d 01 99 00 be f8 07 28 e3
0.209,fused,,30,0x07,"IMU0_OK, IMU1_OK, FUSION_READY",0.848100,-0.026300,-0.001600,0.529100,63.879,63.879,1.439,-2.655,,,,,,,,,,,,,0,,,Not running,,,,,,,,,,,0.997100,0.031500,0.037000,-0.057900,0.814184,-0.072429,-0.017833,0.575795,70.319,3.117,-7.972,b6 00 00 00 00 00 00 21 21 f9 fe f0 ff ab 14 07 1e ae
0.210,fused,,50,0x07,"IMU0_OK, IMU1_OK, FUSION_READY",0.382600,0.010100,-0.001300,-0.923800,-134.996,-134.996,1.012,0.581,,,,,,,,,,,,,0,,,Not running,,,,,,,,,,,0.997100,0.031500,0.037000,-0.057900,0.435289,0.032278,-0.043971,-0.898637,-128.249,1.131,6.151,b6 00 00 00 00 00 00 f2 0e 65 00 f3 ff ea db 07 32 91
0.210,fused,,0,0x07,"IMU0_OK, IMU1_OK, FUSION_READY",0.997100,0.031500,0.037000,-0.057900,-6.516,-6.516,4.441,3.366,,,,,,,,,,,,,0,,,Not running,,,,,,,,,,,0.997100,0.031500,0.037000,-0.057900,1.000000,0.000000,0.000000,0.000000,0.000,0.000,0.000,b6 00 00 00 00 00 00 f3 26 3b 01 72 01 bd fd 07 00 db
0.211,fused,,40,0x07,"IMU0_OK, IMU1_OK, FUSION_READY",0.981800,0.036500,0.015300,-0.185700,-21.338,-21.338,2.499,3.787,,,,,,,,,,,,,0,,,Not running,,,,,,,,,,,0.997100,0.031500,0.037000,-0.057900,0.991468,0.011453,-0.024808,-0.127453,-14.689,-2.652,1.666,b6 00 00 00 00 00 00 5a 26 6d 01 99 00 bf f8 07 28 e1
0.212,fused,,30,0x07,"IMU0_OK, IMU1_OK, FUSION_READY",0.848000,-0.026300,-0.001600,0.529200,63.892,63.892,1.440,-2.654,,,,,,,,,,,,,0,,,Not running,,,,,,,,,,,0.997100,0.031500,0.037000,-0.057900,0.814105,-0.072432,-0.017826,0.575907,70.335,3.119,-7.971,b6 00 00 00 00 00 00 20 21 f9 fe f0 ff ac 14 07 1e a8
0.212,fused,,50,0x07,"IMU0_OK, IMU1_OK, FUSION_READY",0.382500,0.010100,-0.001300,-0.923800,-135.003,-135.003,1.012,0.580,,,,,,,,,,,,,0,,,Not running,,,,,,,,,,,0.997100,0.031500,0.037000,-0.057900,0.435206,0.032282,-0.043969,-0.898677,-128.260,1.132,6.151,b6 00 00 00 00 00 00 f1 0e 65 00 f3 ff ea db 07 32 92
0.213,fused,,0,0x07,"IMU0_OK, IMU1_OK, FUSION_READY",0.997100,0.031500,0.037000,-0.057900,-6.516,-6.516,4.441,3.366,,,,,,,,,,,,,0,,,Not running,,,,,,,,,,,0.997100,0.031500,0.037000,-0.057900,1.000000,0.000000,0.000000,0.000000,0.000,0.000,0.000,b6 00 00 00 00 00 00 f3 26 3b 01 72 01 bd fd 07 00 db
0.213,fused,,40,0x07,"IMU0_OK, IMU1_OK, FUSION_READY",0.981800,0.036500,0.015300,-0.185700,-21.338,-21.338,2.499,3.787,,,,,,,,,,,,,0,,,Not running,,,,,,,,,,,0.997100,0.031500,0.037000,-0.057900,0.991468,0.011453,-0.024808,-0.127453,-14.689,-2.652,1.666,b6 00 00 00 00 00 00 5a 26 6d 01 99 00 bf f8 07 28 e1
0.214,fused,,30,0x07,"IMU0_OK, IMU1_OK, FUSION_READY",0.848000,-0.026300,-0.001600,0.529200,63.892,63.892,1.440,-2.654,,,,,,,,,,,,,0,,,Not running,,,,,,,,,,,0.997100,0.031500,0.037000,-0.057900,0.814105,-0.072432,-0.017826,0.575907,70.335,3.119,-7.971,b6 00 00 00 00 00 00 20 21 f9 fe f0 ff ac 14 07 1e a8
0.214,fused,,50,0x07,"IMU0_OK, IMU1_OK, FUSION_READY",0.382500,0.010100,-0.001300,-0.923800,-135.003,-135.003,1.012,0.580,,,,,,,,,,,,,0,,,Not running,,,,,,,,,,,0.997100,0.031500,0.037000,-0.057900,0.435206,0.032282,-0.043969,-0.898677,-128.260,1.132,6.151,b6 00 00 00 00 00 00 f1 0e 65 00 f3 ff ea db 07 32 92
0.215,fused,,0,0x07,"IMU0_OK, IMU1_OK, FUSION_READY",0.997100,0.031500,0.037000,-0.057900,-6.516,-6.516,4.441,3.366,,,,,,,,,,,,,0,,,Not running,,,,,,,,,,,0.997100,0.031500,0.037000,-0.057900,1.000000,0.000000,0.000000,0.000000,0.000,0.000,0.000,b6 00 00 00 00 00 00 f3 26 3b 01 72 01 bd fd 07 00 db
0.216,fused,,40,0x07,"IMU0_OK, IMU1_OK, FUSION_READY",0.981800,0.036500,0.015300,-0.185700,-21.338,-21.338,2.499,3.787,,,,,,,,,,,,,0,,,Not running,,,,,,,,,,,0.997100,0.031500,0.037000,-0.057900,0.991468,0.011453,-0.024808,-0.127453,-14.689,-2.652,1.666,b6 00 00 00 00 00 00 5a 26 6d 01 99 00 bf f8 07 28 e1
0.216,fused,,30,0x07,"IMU0_OK, IMU1_OK, FUSION_READY",0.848000,-0.026300,-0.001600,0.529200,63.892,63.892,1.440,-2.654,,,,,,,,,,,,,0,,,Not running,,,,,,,,,,,0.997100,0.031500,0.037000,-0.057900,0.814105,-0.072432,-0.017826,0.575907,70.335,3.119,-7.971,b6 00 00 00 00 00 00 20 21 f9 fe f0 ff ac 14 07 1e a8
0.217,fused,,50,0x07,"IMU0_OK, IMU1_OK, FUSION_READY",0.382500,0.010100,-0.001300,-0.923800,-135.003,-135.003,1.012,0.580,,,,,,,,,,,,,0,,,Not running,,,,,,,,,,,0.997100,0.031500,0.037000,-0.057900,0.435206,0.032282,-0.043969,-0.898677,-128.260,1.132,6.151,b6 00 00 00 00 00 00 f1 0e 65 00 f3 ff ea db 07 32 92
0.218,fused,,0,0x07,"IMU0_OK, IMU1_OK, FUSION_READY",0.997100,0.031500,0.037000,-0.058000,-6.527,-6.527,4.441,3.365,,,,,,,,,,,,,0,,,Not running,,,,,,,,,,,0.997100,0.031500,0.037000,-0.058000,1.000000,0.000000,0.000000,0.000000,0.000,0.000,0.000,b6 00 00 00 00 00 00 f3 26 3b 01 72 01 bc fd 07 00 da
0.218,fused,,40,0x07,"IMU0_OK, IMU1_OK, FUSION_READY",0.981800,0.036500,0.015300,-0.185700,-21.338,-21.338,2.499,3.787,,,,,,,,,,,,,0,,,Not running,,,,,,,,,,,0.997100,0.031500,0.037000,-0.058000,0.991481,0.011451,-0.024805,-0.127354,-14.677,-2.652,1.665,b6 00 00 00 00 00 00 5a 26 6d 01 99 00 bf f8 07 28 e1
0.218,fused,,30,0x07,"IMU0_OK, IMU1_OK, FUSION_READY",0.848000,-0.026300,-0.001600,0.529200,63.892,63.892,1.440,-2.654,,,,,,,,,,,,,0,,,Not running,,,,,,,,,,,0.997100,0.031500,0.037000,-0.058000,0.814047,-0.072431,-0.017829,0.575989,70.346,3.119,-7.971,b6 00 00 00 00 00 00 20 21 f9 fe f0 ff ac 14 07 1e a8
0.219,fused,,50,0x07,"IMU0_OK, IMU1_OK, FUSION_READY",0.382400,0.010100,-0.001300,-0.923900,-135.023,-135.023,1.012,0.580,,,,,,,,,,,,,0,,,Not running,,,,,,,,,,,0.997100,0.031500,0.037000,-0.058000,0.435178,0.032287,-0.043965,-0.898690,-128.263,1.133,6.151,b6 00 00 00 00 00 00 f0 0e 65 00 f3 ff e9 db 07 32 90
0.219,fused,,0,0x07,"IMU0_OK, IMU1_OK, FUSION_READY",0.997100,0.031500,0.037000,-0.058000,-6.527,-6.527,4.441,3.365,,,,,,,,,,,,,0,,,Not running,,,,,,,,,,,0.997100,0.031500,0.037000,-0.058000,1.000000,0.000000,0.000000,0.000000,0.000,0.000,0.000,b6 00 00 00 00 00 00 f3 26 3b 01 72 01 bc fd 07 00 da
0.220,fused,,40,0x07,"IMU0_OK, IMU1_OK, FUSION_READY",0.981800,0.036500,0.015300,-0.185600,-21.326,-21.326,2.498,3.787,,,,,,,,,,,,,0,,,Not running,,,,,,,,,,,0.997100,0.031500,0.037000,-0.058000,0.991494,0.011448,-0.024802,-0.127257,-14.666,-2.652,1.664,b6 00 00 00 00 00 00 5a 26 6d 01 99 00 c0 f8 07 28 9e
0.220,fused,,30,0x07,"IMU0_OK, IMU1_OK, FUSION_READY",0.848000,-0.026200,-0.001600,0.529300,63.907,63.907,1.434,-2.645,,,,,,,,,,,,,0,,,Not running,,,,,,,,,,,0.997100,0.031500,0.037000,-0.058000,0.814004,-0.072331,-0.017819,0.576063,70.357,3.114,-7.961,b6 00 00 00 00 00 00 20 21 fa fe f0 ff ad 14 07 1e aa
0.221,fused,,50,0x07,"IMU0_OK, IMU1_OK, FUSION_READY",0.382400,0.010100,-0.001300,-0.923900,-135.023,-135.023,1.012,0.580,,,,,,,,,,,,,0,,,Not running,,,,,,,,,,,0.997100,0.031500,0.037000,-0.058000,0.435178,0.032287,-0.043965,-0.898690,-128.263,1.133,6.151,b6 00 00 00 00 00 00 f0 0e 65 00 f3 ff e9 db 07 32 90
0.221,fused,,0,0x07,"IMU0_OK, IMU1_OK, FUSION_READY",0.997100,0.031500,0.037000,-0.058000,-6.527,-6.527,4.441,3.365,,,,,,,,,,,,,0,,,Not running,,,,,,,,,,,0.997100,0.031500,0.037000,-0.058000,1.000000,0.000000,0.000000,0.000000,0.000,0.000,0.000,b6 00 00 00 00 00 00 f3 26 3b 01 72 01 bc fd 07 00 da
0.222,fused,,40,0x07,"IMU0_OK, IMU1_OK, FUSION_READY",0.981800,0.036500,0.015300,-0.185600,-21.326,-21.326,2.498,3.787,,,,,,,,,,,,,0,,,Not running,,,,,,,,,,,0.997100,0.031500,0.037000,-0.058000,0.991494,0.011448,-0.024802,-0.127257,-14.666,-2.652,1.664,b6 00 00 00 00 00 00 5a 26 6d 01 99 00 c0 f8 07 28 9e
0.222,fused,,30,0x07,"IMU0_OK, IMU1_OK, FUSION_READY",0.848000,-0.026200,-0.001600,0.529300,63.907,63.907,1.434,-2.645,,,,,,,,,,,,,0,,,Not running,,,,,,,,,,,0.997100,0.031500,0.037000,-0.058000,0.814004,-0.072331,-0.017819,0.576063,70.357,3.114,-7.961,b6 00 00 00 00 00 00 20 21 fa fe f0 ff ad 14 07 1e aa
0.223,fused,,50,0x07,"IMU0_OK, IMU1_OK, FUSION_READY",0.382400,0.010100,-0.001300,-0.923900,-135.023,-135.023,1.012,0.580,,,,,,,,,,,,,0,,,Not running,,,,,,,,,,,0.997100,0.031500,0.037000,-0.058000,0.435178,0.032287,-0.043965,-0.898690,-128.263,1.133,6.151,b6 00 00 00 00 00 00 f0 0e 65 00 f3 ff e9 db 07 32 90
0.223,fused,,0,0x07,"IMU0_OK, IMU1_OK, FUSION_READY",0.997100,0.031500,0.037000,-0.058000,-6.527,-6.527,4.441,3.365,,,,,,,,,,,,,0,,,Not running,,,,,,,,,,,0.997100,0.031500,0.037000,-0.058000,1.000000,0.000000,0.000000,0.000000,0.000,0.000,0.000,b6 00 00 00 00 00 00 f3 26 3b 01 72 01 bc fd 07 00 da
0.224,fused,,40,0x07,"IMU0_OK, IMU1_OK, FUSION_READY",0.981800,0.036500,0.015300,-0.185600,-21.326,-21.326,2.498,3.787,,,,,,,,,,,,,0,,,Not running,,,,,,,,,,,0.997100,0.031500,0.037000,-0.058000,0.991494,0.011448,-0.024802,-0.127257,-14.666,-2.652,1.664,b6 00 00 00 00 00 00 5a 26 6d 01 99 00 c0 f8 07 28 9e
0.224,fused,,30,0x07,"IMU0_OK, IMU1_OK, FUSION_READY",0.847900,-0.026200,-0.001600,0.529300,63.904,63.904,1.434,-2.644,,,,,,,,,,,,,0,,,Not running,,,,,,,,,,,0.997100,0.031500,0.037000,-0.058000,0.813973,-0.072334,-0.017817,0.576106,70.363,3.115,-7.960,b6 00 00 00 00 00 00 1f 21 fa fe f0 ff ad 14 07 1e 95
0.225,fused,,50,0x07,"IMU0_OK, IMU1_OK, FUSION_READY",0.382300,0.010100,-0.001300,-0.923900,-135.030,-135.030,1.012,0.580,,,,,,,,,,,,,0,,,Not running,,,,,,,,,,,0.997100,0.031500,0.037000,-0.058000,0.435095,0.032291,-0.043963,-0.898731,-128.274,1.134,6.151,b6 00 00 00 00 00 00 ef 0e 65 00 f3 ff e9 db 07 32 8f
0.225,fused,,0,0x07,"IMU0_OK, IMU1_OK, FUSION_READY",0.997100,0.031500,0.037000,-0.058100,-6.539,-6.539,4.442,3.365,,,,,,,,,,,,,0,,,Not running,,,,,,,,,,,0.997100,0.031500,0.037000,-0.058100,1.000000,0.000000,-0.000000,0.000000,0.000,-0.000,0.000,b6 00 00 00 00 00 00 f3 26 3b 01 72 01 bb fd 07 00 dd
0.226,fused,,40,0x07,"IMU0_OK, IMU1_OK, FUSION_READY",0.981800,0.036500,0.015300,-0.185600,-21.326,-21.326,2.498,3.787,,,,,,,,,,,,,0,,,Not running,,,,,,,,,,,0.997100,0.031500,0.037000,-0.058100,0.991506,0.011446,-0.024798,-0.127158,-14.655,-2.652,1.664,b6 00 00 00 00 00 00 5a 26 6d 01 99 00 c0 f8 07 28 9e
0.226,fused,,30,0x07,"IMU0_OK, IMU1_OK, FUSION_READY",0.847900,-0.026200,-0.001600,0.529300,63.904,63.904,1.434,-2.644,,,,,,,,,,,,,0,,,Not running,,,,,,,,,,,0.997100,0.031500,0.037000,-0.058100,0.813915,-0.072334,-0.017819,0.576188,70.374,3.115,-7.960,b6 00 00 00 00 00 00 1f 21 fa fe f0 ff ad 14 07 1e 95
0.226,fused,,50,0x07,"IMU0_OK, IMU1_OK, FUSION_READY",0.382300,0.010100,-0.001300,-0.923900,-135.030,-135.030,1.012,0.580,,,,,,,,,,,,,0,,,Not running,,,,,,,,,,,0.997100,0.031500,0.037000,-0.058100,0.435185,0.032291,-0.043962,-0.898687,-128.262,1.133,6.151,b6 00 00 00 00 00 00 ef 0e 65 00 f3 ff e9 db 07 32 8f
0.227,fused,,0,0x07,"IMU0_OK, IMU1_OK, FUSION_READY",0.997100,0.031500,0.036900,-0.058100,-6.539,-6.539,4.430,3.365,,,,,,,,,,,,,0,,,Not running,,,,,,,,,,,0.997100,0.031500,0.036900,-0.058100,1.000000,0.000000,0.000000,0.000000,0.000,0.000,0.000,b6 00 00 00 00 00 00 f3 26 3b 01 71 01 bb fd 07 00 de
0.227,fused,,40,0x07,"IMU0_OK, IMU1_OK, FUSION_READY",0.981800,0.036500,0.015300,-0.185600,-21.326,-21.326,2.498,3.787,,,,,,,,,,,,,0,,,Not running,,,,,,,,,,,0.997100,0.031500,0.036900,-0.058100,0.991509,0.011428,-0.024700,-0.127162,-14.655,-2.641,1.660,b6 00 00 00 00 00 00 5a 26 6d 01 99 00 c0 f8 07 28 9e
0.228,fused,,30,0x07,"IMU0_OK, IMU1_OK, FUSION_READY",0.847900,-0.026200,-0.001600,0.529300,63.904,63.904,1.434,-2.644,,,,,,,,,,,,,0,,,Not running,,,,,,,,,,,0.997100,0.031500,0.036900,-0.058100,0.813918,-0.072281,-0.017735,0.576192,70.374,3.120,-7.950,b6 00 00 00 00 00 00 1f 21 fa fe f0 ff ad 14 07 1e 95
0.228,fused,,50,0x07,"IMU0_OK, IMU1_OK, FUSION_READY",0.382300,0.010100,-0.001300,-0.923900,-135.030,-135.030,1.012,0.580,,,,,,,,,,,,,0,,,Not running,,,,,,,,,,,0.997100,0.031500,0.036900,-0.058100,0.435187,0.032199,-0.043924,-0.898692,-128.263,1.126,6.142,b6 00 00 00 00 00 00 ef 0e 65 00 f3 ff e9 db 07 32 8f
0.229,fused,,0,0x07,"IMU0_OK, IMU1_OK, FUSION_READY",0.997100,0.031500,0.036900,-0.058100,-6.539,-6.539,4.430,3.365,,,,,,,,,,,,,0,,,Not running,,,,,,,,,,,0.997100,0.031500,0.036900,-0.058100,1.000000,0.000000,0.000000,0.000000,0.000,0.000,0.000,b6 00 00 00 00 00 00 f3 26 3b 01 71 01 bb fd 07 00 de
0.229,fused,,40,0x07,"IMU0_OK, IMU1_OK, FUSION_READY",0.981800,0.036500,0.015300,-0.185500,-21.314,-21.314,2.498,3.788,,,,,,,,,,,,,0,,,Not running,,,,,,,,,,,0.997100,0.031500,0.036900,-0.058100,0.991521,0.011424,-0.024697,-0.127064,-14.644,-2.641,1.660,b6 00 00 00 00 00 00 5a 26 6d 01 99 00 c1 f8 07 28 9f
0.230,fused,,30,0x07,"IMU0_OK, IMU1_OK, FUSION_READY",0.847900,-0.026200,-0.001600,0.529400,63.920,63.920,1.434,-2.644,,,,,,,,,,,,,0,,,Not running,,,,,,,,,,,0.997100,0.031500,0.036900,-0.058100,0.813870,-0.072281,-0.017731,0.576262,70.384,3.121,-7.949,b6 00 00 00 00 00 00 1f 21 fa fe f0 ff ae 14 07 1e 96
0.230,fused,,50,0x07,"IMU0_OK, IMU1_OK, FUSION_READY",0.382300,0.010100,-0.001300,-0.923900,-135.030,-135.030,1.012,0.580,,,,,,,,,,,,,0,,,Not running,,,,,,,,,,,0.997100,0.031500,0.036900,-0.058100,0.435187,0.032199,-0.043924,-0.898692,-128.263,1.126,6.142,b6 00 00 00 00 00 00 ef 0e 65 00 f3 ff e9 db 07 32 8f
0.231,fused,,0,0x07,"IMU0_OK, IMU1_OK, FUSION_READY",0.997100,0.031500,0.036900,-0.058100,-6.539,-6.539,4.430,3.365,,,,,,,,,,,,,0,,,Not running,,,,,,,,,,,0.997100,0.031500,0.036900,-0.058100,1.000000,0.000000,0.000000,0.000000,0.000,0.000,0.000,b6 00 00 00 00 00 00 f3 26 3b 01 71 01 bb fd 07 00 de
0.232,fused,,40,0x07,"IMU0_OK, IMU1_OK, FUSION_READY",0.981800,0.036500,0.015300,-0.185500,-21.314,-21.314,2.498,3.788,,,,,,,,,,,,,0,,,Not running,,,,,,,,,,,0.997100,0.031500,0.036900,-0.058100,0.991521,0.011424,-0.024697,-0.127064,-14.644,-2.641,1.660,b6 00 00 00 00 00 00 5a 26 6d 01 99 00 c1 f8 07 28 9f
0.233,fused,,30,0x07,"IMU0_OK, IMU1_OK, FUSION_READY",0.847900,-0.026200,-0.001600,0.529400,63.920,63.920,1.434,-2.644,,,,,,,,,,,,,0,,,Not running,,,,,,,,,,,0.997100,0.031500,0.036900,-0.058100,0.813870,-0.072281,-0.017731,0.576262,70.384,3.121,-7.949,b6 00 00 00 00 00 00 1f 21 fa fe f0 ff ae 14 07 1e 96
0.234,fused,,50,0x07,"IMU0_OK, IMU1_OK, FUSION_READY",0.382200,0.010100,-0.001300,-0.924000,-135.050,-135.050,1.013,0.580,,,,,,,,,,,,,0,,,Not running,,,,,,,,,,,0.997100,0.031500,0.036900,-0.058100,0.435069,0.032204,-0.043921,-0.898748,-128.278,1.127,6.142,b6 00 00 00 00 00 00 ee 0e 65 00 f3 ff e8 db 07 32 8f
0.235,fused,,0,0x07,"IMU0_OK, IMU1_OK, FUSION_READY",0.997100,0.031500,0.036900,-0.058100,-6.539,-6.539,4.430,3.365,,,,,,,,,,,,,0,,,Not running,,,,,,,,,,,0.997100,0.031500,0.036900,-0.058100,1.000000,0.000000,0.000000,0.000000,0.000,0.000,0.000,b6 00 00 00 00 00 00 f3 26 3b 01 71 01 bb fd 07 00 de
0.235,fused,,40,0x07,"IMU0_OK, IMU1_OK, FUSION_READY",0.981800,0.036500,0.015300,-0.185500,-21.314,-21.314,2.498,3.788,,,,,,,,,,,,,0,,,Not running,,,,,,,,,,,0.997100,0.031500,0.036900,-0.058100,0.991521,0.011424,-0.024697,-0.127064,-14.644,-2.641,1.660,b6 00 00 00 00 00 00 5a 26 6d 01 99 00 c1 f8 07 28 9f
0.236,fused,,30,0x07,"IMU0_OK, IMU1_OK, FUSION_READY",0.847900,-0.026200,-0.001600,0.529400,63.920,63.920,1.434,-2.644,,,,,,,,,,,,,0,,,Not running,,,,,,,,,,,0.997100,0.031500,0.036900,-0.058100,0.813870,-0.072281,-0.017731,0.576262,70.384,3.121,-7.949,b6 00 00 00 00 00 00 1f 21 fa fe f0 ff ae 14 07 1e 96
0.237,fused,,50,0x07,"IMU0_OK, IMU1_OK, FUSION_READY",0.382200,0.010100,-0.001300,-0.924000,-135.050,-135.050,1.013,0.580,,,,,,,,,,,,,0,,,Not running,,,,,,,,,,,0.997100,0.031500,0.036900,-0.058100,0.435069,0.032204,-0.043921,-0.898748,-128.278,1.127,6.142,b6 00 00 00 00 00 00 ee 0e 65 00 f3 ff e8 db 07 32 8f
0.237,fused,,0,0x07,"IMU0_OK, IMU1_OK, FUSION_READY",0.997100,0.031500,0.036900,-0.058200,-6.550,-6.550,4.431,3.365,,,,,,,,,,,,,0,,,Not running,,,,,,,,,,,0.997100,0.031500,0.036900,-0.058200,1.000000,0.000000,-0.000000,0.000000,0.000,-0.000,0.000,b6 00 00 00 00 00 00 f3 26 3b 01 71 01 ba fd 07 00 df
0.297,fused,,40,0x07,"IMU0_OK, IMU1_OK, FUSION_READY",0.981800,0.036500,0.015300,-0.185500,-21.314,-21.314,2.498,3.788,,,,,,,,,,,,,0,,,Not running,,,,,,,,,,,0.997100,0.031500,0.036900,-0.058200,0.991534,0.011423,-0.024694,-0.126965,-14.632,-2.640,1.659,b6 00 00 00 00 00 00 5a 26 6d 01 99 00 c1 f8 07 28 9f
0.299,fused,,30,0x07,"IMU0_OK, IMU1_OK, FUSION_READY",0.847900,-0.026200,-0.001600,0.529400,63.920,63.920,1.434,-2.644,,,,,,,,,,,,,0,,,Not running,,,,,,,,,,,0.997100,0.031500,0.036900,-0.058200,0.813812,-0.072280,-0.017733,0.576343,70.395,3.122,-7.949,b6 00 00 00 00 00 00 1f 21 fa fe f0 ff ae 14 07 1e 96
0.300,fused,,50,0x07,"IMU0_OK, IMU1_OK, FUSION_READY",0.382200,0.010100,-0.001300,-0.924000,-135.050,-135.050,1.013,0.580,,,,,,,,,,,,,0,,,Not running,,,,,,,,,,,0.997100,0.031500,0.036900,-0.058200,0.435159,0.032204,-0.043920,-0.898705,-128.266,1.127,6.142,b6 00 00 00 00 00 00 ee 0e 65 00 f3 ff e8 db 07 32 8f
0.301,fused,,0,0x07,"IMU0_OK, IMU1_OK, FUSION_READY",0.997100,0.031600,0.036900,-0.058200,-6.550,-6.550,4.431,3.377,,,,,,,,,,,,,0,,,Not running,,,,,,,,,,,0.997100,0.031600,0.036900,-0.058200,1.000000,0.000000,0.000000,0.000000,0.000,0.000,0.000,b6 00 00 00 00 00 00 f3 26 3c 01 71 01 ba fd 07 00 d8
0.303,fused,,40,0x07,"IMU0_OK, IMU1_OK, FUSION_READY",0.981800,0.036500,0.015300,-0.185400,-21.302,-21.302,2.498,3.788,,,,,,,,,,,,,0,,,Not running,,,,,,,,,,,0.997100,0.031600,0.036900,-0.058200,0.991547,0.011321,-0.024709,-0.126869,-14.621,-2.644,1.648,b6 00 00 00 00 00 00 5a 26 6d 01 99 00 c2 f8 07 28 9c
0.304,fused,,30,0x07,"IMU0_OK, IMU1_OK, FUSION_READY",0.847900,-0.026200,-0.001600,0.529400,63.920,63.920,1.434,-2.644,,,,,,,,,,,,,0,,,Not running,,,,,,,,,,,0.997100,0.031600,0.036900,-0.058200,0.813807,-0.072365,-0.017680,0.576341,70.395,3.132,-7.953,b6 00 00 00 00 00 00 1f 21 fa fe f0 ff ae 14 07 1e 96
0.305,fused,,50,0x07,"IMU0_OK, IMU1_OK, FUSION_READY",0.382100,0.010100,-0.001300,-0.924000,-135.057,-135.057,1.013,0.580,,,,,,,,,,,,,0,,,Not running,,,,,,,,,,,0.997100,0.031600,0.036900,-0.058200,0.435076,0.032170,-0.044010,-0.898742,-128.277,1.119,6.149,b6 00 00 00 00 00 00 ed 0e 65 00 f3 ff e8 db 07 32 8c
0.306,fused,,0,0x07,"IMU0_OK, IMU1_OK, FUSION_READY",0.997100,0.031600,0.036900,-0.058200,-6.550,-6.550,4.431,3.377,,,,,,,,,,,,,0,,,Not running,,,,,,,,,,,0.997100,0.031600,0.036900,-0.058200,1.000000,0.000000,0.000000,0.000000,0.000,0.000,0.000,b6 00 00 00 00 00 00 f3 26 3c 01 71 01 ba fd 07 00 d8
0.307,fused,,40,0x07,"IMU0_OK, IMU1_OK, FUSION_READY",0.981800,0.036500,0.015300,-0.185400,-21.302,-21.302,2.498,3.788,,,,,,,,,,,,,0,,,Not running,,,,,,,,,,,0.997100,0.031600,0.036900,-0.058200,0.991547,0.011321,-0.024709,-0.126869,-14.621,-2.644,1.648,b6 00 00 00 00 00 00 5a 26 6d 01 99 00 c2 f8 07 28 9c
0.308,fused,,30,0x07,"IMU0_OK, IMU1_OK, FUSION_READY",0.847800,-0.026200,-0.001600,0.529500,63.932,63.932,1.434,-2.644,,,,,,,,,,,,,0,,,Not running,,,,,,,,,,,0.997100,0.031600,0.036900,-0.058200,0.813727,-0.072368,-0.017674,0.576454,70.410,3.134,-7.953,b6 00 00 00 00 00 00 1e 21 fa fe f0 ff af 14 07 1e 96
0.309,fused,,50,0x07,"IMU0_OK, IMU1_OK, FUSION_READY",0.382100,0.010100,-0.001300,-0.924000,-135.057,-135.057,1.013,0.580,,,,,,,,,,,,,0,,,Not running,,,,,,,,,,,0.997100,0.031600,0.036900,-0.058200,0.435076,0.032170,-0.044010,-0.898742,-128.277,1.119,6.149,b6 00 00 00 00 00 00 ed 0e 65 00 f3 ff e8 db 07 32 8c
0.310,fused,,0,0x07,"IMU0_OK, IMU1_OK, FUSION_READY",0.997100,0.031600,0.037000,-0.058200,-6.550,-6.550,4.443,3.376,,,,,,,,,,,,,0,,,Not running,,,,,,,,,,,0.997100,0.031600,0.037000,-0.058200,1.000000,0.000000,-0.000000,0.000000,0.000,-0.000,0.000,b6 00 00 00 00 00 00 f3 26 3c 01 72 01 ba fd 07 00 db
0.311,fused,,40,0x07,"IMU0_OK, IMU1_OK, FUSION_READY",0.981800,0.036500,0.015300,-0.185400,-21.302,-21.302,2.498,3.788,,,,,,,,,,,,,0,,,Not running,,,,,,,,,,,0.997100,0.031600,0.037000,-0.058200,0.991545,0.011340,-0.024807,-0.126865,-14.621,-2.655,1.651,b6 00 00 00 00 00 00 5a 26 6d 01 99 00 c2 f8 07 28 9c
0.312,fused,,30,0x07,"IMU0_OK, IMU1_OK, FUSION_READY",0.847800,-0.026200,-0.001600,0.529500,63.932,63.932,1.434,-2.644,,,,,,,,,,,,,0,,,Not running,,,,,,,,,,,0.997100,0.031600,0.037000,-0.058200,0.813724,-0.072421,-0.017758,0.576449,70.410,3.129,-7.963,b6 00 00 00 00 00 00 1e 21 fa fe f0 ff af 14 07 1e 96
0.314,fused,,50,0x07,"IMU0_OK, IMU1_OK, FUSION_READY",0.382000,0.010200,-0.001300,-0.924000,-135.065,-135.065,1.023,0.584,,,,,,,,,,,,,0,,,Not running,,,,,,,,,,,0.997100,0.031600,0.037000,-0.058200,0.434993,0.032367,-0.044040,-0.898773,-128.286,1.138,6.162,b6 00 00 00 00 00 00 ec 0e 66 00 f3 ff e8 db 07 32 8e
0.315,fused,,0,0x07,"IMU0_OK, IMU1_OK, FUSION_READY",0.997100,0.031500,0.036900,-0.058200,-6.550,-6.550,4.431,3.365,,,,,,,,,,,,,0,,,Not running,,,,,,,,,,,0.997100,0.031500,0.036900,-0.058200,1.000000,0.000000,-0.000000,0.000000,0.000,-0.000,0.000,b6 00 00 00 00 00 00 f3 26 3b 01 71 01 ba fd 07 00 df
0.316,fused,,40,0x07,"IMU0_OK, IMU1_OK, FUSION_READY",0.981800,0.036500,0.015300,-0.185400,-21.302,-21.302,2.498,3.788,,,,,,,,,,,,,0,,,Not running,,,,,,,,,,,0.997100,0.031500,0.036900,-0.058200,0.991546,0.011419,-0.024691,-0.126868,-14.621,-2.640,1.658,b6 00 00 00 00 00 00 5a 26 6d 01 99 00 c2 f8 07 28 9c
0.317,fused,,30,0x07,"IMU0_OK, IMU1_OK, FUSION_READY",0.847800,-0.026200,-0.001600,0.529500,63.932,63.932,1.434,-2.644,,,,,,,,,,,,,0,,,Not running,,,,,,,,,,,0.997100,0.031500,0.036900,-0.058200,0.813732,-0.072283,-0.017727,0.576455,70.411,3.123,-7.948,b6 00 00 00 00 00 00 1e 21 fa fe f0 ff af 14 07 1e 96
0.318,fused,,50,0x07,"IMU0_OK, IMU1_OK, FUSION_READY",0.382000,0.010100,-0.001300,-0.924000,-135.065,-135.065,1.013,0.580,,,,,,,,,,,,,0,,,Not running,,,,,,,,,,,0.997100,0.031500,0.036900,-0.058200,0.434993,0.032213,-0.043916,-0.898785,-128.287,1.129,6.142,b6 00 00 00 00 00 00 ec 0e 65 00 f3 ff e8 db 07 32 8d
0.318,fused,,0,0x07,"IMU0_OK, IMU1_OK, FUSION_READY",0.997100,0.031500,0.036900,-0.058300,-6.562,-6.562,4.431,3.365,,,,,,,,,,,,,0,,,Not running,,,,,,,,,,,0.997100,0.031500,0.036900,-0.058300,1.000000,0.000000,-0.000000,0.000000,0.000,-0.000,0.000,b6 00 00 00 00 00 00 f3 26 3b 01 71 01 b9 fd 07 00 dc
0.319,fused,,40,0x07,"IMU0_OK, IMU1_OK, FUSION_READY",0.981800,0.036500,0.015300,-0.185400,-21.302,-21.302,2.498,3.788,,,,,,,,,,,,,0,,,Not running,,,,,,,,,,,0.997100,0.031500,0.036900,-0.058300,0.991559,0.011418,-0.024687,-0.126769,-14.609,-2.640,1.658,b6 00 00 00 00 00 00 5a 26 6d 01 99 00 c2 f8 07 28 9c
0.319,fused,,30,0x07,"IMU0_OK, IMU1_OK, FUSION_READY",0.847800,-0.026200,-0.001600,0.529500,63.932,63.932,1.434,-2.644,,,,,,,,,,,,,0,,,Not running,,,,,,,,,,,0.997100,0.031500,0.036900,-0.058300,0.813675,-0.072283,-0.017729,0.576537,70.423,3.124,-7.948,b6 00 00 00 00 00 00 1e 21 fa fe f0 ff af 14 07 1e 96
0.320,fused,,50,0x07,"IMU0_OK, IMU1_OK, FUSION_READY",0.382000,0.010100,-0.001300,-0.924000,-135.065,-135.065,1.013,0.580,,,,,,,,,,,,,0,,,Not running,,,,,,,,,,,0.997100,0.031500,0.036900,-0.058300,0.435083,0.032213,-0.043914,-0.898742,-128.276,1.128,6.142,b6 00 00 00 00 00 00 ec 0e 65 00 f3 ff e8 db 07 32 8d
0.320,fused,,0,0x07,"IMU0_OK, IMU1_OK, FUSION_READY",0.997100,0.031500,0.036900,-0.058300,-6.562,-6.562,4.431,3.365,,,,,,,,,,,,,0,,,Not running,,,,,,,,,,,0.997100,0.031500,0.036900,-0.058300,1.000000,0.000000,-0.000000,0.000000,0.000,-0.000,0.000,b6 00 00 00 00 00 00 f3 26 3b 01 71 01 b9 fd 07 00 dc
0.321,fused,,40,0x07,"IMU0_OK, IMU1_OK, FUSION_READY",0.981800,0.036500,0.015300,-0.185300,-21.290,-21.290,2.497,3.788,,,,,,,,,,,,,0,,,Not running,,,,,,,,,,,0.997100,0.031500,0.036900,-0.058300,0.991572,0.011414,-0.024684,-0.126672,-14.598,-2.640,1.657,b6 00 00 00 00 00 00 5a 26 6d 01 99 00 c3 f8 07 28 9d
0.321,fused,,30,0x07,"IMU0_OK, IMU1_OK, FUSION_READY",0.847800,-0.026200,-0.001600,0.529500,63.932,63.932,1.434,-2.644,,,,,,,,,,,,,0,,,Not running,,,,,,,,,,,0.997100,0.031500,0.036900,-0.058300,0.813675,-0.072283,-0.017729,0.576537,70.423,3.124,-7.948,b6 00 00 00 00 00 00 1e 21 fa fe f0 ff af 14 07 1e 96
0.322,fused,,50,0x07,"IMU0_OK, IMU1_OK, FUSION_READY",0.381900,0.010100,-0.001300,-0.924100,-135.084,-135.084,1.013,0.580,,,,,,,,,,,,,0,,,Not running,,,,,,,,,,,0.997100,0.031500,0.036900,-0.058300,0.434965,0.032218,-0.043911,-0.898799,-128.291,1.130,6.141,b6 00 00 00 00 00 00 eb 0e 65 00 f3 ff e7 db 07 32 85
0.322,fused,,0,0x07,"IMU0_OK, IMU1_OK, FUSION_READY",0.997100,0.031500,0.036900,-0.058300,-6.562,-6.562,4.431,3.365,,,,,,,,,,,,,0,,,Not running,,,,,,,,,,,0.997100,0.031500,0.036900,-0.058300,1.000000,0.000000,-0.000000,0.000000,0.000,-0.000,0.000,b6 00 00 00 00 00 00 f3 26 3b 01 71 01 b9 fd 07 00 dc
0.323,fused,,40,0x07,"IMU0_OK, IMU1_OK, FUSION_READY",0.981800,0.036600,0.015300,-0.185300,-21.290,-21.290,2.499,3.799,,,,,,,,,,,,,0,,,Not running,,,,,,,,,,,0.997100,0.031500,0.036900,-0.058300,0.991571,0.011514,-0.024678,-0.126668,-14.598,-2.638,1.668,b6 00 00 00 00 00 00 5a 26 6e 01 99 00 c3 f8 07 28 9e
0.323,fused,,30,0x07,"IMU0_OK, IMU1_OK, FUSION_READY",0.847800,-0.026200,-0.001600,0.529600,63.947,63.947,1.435,-2.644,,,,,,,,,,,,,0,,,Not running,,,,,,,,,,,0.997100,0.031500,0.036900,-0.058300,0.813626,-0.072283,-0.017725,0.576606,70.432,3.125,-7.948,b6 00 00 00 00 00 00 1e 21 fa fe f0 ff b0 14 07 1e 89
0.324,fused,,50,0x07,"IMU0_OK, IMU1_OK, FUSION_READY",0.381900,0.010100,-0.001300,-0.924100,-135.084,-135.084,1.013,0.580,,,,,,,,,,,,,0,,,Not running,,,,,,,,,,,0.997100,0.031500,0.036900,-0.058300,0.434965,0.032218,-0.043911,-0.898799,-128.291,1.130,6.141,b6 00 00 00 00 00 00 eb 0e 65 00 f3 ff e7 db 07 32 85
0.324,fused,,0,0x07,"IMU0_OK, IMU1_OK, FUSION_READY",0.997100,0.031500,0.037000,-0.058300,-6.562,-6.562,4.442,3.364,,,,,,,,,,,,,0,,,Not running,,,,,,,,,,,0.997100,0.031500,0.037000,-0.058300,1.000000,0.000000,0.000000,0.000000,0.000,0.000,0.000,b6 00 00 00 00 00 00 f3 26 3b 01 72 01 b9 fd 07 00 df
0.325,fused,,40,0x07,"IMU0_OK, IMU1_OK, FUSION_READY",0.981800,0.036600,0.015300,-0.185300,-21.290,-21.290,2.499,3.799,,,,,,,,,,,,,0,,,Not running,,,,,,,,,,,0.997100,0.031500,0.037000,-0.058300,0.991569,0.011532,-0.024776,-0.126664,-14.598,-2.649,1.672,b6 00 00 00 00 00 00 5a 26 6e 01 99 00 c3 f8 07 28 9e
0.325,fused,,30,0x07,"IMU0_OK, IMU1_OK, FUSION_READY",0.847800,-0.026200,-0.001600,0.529600,63.947,63.947,1.435,-2.644,,,,,,,,,,,,,0,,,Not running,,,,,,,,,,,0.997100,0.031500,0.037000,-0.058300,0.813622,-0.072335,-0.017810,0.576601,70.432,3.121,-7.958,b6 00 00 00 00 00 00 1e 21 fa fe f0 ff b0 14 07 1e 89
0.326,fused,,50,0x07,"IMU0_OK, IMU1_OK, FUSION_READY",0.381900,0.010100,-0.001300,-0.924100,-135.084,-135.084,1.013,0.580,,,,,,,,,,,,,0,,,Not running,,,,,,,,,,,0.997100,0.031500,0.037000,-0.058300,0.434964,0.032310,-0.043949,-0.898794,-128.290,1.137,6.150,b6 00 00 00 00 00 00 eb 0e 65 00 f3 ff e7 db 07 32 85
0.326,fused,,0,0x07,"IMU0_OK, IMU1_OK, FUSION_READY",0.997100,0.031500,0.037000,-0.058400,-6.573,-6.573,4.443,3.364,,,,,,,,,,,,,0,,,Not running,,,,,,,,,,,0.997100,0.031500,0.037000,-0.058400,1.000000,0.000000,-0.000000,0.000000,0.000,-0.000,0.000,b6 00 00 00 00 00 00 f3 26 3b 01 72 01 b8 fd 07 00 de
0.326,fused,,40,0x07,"IMU0_OK, IMU1_OK, FUSION_READY",0.981800,0.036600,0.015300,-0.185300,-21.290,-21.290,2.499,3.799,,,,,,,,,,,,,0,,,Not running,,,,,,,,,,,0.997100,0.031500,0.037000,-0.058400,0.991582,0.011531,-0.024773,-0.126565,-14.586,-2.649,1.672,b6 00 00 00 00 00 00 5a 26 6e 01 99 00 c3 f8 07 28 9e
0.328,fused,,30,0x07,"IMU0_OK, IMU1_OK, FUSION_READY",0.847800,-0.026200,-0.001600,0.529600,63.947,63.947,1.435,-2.644,,,,,,,,,,,,,0,,,Not running,,,,,,,,,,,0.997100,0.031500,0.037000,-0.058400,0.813565,-0.072335,-0.017812,0.576683,70.443,3.121,-7.958,b6 00 00 00 00 00 00 1e 21 fa fe f0 ff b0 14 07 1e 89
0.329,fused,,50,0x07,"IMU0_OK, IMU1_OK, FUSION_READY",0.381900,0.010100,-0.001300,-0.924100,-135.084,-135.084,1.013,0.580,,,,,,,,,,,,,0,,,Not running,,,,,,,,,,,0.997100,0.031500,0.037000,-0.058400,0.435053,0.032310,-0.043948,-0.898751,-128.279,1.137,6.150,b6 00 00 00 00 00 00 eb 0e 65 00 f3 ff e7 db 07 32 85
0.330,fused,,0,0x07,"IMU0_OK, IMU1_OK, FUSION_READY",0.997100,0.031500,0.037000,-0.058400,-6.573,-6.573,4.443,3.364,,,,,,,,,,,,,0,,,Not running,,,,,,,,,,,0.997100,0.031500,0.037000,-0.058400,1.000000,0.000000,-0.000000,0.000000,0.000,-0.000,0.000,b6 00 00 00 00 00 00 f3 26 3b 01 72 01 b8 fd 07 00 de
0.331,fused,,40,0x07,"IMU0_OK, IMU1_OK, FUSION_READY",0.981800,0.036600,0.015300,-0.185200,-21.278,-21.278,2.499,3.799,,,,,,,,,,,,,0,,,Not running,,,,,,,,,,,0.997100,0.031500,0.037000,-0.058400,0.991594,0.011527,-0.024770,-0.126467,-14.575,-2.648,1.671,b6 00 00 00 00 00 00 5a 26 6e 01 99 00 c4 f8 07 28 99
0.332,fused,,30,0x07,"IMU0_OK, IMU1_OK, FUSION_READY",0.847800,-0.026200,-0.001600,0.529600,63.947,63.947,1.435,-2.644,,,,,,,,,,,,,0,,,Not running,,,,,,,,,,,0.997100,0.031500,0.037000,-0.058400,0.813565,-0.072335,-0.017812,0.576683,70.443,3.121,-7.958,b6 00 00 00 00 00 00 1e 21 fa fe f0 ff b0 14 07 1e 89
0.390,fused,,50,0x07,"IMU0_OK, IMU1_OK, FUSION_READY",0.381800,0.010100,-0.001300,-0.924100,-135.091,-135.091,1.013,0.580,,,,,,,,,,,,,0,,,Not running,,,,,,,,,,,0.997100,0.031500,0.037000,-0.058400,0.434970,0.032315,-0.043946,-0.898791,-128.290,1.138,6.150,b6 00 00 00 00 00 00 ea 0e 65 00 f3 ff e7 db 07 32 84
0.391,fused,,0,0x07,"IMU0_OK, IMU1_OK, FUSION_READY",0.997100,0.031600,0.037000,-0.058400,-6.573,-6.573,4.444,3.375,,,,,,,,,,,,,0,,,Not running,,,,,,,,,,,0.997100,0.031600,0.037000,-0.058400,1.000000,0.000000,-0.000000,0.000000,0.000,-0.000,0.000,b6 00 00 00 00 00 00 f3 26 3c 01 72 01 b8 fd 07 00 d9
0.391,fused,,40,0x07,"IMU0_OK, IMU1_OK, FUSION_READY",0.981800,0.036600,0.015300,-0.185200,-21.278,-21.278,2.499,3.799,,,,,,,,,,,,,0,,,Not running,,,,,,,,,,,0.997100,0.031600,0.037000,-0.058400,0.991595,0.011429,-0.024788,-0.126468,-14.575,-2.652,1.660,b6 00 00 00 00 00 00 5a 26 6e 01 99 00 c4 f8 07 28 99
0.392,fused,,30,0x07,"IMU0_OK, IMU1_OK, FUSION_READY",0.847800,-0.026200,-0.001600,0.529600,63.947,63.947,1.435,-2.644,,,,,,,,,,,,,0,,,Not running,,,,,,,,,,,0.997100,0.031600,0.037000,-0.058400,0.813560,-0.072419,-0.017759,0.576681,70.443,3.132,-7.962,b6 00 00 00 00 00 00 1e 21 fa fe f0 ff b0 14 07 1e 89
0.392,fused,,50,0x07,"IMU0_OK, IMU1_OK, FUSION_READY",0.381800,0.010100,-0.001300,-0.924100,-135.091,-135.091,1.013,0.580,,,,,,,,,,,,,0,,,Not running,,,,,,,,,,,0.997100,0.031600,0.037000,-0.058400,0.434970,0.032276,-0.044038,-0.898788,-128.290,1.129,6.157,b6 00 00 00 00 00 00 ea 0e 65 00 f3 ff e7 db 07 32 84
0.393,fused,,0,0x07,"IMU0_OK, IMU1_OK, FUSION_READY",0.997100,0.031600,0.037000,-0.058400,-6.573,-6.573,4.444,3.375,,,,,,,,,,,,,0,,,Not running,,,,,,,,,,,0.997100,0.031600,0.037000,-0.058400,1.000000,0.000000,-0.000000,0.000000,0.000,-0.000,0.000,b6 00 00 00 00 00 00 f3 26 3c 01 72 01 b8 fd 07 00 d9
0.393,fused,,40,0x07,"IMU0_OK, IMU1_OK, FUSION_READY",0.981800,0.036600,0.015300,-0.185200,-21.278,-21.278,2.499,3.799,,,,,,,,,,,,,0,,,Not running,,,,,,,,,,,0.997100,0.031600,0.037000,-0.058400,0.991595,0.011429,-0.024788,-0.126468,-14.575,-2.652,1.660,b6 00 00 00 00 00 00 5a 26 6e 01 99 00 c4 f8 07 28 99
0.394,fused,,30,0x07,"IMU0_OK, IMU1_OK, FUSION_READY",0.847700,-0.026200,-0.001600,0.529700,63.960,63.960,1.435,-2.644,,,,,,,,,,,,,0,,,Not running,,,,,,,,,,,0.997100,0.031600,0.037000,-0.058400,0.813480,-0.072422,-0.017753,0.576793,70.459,3.133,-7.962,b6 00 00 00 00 00 00 1d 21 fa fe f0 ff b1 14 07 1e 8b
0.395,fused,,50,0x07,"IMU0_OK, IMU1_OK, FUSION_READY",0.381700,0.010100,-0.001300,-0.924200,-135.111,-135.111,1.013,0.580,,,,,,,,,,,,,0,,,Not running,,,,,,,,,,,0.997100,0.031600,0.037000,-0.058400,0.434852,0.032281,-0.044036,-0.898845,-128.305,1.131,6.157,b6 00 00 00 00 00 00 e9 0e 65 00 f3 ff e6 db 07 32 86
0.395,fused,,0,0x07,"IMU0_OK, IMU1_OK, FUSION_READY",0.997100,0.031500,0.037000,-0.058500,-6.585,-6.585,4.443,3.363,,,,,,,,,,,,,0,,,Not running,,,,,,,,,,,0.997100,0.031500,0.037000,-0.058500,1.000000,0.000000,-0.000000,0.000000,0.000,-0.000,0.000,b6 00 00 00 00 00 00 f3 26 3b 01 72 01 b7 fd 07 00 d1
0.396,fused,,40,0x07,"IMU0_OK, IMU1_OK, FUSION_READY",0.981800,0.036600,0.015300,-0.185200,-21.278,-21.278,2.499,3.799,,,,,,,,,,,,,0,,,Not running,,,,,,,,,,,0.997100,0.031500,0.037000,-0.058500,0.991607,0.011526,-0.024766,-0.126368,-14.564,-2.648,1.670,b6 00 00 00 00 00 00 5a 26 6e 01 99 00 c4 f8 07 28 99
0.396,fused,,30,0x07,"IMU0_OK, IMU1_OK, FUSION_READY",0.847700,-0.026200,-0.001600,0.529700,63.960,63.960,1.435,-2.644,,,,,,,,,,,,,0,,,Not running,,,,,,,,,,,0.997100,0.031500,0.037000,-0.058500,0.813427,-0.072337,-0.017809,0.576876,70.471,3.123,-7.957,b6 00 00 00 00 00 00 1d 21 fa fe f0 ff b1 14 07 1e 8b
0.397,fused,,50,0x07,"IMU0_OK, IMU1_OK, FUSION_READY",0.381700,0.010100,-0.001300,-0.924200,-135.111,-135.111,1.013,0.580,,,,,,,,,,,,,0,,,Not running,,,,,,,,,,,0.997100,0.031500,0.037000,-0.058500,0.434943,0.032320,-0.043942,-0.898804,-128.293,1.139,6.150,b6 00 00 00 00 00 00 e9 0e 65 00 f3 ff e6 db 07 32 86
0.398,fused,,0,0x07,"IMU0_OK, IMU1_OK, FUSION_READY",0.997000,0.031500,0.036900,-0.058500,-6.584,-6.584,4.431,3.363,,,,,,,,,,,,,0,,,Not running,,,,,,,,,,,0.997000,0.031500,0.036900,-0.058500,1.000000,0.000000,-0.000000,0.000000,0.000,-0.000,0.000,b6 00 00 00 00 00 00 f2 26 3b 01 71 01 b7 fd 07 00 d3
0.399,fused,,40,0x07,"IMU0_OK, IMU1_OK, FUSION_READY",0.981800,0.036600,0.015300,-0.185200,-21.278,-21.278,2.499,3.799,,,,,,,,,,,,,0,,,Not running,,,,,,,,,,,0.997000,0.031500,0.036900,-0.058500,0.991610,0.011505,-0.024672,-0.126366,-14.563,-2.638,1.667,b6 00 00 00 00 00 00 5a 26 6e 01 99 00 c4 f8 07 28 99
0.400,fused,,30,0x07,"IMU0_OK, IMU1_OK, FUSION_READY",0.847700,-0.026200,-0.001600,0.529700,63.960,63.960,1.435,-2.644,,,,,,,,,,,,,0,,,Not running,,,,,,,,,,,0.997000,0.031500,0.036900,-0.058500,0.813427,-0.072289,-0.017726,0.576885,70.471,3.128,-7.947,b6 00 00 00 00 00 00 1d 21 fa fe f0 ff b1 14 07 1e 8b
0.401,fused,,50,0x07,"IMU0_OK, IMU1_OK, FUSION_READY",0.381700,0.010100,-0.001300,-0.924200,-135.111,-135.111,1.013,0.580,,,,,,,,,,,,,0,,,Not running,,,,,,,,,,,0.997000,0.031500,0.036900,-0.058500,0.434950,0.032230,-0.043908,-0.898806,-128.293,1.131,6.142,b6 00 00 00 00 00 00 e9 0e 65 00 f3 ff e6 db 07 32 86
0.401,fused,,0,0x07,"IMU0_OK, IMU1_OK, FUSION_READY",0.997000,0.031500,0.036900,-0.058500,-6.584,-6.584,4.431,3.363,,,,,,,,,,,,,0,,,Not running,,,,,,,,,,,0.997000,0.031500,0.036900,-0.058500,1.000000,0.000000,-0.000000,0.000000,0.000,-0.000,0.000,b6 00 00 00 00 00 00 f2 26 3b 01 71 01 b7 fd 07 00 d3
0.402,fused,,40,0x07,"IMU0_OK, IMU1_OK, FUSION_READY",0.981900,0.036600,0.015300,-0.185100,-21.268,-21.268,2.499,3.800,,,,,,,,,,,,,0,,,Not running,,,,,,,,,,,0.997000,0.031500,0.036900,-0.058500,0.991625,0.011497,-0.024671,-0.126251,-14.550,-2.638,1.665,b6 00 00 00 00 00 00 5b 26 6e 01 99 00 c5 f8 07 28 99
0.402,fused,,30,0x07,"IMU0_OK, IMU1_OK, FUSION_READY",0.847700,-0.026200,-0.001500,0.529700,63.960,63.960,1.445,-2.638,,,,,,,,,,,,,0,,,Not running,,,,,,,,,,,0.997000,0.031500,0.036900,-0.058500,0.813431,-0.072295,-0.017626,0.576882,70.470,3.138,-7.941,b6 00 00 00 00 00 00 1d 21 fa fe f1 ff b1 14 07 1e 8a
0.403,fused,,50,0x07,"IMU0_OK, IMU1_OK, FUSION_READY",0.381700,0.010100,-0.001300,-0.924200,-135.111,-135.111,1.013,0.580,,,,,,,,,,,,,0,,,Not running,,,,,,,,,,,0.997000,0.031500,0.036900,-0.058500,0.434950,0.032230,-0.043908,-0.898806,-128.293,1.131,6.142,b6 00 00 00 00 00 00 e9 0e 65 00 f3 ff e6 db 07 32 86
0.403,fused,,0,0x07,"IMU0_OK, IMU1_OK, FUSION_READY",0.997000,0.031500,0.036900,-0.058500,-6.584,-6.584,4.431,3.363,,,,,,,,,,,,,0,,,Not running,,,,,,,,,,,0.997000,0.031500,0.036900,-0.058500,1.000000,0.000000,-0.000000,0.000000,0.000,-0.000,0.000,b6 00 00 00 00 00 00 f2 26 3b 01 71 01 b7 fd 07 00 d3
0.404,fused,,40,0x07,"IMU0_OK, IMU1_OK, FUSION_READY",0.981900,0.036600,0.015300,-0.185100,-21.268,-21.268,2.499,3.800,,,,,,,,,,,,,0,,,Not running,,,,,,,,,,,0.997000,0.031500,0.036900,-0.058500,0.991625,0.011497,-0.024671,-0.126251,-14.550,-2.638,1.665,b6 00 00 00 00 00 00 5b 26 6e 01 99 00 c5 f8 07 28 99
0.404,fused,,30,0x07,"IMU0_OK, IMU1_OK, FUSION_READY",0.847700,-0.026200,-0.001500,0.529700,63.960,63.960,1.445,-2.638,,,,,,,,,,,,,0,,,Not running,,,,,,,,,,,0.997000,0.031500,0.036900,-0.058500,0.813431,-0.072295,-0.017626,0.576882,70.470,3.138,-7.941,b6 00 00 00 00 00 00 1d 21 fa fe f1 ff b1 14 07 1e 8a
0.405,fused,,50,0x07,"IMU0_OK, IMU1_OK, FUSION_READY",0.381600,0.010100,-0.001400,-0.924200,-135.118,-135.118,1.008,0.590,,,,,,,,,,,,,0,,,Not running,,,,,,,,,,,0.997000,0.031500,0.036900,-0.058500,0.434863,0.032240,-0.044006,-0.898843,-128.304,1.128,6.152,b6 00 00 00 00 00 00 e8 0e 65 00 f2 ff e6 db 07 32 86
0.405,fused,,0,0x07,"IMU0_OK, IMU1_OK, FUSION_READY",0.997000,0.031500,0.036900,-0.058600,-6.596,-6.596,4.432,3.363,,,,,,,,,,,,,0,,,Not running,,,,,,,,,,,0.997000,0.031500,0.036900,-0.058600,1.000000,0.000000,0.000000,0.000000,0.000,0.000,0.000,b6 00 00 00 00 00 00 f2 26 3b 01 71 01 b6 fd 07 00 d2
0.406,fused,,40,0x07,"IMU0_OK, IMU1_OK, FUSION_READY",0.981900,0.036600,0.015300,-0.185100,-21.268,-21.268,2.499,3.800,,,,,,,,,,,,,0,,,Not running,,,,,,,,,,,0.997000,0.031500,0.036900,-0.058600,0.991638,0.011495,-0.024667,-0.126152,-14.538,-2.638,1.665,b6 00 00 00 00 00 00 5b 26 6e 01 99 00 c5 f8 07 28 99
0.407,fused,,30,0x07,"IMU0_OK, IMU1_OK, FUSION_READY",0.847700,-0.026200,-0.001500,0.529800,63.975,63.975,1.445,-2.638,,,,,,,,,,,,,0,,,Not running,,,,,,,,,,,0.997000,0.031500,0.036900,-0.058600,0.813324,-0.072294,-0.017624,0.577033,70.492,3.139,-7.940,b6 00 00 00 00 00 00 1d 21 fa fe f1 ff b2 14 07 1e 89
0.408,fused,,50,0x07,"IMU0_OK, IMU1_OK, FUSION_READY",0.381600,0.010100,-0.001400,-0.924200,-135.118,-135.118,1.008,0.590,,,,,,,,,,,,,0,,,Not running,,,,,,,,,,,0.997000,0.031500,0.036900,-0.058600,0.434953,0.032240,-0.044005,-0.898799,-128.292,1.127,6.152,b6 00 00 00 00 00 00 e8 0e 65 00 f2 ff e6 db 07 32 86
0.468,fused,,0,0x07,"IMU0_OK, IMU1_OK, FUSION_READY",0.997000,0.031500,0.036900,-0.058600,-6.596,-6.596,4.432,3.363,,,,,,,,,,,,,0,,,Not running,,,,,,,,,,,0.997000,0.031500,0.036900,-0.058600,1.000000,0.000000,0.000000,0.000000,0.000,0.000,0.000,b6 00 00 00 00 00 00 f2 26 3b 01 71 01 b6 fd 07 00 d2
0.469,fused,,40,0x07,"IMU0_OK, IMU1_OK, FUSION_READY",0.981900,0.036600,0.015300,-0.185100,-21.268,-21.268,2.499,3.800,,,,,,,,,,,,,0,,,Not running,,,,,,,,,,,0.997000,0.031500,0.036900,-0.058600,0.991638,0.011495,-0.024667,-0.126152,-14.538,-2.638,1.665,b6 00 00 00 00 00 00 5b 26 6e 01 99 00 c5 f8 07 28 99
0.470,fused,,30,0x07,"IMU0_OK, IMU1_OK, FUSION_READY",0.847600,-0.026200,-0.001500,0.529800,63.972,63.972,1.445,-2.638,,,,,,,,,,,,,0,,,Not running,,,,,,,,,,,0.997000,0.031500,0.036900,-0.058600,0.813293,-0.072297,-0.017622,0.577076,70.498,3.140,-7.940,b6 00 00 00 00 00 00 1c 21 fa fe f1 ff b2 14 07 1e 88
0.470,fused,,50,0x07,"IMU0_OK, IMU1_OK, FUSION_READY",0.381600,0.010100,-0.001400,-0.924200,-135.118,-135.118,1.008,0.590,,,,,,,,,,,,,0,,,Not running,,,,,,,,,,,0.997000,0.031500,0.036900,-0.058600,0.434953,0.032240,-0.044005,-0.898799,-128.292,1.127,6.152,b6 00 00 00 00 00 00 e8 0e 65 00 f2 ff e6 db 07 32 86
0.471,fused,,0,0x07,"IMU0_OK, IMU1_OK, FUSION_READY",0.997000,0.031500,0.037000,-0.058600,-6.596,-6.596,4.443,3.362,,,,,,,,,,,,,0,,,Not running,,,,,,,,,,,0.997000,0.031500,0.037000,-0.058600,1.000000,0.000000,-0.000000,0.000000,0.000,-0.000,0.000,b6 00 00 00 00 00 00 f2 26 3b 01 72 01 b6 fd 07 00 d1
0.471,fused,,40,0x07,"IMU0_OK, IMU1_OK, FUSION_READY",0.981900,0.036600,0.015300,-0.185000,-21.256,-21.256,2.498,3.800,,,,,,,,,,,,,0,,,Not running,,,,,,,,,,,0.997000,0.031500,0.037000,-0.058600,0.991648,0.011510,-0.024762,-0.126050,-14.527,-2.649,1.668,b6 00 00 00 00 00 00 5b 26 6e 01 99 00 c6 f8 07 28 9a
0.472,fused,,30,0x07,"IMU0_OK, IMU1_OK, FUSION_READY",0.847600,-0.026200,-0.001500,0.529800,63.972,63.972,1.445,-2.638,,,,,,,,,,,,,0,,,Not running,,,,,,,,,,,0.997000,0.031500,0.037000,-0.058600,0.813290,-0.072350,-0.017707,0.577071,70.497,3.136,-7.951,b6 00 00 00 00 00 00 1c 21 fa fe f1 ff b2 14 07 1e 88
0.472,fused,,50,0x07,"IMU0_OK, IMU1_OK, FUSION_READY",0.381500,0.010100,-0.001400,-0.924200,-135.126,-135.126,1.008,0.590,,,,,,,,,,,,,0,,,Not running,,,,,,,,,,,0.997000,0.031500,0.037000,-0.058600,0.434868,0.032336,-0.044041,-0.898835,-128.302,1.136,6.161,b6 00 00 00 00 00 00 e7 0e 65 00 f2 ff e6 db 07 32 89
