time_s,protocol,sequence,node_id,status_hex,status_bits,quat_w,quat_x,quat_y,quat_z,yaw_deg,yaw_unwrapped_deg,pitch_deg,roll_deg,imu0_accel_x_mg,imu0_accel_y_mg,imu0_accel_z_mg,imu0_gyro_x_dps,imu0_gyro_y_dps,imu0_gyro_z_dps,imu1_accel_x_mg,imu1_accel_y_mg,imu1_accel_z_mg,imu1_gyro_x_dps,imu1_gyro_y_dps,imu1_gyro_z_dps,guided_test_active,guided_test_step,guided_test_step_label,guided_test_step_status,guided_test_elapsed_s,guided_test_target_node,guided_test_target_label,guided_test_error_deg,guided_test_reference_node,guided_test_reference_label,palm_ref_quat_w,palm_ref_quat_x,palm_ref_quat_y,palm_ref_quat_z,palm_live_quat_w,palm_live_quat_x,palm_live_quat_y,palm_live_quat_z,relative_to_palm_quat_w,relative_to_palm_quat_x,relative_to_palm_quat_y,relative_to_palm_quat_z,relative_to_palm_yaw_deg,relative_to_palm_pitch_deg,relative_to_palm_roll_deg,raw_frame_hex
0.000,fused,,30,0x07,"IMU0_OK, IMU1_OK, FUSION_READY",0.866400,-0.029300,0.068600,0.493600,59.407,59.407,8.499,0.982,,,,,,,,,,,,,0,,,Not running,,,,,,,,,,,0.012100,-0.850100,0.526400,0.000000,0.071511,0.476396,-0.874954,0.048872,-122.952,-9.887,-178.989,b6 00 00 00 00 00 00 d8 21 db fe ae 02 48 13 07 1e 32
0.001,fused,,0,0x07,"IMU0_OK, IMU1_OK, FUSION_READY",0.012100,-0.850100,0.526400,0.000000,-63.521,-63.521,0.730,-178.821,,,,,,,,,,,,,0,,,Not running,,,,,,,,,,,0.012100,-0.850100,0.526400,0.000000,1.000000,0.000000,0.000000,0.000000,0.000,0.000,0.000,b6 00 00 00 00 00 00 79 00 cb de 90 14 00 00 07 00 ef
0.002,fused,,40,0x07,"IMU0_OK, IMU1_OK, FUSION_READY",0.982400,0.055700,0.013600,-0.177600,-20.353,-20.353,2.666,6.011,,,,,,,,,,,,,0,,,Not running,,,,,,,,,,,0.012100,-0.850100,0.526400,0.000000,0.028307,-0.929369,0.366020,-0.038736,-43.112,-2.939,-175.350,b6 00 00 00 00 00 00 60 26 2d 02 88 00 10 f9 07 28 27
0.002,fused,,50,0x07,"IMU0_OK, IMU1_OK, FUSION_READY",0.783300,-0.035500,0.064400,0.617200,76.568,76.568,8.321,1.383,,,,,,,,,,,,,0,,,Not running,,,,,,,,,,,0.012100,-0.850100,0.526400,0.000000,0.073563,0.340591,-0.936318,0.043531,-140.176,-9.637,-178.174,b6 00 00 00 00 00 00 99 1e 9d fe 84 02 1c 18 07 32 53
0.003,fused,,30,0x07,"IMU0_OK, IMU1_OK, FUSION_READY",0.866400,-0.029400,0.067500,0.493700,59.409,59.409,8.395,0.910,,,,,,,,,,,,,0,,,Not running,,,,,,,,,,,0.012100,-0.850100,0.526400,0.000000,0.071018,0.476353,-0.875072,0.047886,-122.956,-9.783,-179.061,b6 00 00 00 00 00 00 d8 21 da fe a3 02 49 13 07 1e 3f
0.003,fused,,0,0x07,"IMU0_OK, IMU1_OK, FUSION_READY",0.012100,-0.850100,0.526400,0.000000,-63.521,-63.521,0.730,-178.821,,,,,,,,,,,,,0,,,Not running,,,,,,,,,,,0.012100,-0.850100,0.526400,0.000000,1.000000,0.000000,0.000000,0.000000,0.000,0.000,0.000,b6 00 00 00 00 00 00 79 00 cb de 90 14 00 00 07 00 ef
0.004,fused,,40,0x07,"IMU0_OK, IMU1_OK, FUSION_READY",0.982400,0.055400,0.013600,-0.177600,-20.354,-20.354,2.659,5.977,,,,,,,,,,,,,0,,,Not running,,,,,,,,,,,0.012100,-0.850100,0.526400,0.000000,0.028052,-0.929381,0.366026,-0.038578,-43.111,-2.933,-175.383,b6 00 00 00 00 00 00 60 26 2a 02 88 00 10 f9 07 28 20
0.005,fused,,50,0x07,"IMU0_OK, IMU1_OK, FUSION_READY",0.783300,-0.035500,0.063800,0.617200,76.560,76.560,8.266,1.340,,,,,,,,,,,,,0,,,Not running,,,,,,,,,,,0.012100,-0.850100,0.526400,0.000000,0.073250,0.340604,-0.936361,0.043023,-140.171,-9.584,-178.218,b6 00 00 00 00 00 00 99 1e 9d fe 7e 02 1c 18 07 32 a9
0.005,fused,,30,0x07,"IMU0_OK, IMU1_OK, FUSION_READY",0.866500,-0.029400,0.066300,0.493700,59.398,59.398,8.275,0.840,,,,,,,,,,,,,0,,,Not running,,,,,,,,,,,0.012100,-0.850100,0.526400,0.000000,0.070387,0.476435,-0.875134,0.046865,-122.944,-9.663,-179.131,b6 00 00 00 00 00 00 d9 21 da fe 97 02 49 13 07 1e 0a
0.006,fused,,0,0x07,"IMU0_OK, IMU1_OK, FUSION_READY",0.012100,-0.850100,0.526400,0.000000,-63.521,-63.521,0.730,-178.821,,,,,,,,,,,,,0,,,Not running,,,,,,,,,,,0.012100,-0.850100,0.526400,0.000000,1.000000,0.000000,0.000000,0.000000,0.000,0.000,0.000,b6 00 00 00 00 00 00 79 00 cb de 90 14 00 00 07 00 ef
0.006,fused,,40,0x07,"IMU0_OK, IMU1_OK, FUSION_READY",0.982400,0.055100,0.013700,-0.177600,-20.354,-20.354,2.665,5.941,,,,,,,,,,,,,0,,,Not running,,,,,,,,,,,0.012100,-0.850100,0.526400,0.000000,0.027745,-0.929392,0.366031,-0.038506,-43.110,-2.938,-175.419,b6 00 00 00 00 00 00 60 26 27 02 89 00 10 f9 07 28 2c
0.007,fused,,50,0x07,"IMU0_OK, IMU1_OK, FUSION_READY",0.783400,-0.035500,0.063200,0.617200,76.553,76.553,8.212,1.296,,,,,,,,,,,,,0,,,Not running,,,,,,,,,,,0.012100,-0.850100,0.526400,0.000000,0.072933,0.340675,-0.936383,0.042511,-140.160,-9.529,-178.261,b6 00 00 00 00 00 00 9a 1e 9d fe 78 02 1c 18 07 32 ac
0.007,fused,,30,0x07,"IMU0_OK, IMU1_OK, FUSION_READY",0.866500,-0.029400,0.065200,0.493800,59.400,59.400,8.165,0.778,,,,,,,,,,,,,0,,,Not running,,,,,,,,,,,0.012100,-0.850100,0.526400,0.000000,0.069810,0.476394,-0.875252,0.045932,-122.949,-9.553,-179.193,b6 00 00 00 00 00 00 d9 21 da fe 8c 02 4a 13 07 1e 12
0.008,fused,,0,0x07,"IMU0_OK, IMU1_OK, FUSION_READY",0.012100,-0.850100,0.526400,0.000000,-63.521,-63.521,0.730,-178.821,,,,,,,,,,,,,0,,,Not running,,,,,,,,,,,0.012100,-0.850100,0.526400,0.000000,1.000000,0.000000,0.000000,0.000000,0.000,0.000,0.000,b6 00 00 00 00 00 00 79 00 cb de 90 14 00 00 07 00 ef
0.008,fused,,40,0x07,"IMU0_OK, IMU1_OK, FUSION_READY",0.982400,0.054800,0.013700,-0.177500,-20.342,-20.342,2.658,5.907,,,,,,,,,,,,,0,,,Not running,,,,,,,,,,,0.012100,-0.850100,0.526400,0.000000,0.027491,-0.929367,0.366128,-0.038351,-43.121,-2.932,-175.453,b6 00 00 00 00 00 00 60 26 24 02 89 00 11 f9 07 28 2e
0.009,fused,,50,0x07,"IMU0_OK, IMU1_OK, FUSION_READY",0.783400,-0.035500,0.062700,0.617200,76.547,76.547,8.167,1.261,,,,,,,,,,,,,0,,,Not running,,,,,,,,,,,0.012100,-0.850100,0.526400,0.000000,0.072672,0.340686,-0.936419,0.042087,-140.157,-9.484,-178.297,b6 00 00 00 00 00 00 9a 1e 9d fe 73 02 1c 18 07 32 a7
0.009,fused,,30,0x07,"IMU0_OK, IMU1_OK, FUSION_READY",0.866600,-0.029400,0.064100,0.493900,59.406,59.406,8.056,0.715,,,,,,,,,,,,,0,,,Not running,,,,,,,,,,,0.012100,-0.850100,0.526400,0.000000,0.069227,0.476395,-0.875346,0.044996,-122.948,-9.443,-179.256,b6 00 00 00 00 00 00 da 21 da fe 81 02 4b 13 07 1e 1d
0.010,fused,,0,0x07,"IMU0_OK, IMU1_OK, FUSION_READY",0.012100,-0.850100,0.526400,0.000000,-63.521,-63.521,0.730,-178.821,,,,,,,,,,,,,0,,,Not running,,,,,,,,,,,0.012100,-0.850100,0.526400,0.000000,1.000000,0.000000,0.000000,0.000000,0.000,0.000,0.000,b6 00 00 00 00 00 00 79 00 cb de 90 14 00 00 07 00 ef
0.010,fused,,40,0x07,"IMU0_OK, IMU1_OK, FUSION_READY",0.982500,0.054600,0.013700,-0.177500,-20.345,-20.345,2.654,5.885,,,,,,,,,,,,,0,,,Not running,,,,,,,,,,,0.012100,-0.850100,0.526400,0.000000,0.027317,-0.929369,0.366149,-0.038242,-43.122,-2.928,-175.476,b6 00 00 00 00 00 00 61 26 22 02 89 00 11 f9 07 28 29
0.010,fused,,50,0x07,"IMU0_OK, IMU1_OK, FUSION_READY",0.783500,-0.035500,0.062100,0.617200,76.540,76.540,8.113,1.217,,,,,,,,,,,,,0,,,Not running,,,,,,,,,,,0.012100,-0.850100,0.526400,0.000000,0.072354,0.340757,-0.936441,0.041575,-140.145,-9.430,-178.341,b6 00 00 00 00 00 00 9b 1e 9d fe 6d 02 1c 18 07 32 b8
0.011,fused,,30,0x07,"IMU0_OK, IMU1_OK, FUSION_READY",0.866700,-0.029400,0.063000,0.493900,59.397,59.397,7.946,0.652,,,,,,,,,,,,,0,,,Not running,,,,,,,,,,,0.012100,-0.850100,0.526400,0.000000,0.068648,0.476472,-0.875397,0.044060,-122.937,-9.333,-179.319,b6 00 00 00 00 00 00 db 21 da fe 76 02 4b 13 07 1e eb
0.011,fused,,0,0x07,"IMU0_OK, IMU1_OK, FUSION_READY",0.012000,-0.850100,0.526400,0.000000,-63.521,-63.521,0.724,-178.831,,,,,,,,,,,,,0,,,Not running,,,,,,,,,,,0.012000,-0.850100,0.526400,0.000000,1.000000,0.000000,0.000000,0.000000,0.000,0.000,0.000,b6 00 00 00 00 00 00 78 00 cb de 90 14 00 00 07 00 ee
0.012,fused,,40,0x07,"IMU0_OK, IMU1_OK, FUSION_READY",0.982500,0.054300,0.013700,-0.177500,-20.345,-20.345,2.648,5.851,,,,,,,,,,,,,0,,,Not running,,,,,,,,,,,0.012000,-0.850100,0.526400,0.000000,0.027161,-0.929376,0.366157,-0.038103,-43.122,-2.920,-175.498,b6 00 00 00 00 00 00 61 26 1f 02 89 00 11 f9 07 28 14
0.012,fused,,50,0x07,"IMU0_OK, IMU1_OK, FUSION_READY",0.783500,-0.035500,0.061600,0.617200,76.534,76.534,8.068,1.181,,,,,,,,,,,,,0,,,Not running,,,,,,,,,,,0.012000,-0.850100,0.526400,0.000000,0.072015,0.340772,-0.936483,0.041090,-140.141,-9.374,-178.381,b6 00 00 00 00 00 00 9b 1e 9d fe 68 02 1c 18 07 32 bd
0.013,fused,,30,0x07,"IMU0_OK, IMU1_OK, FUSION_READY",0.866700,-0.029400,0.061900,0.494000,59.400,59.400,7.836,0.590,,,,,,,,,,,,,0,,,Not running,,,,,,,,,,,0.012000,-0.850100,0.526400,0.000000,0.067984,0.476432,-0.875520,0.043077,-122.942,-9.212,-179.382,b6 00 00 00 00 00 00 db 21 da fe 6b 02 4c 13 07 1e f1
0.013,fused,,0,0x07,"IMU0_OK, IMU1_OK, FUSION_READY",0.012000,-0.850100,0.526400,0.000000,-63.521,-63.521,0.724,-178.831,,,,,,,,,,,,,0,,,Not running,,,,,,,,,,,0.012000,-0.850100,0.526400,0.000000,1.000000,0.000000,0.000000,0.000000,0.000,0.000,0.000,b6 00 00 00 00 00 00 78 00 cb de 90 14 00 00 07 00 ee
0.014,fused,,40,0x07,"IMU0_OK, IMU1_OK, FUSION_READY",0.982500,0.054100,0.013700,-0.177400,-20.333,-20.333,2.643,5.829,,,,,,,,,,,,,0,,,Not running,,,,,,,,,,,0.012000,-0.850100,0.526400,0.000000,0.026991,-0.929348,0.366252,-0.038000,-43.132,-2.915,-175.520,b6 00 00 00 00 00 00 61 26 1d 02 89 00 12 f9 07 28 15
0.014,fused,,50,0x07,"IMU0_OK, IMU1_OK, FUSION_READY",0.783500,-0.035500,0.061000,0.617200,76.526,76.526,8.014,1.138,,,,,,,,,,,,,0,,,Not running,,,,,,,,,,,0.012000,-0.850100,0.526400,0.000000,0.071702,0.340784,-0.936524,0.040581,-140.137,-9.321,-178.424,b6 00 00 00 00 00 00 9b 1e 9d fe 62 02 1c 18 07 32 b7
0.065,fused,,30,0x07,"IMU0_OK, IMU1_OK, FUSION_READY",0.866700,-0.029400,0.060900,0.494000,59.389,59.389,7.736,0.532,,,,,,,,,,,,,0,,,Not running,,,,,,,,,,,0.012000,-0.850100,0.526400,0.000000,0.067462,0.476461,-0.875586,0.042229,-122.938,-9.113,-179.439,b6 00 00 00 00 00 00 db 21 da fe 61 02 4c 13 07 1e fb
0.066,fused,,0,0x07,"IMU0_OK, IMU1_OK, FUSION_READY",0.012000,-0.850100,0.526400,0.000000,-63.521,-63.521,0.724,-178.831,,,,,,,,,,,,,0,,,Not running,,,,,,,,,,,0.012000,-0.850100,0.526400,0.000000,1.000000,0.000000,0.000000,0.000000,0.000,0.000,0.000,b6 00 00 00 00 00 00 78 00 cb de 90 14 00 00 07 00 ee
0.067,fused,,40,0x07,"IMU0_OK, IMU1_OK, FUSION_READY",0.982500,0.053800,0.013700,-0.177400,-20.334,-20.334,2.637,5.795,,,,,,,,,,,,,0,,,Not running,,,,,,,,,,,0.012000,-0.850100,0.526400,0.000000,0.026737,-0.929359,0.366258,-0.037842,-43.131,-2.909,-175.554,b6 00 00 00 00 00 00 61 26 1a 02 89 00 12 f9 07 28 12
0.068,fused,,50,0x07,"IMU0_OK, IMU1_OK, FUSION_READY",0.783600,-0.035500,0.060500,0.617200,76.522,76.522,7.969,1.102,,,,,,,,,,,,,0,,,Not running,,,,,,,,,,,0.012000,-0.850100,0.526400,0.000000,0.071436,0.340853,-0.936538,0.040154,-140.127,-9.275,-178.461,b6 00 00 00 00 00 00 9c 1e 9d fe 5d 02 1c 18 07 32 8f
0.068,fused,,30,0x07,"IMU0_OK, IMU1_OK, FUSION_READY",0.866800,-0.029400,0.059900,0.494100,59.397,59.397,7.637,0.476,,,,,,,,,,,,,0,,,Not running,,,,,,,,,,,0.012000,-0.850100,0.526400,0.000000,0.066931,0.476458,-0.875669,0.041377,-122.938,-9.012,-179.496,b6 00 00 00 00 00 00 dc 21 da fe 57 02 4d 13 07 1e cb
0.069,fused,,0,0x07,"IMU0_OK, IMU1_OK, FUSION_READY",0.012000,-0.850100,0.526400,0.000000,-63.521,-63.521,0.724,-178.831,,,,,,,,,,,,,0,,,Not running,,,,,,,,,,,0.012000,-0.850100,0.526400,0.000000,1.000000,0.000000,0.000000,0.000000,0.000,0.000,0.000,b6 00 00 00 00 00 00 78 00 cb de 90 14 00 00 07 00 ee
0.069,fused,,40,0x07,"IMU0_OK, IMU1_OK, FUSION_READY",0.982500,0.053600,0.013700,-0.177400,-20.334,-20.334,2.633,5.772,,,,,,,,,,,,,0,,,Not running,,,,,,,,,,,0.012000,-0.850100,0.526400,0.000000,0.026567,-0.929367,0.366262,-0.037737,-43.131,-2.905,-175.577,b6 00 00 00 00 00 00 61 26 18 02 89 00 12 f9 07 28 10
0.070,fused,,50,0x07,"IMU0_OK, IMU1_OK, FUSION_READY",0.783600,-0.035500,0.060000,0.617200,76.515,76.515,7.924,1.066,,,,,,,,,,,,,0,,,Not running,,,,,,,,,,,0.012000,-0.850100,0.526400,0.000000,0.071175,0.340863,-0.936572,0.039730,-140.124,-9.231,-178.496,b6 00 00 00 00 00 00 9c 1e 9d fe 58 02 1c 18 07 32 8a
0.070,fused,,30,0x07,"IMU0_OK, IMU1_OK, FUSION_READY",0.866800,-0.029400,0.058800,0.494100,59.386,59.386,7.527,0.413,,,,,,,,,,,,,0,,,Not running,,,,,,,,,,,0.012000,-0.850100,0.526400,0.000000,0.066356,0.476489,-0.875739,0.040445,-122.933,-8.903,-179.559,b6 00 00 00 00 00 00 dc 21 da fe 4c 02 4d 13 07 1e d0
0.070,fused,,0,0x07,"IMU0_OK, IMU1_OK, FUSION_READY",0.012000,-0.850100,0.526400,0.000000,-63.521,-63.521,0.724,-178.831,,,,,,,,,,,,,0,,,Not running,,,,,,,,,,,0.012000,-0.850100,0.526400,0.000000,1.000000,0.000000,0.000000,0.000000,0.000,0.000,0.000,b6 00 00 00 00 00 00 78 00 cb de 90 14 00 00 07 00 ee
0.071,fused,,40,0x07,"IMU0_OK, IMU1_OK, FUSION_READY",0.982500,0.053300,0.013700,-0.177400,-20.334,-20.334,2.627,5.738,,,,,,,,,,,,,0,,,Not running,,,,,,,,,,,0.012000,-0.850100,0.526400,0.000000,0.026312,-0.929378,0.366268,-0.037580,-43.130,-2.899,-175.611,b6 00 00 00 00 00 00 61 26 15 02 89 00 12 f9 07 28 1d
0.071,fused,,50,0x07,"IMU0_OK, IMU1_OK, FUSION_READY",0.783700,-0.035500,0.059400,0.617200,76.509,76.509,7.870,1.023,,,,,,,,,,,,,0,,,Not running,,,,,,,,,,,0.012000,-0.850100,0.526400,0.000000,0.070857,0.340934,-0.936592,0.039219,-140.113,-9.176,-178.540,b6 00 00 00 00 00 00 9d 1e 9d fe 52 02 1c 18 07 32 81
0.072,fused,,30,0x07,"IMU0_OK, IMU1_OK, FUSION_READY",0.866900,-0.029400,0.057800,0.494200,59.394,59.394,7.428,0.356,,,,,,,,,,,,,0,,,Not running,,,,,,,,,,,0.012000,-0.850100,0.526400,0.000000,0.065826,0.476484,-0.875821,0.039593,-122.933,-8.803,-179.616,b6 00 00 00 00 00 00 dd 21 da fe 42 02 4e 13 07 1e dc
0.072,fused,,0,0x07,"IMU0_OK, IMU1_OK, FUSION_READY",0.012000,-0.850100,0.526400,0.000100,-63.521,-63.521,0.734,-178.837,,,,,,,,,,,,,0,,,Not running,,,,,,,,,,,0.012000,-0.850100,0.526400,0.000100,1.000000,0.000000,-0.000000,0.000000,0.000,-0.000,-0.000,b6 00 00 00 00 00 00 78 00 cb de 90 14 01 00 07 00 ef
0.073,fused,,40,0x07,"IMU0_OK, IMU1_OK, FUSION_READY",0.982600,0.053100,0.013700,-0.177300,-20.325,-20.325,2.622,5.716,,,,,,,,,,,,,0,,,Not running,,,,,,,,,,,0.012000,-0.850100,0.526400,0.000100,0.026157,-0.929344,0.366385,-0.037375,-43.143,-2.883,-175.635,b6 00 00 00 00 00 00 62 26 13 02 89 00 13 f9 07 28 19
0.073,fused,,50,0x07,"IMU0_OK, IMU1_OK, FUSION_READY",0.783700,-0.035500,0.058900,0.617200,76.503,76.503,7.825,0.987,,,,,,,,,,,,,0,,,Not running,,,,,,,,,,,0.012000,-0.850100,0.526400,0.000100,0.070658,0.340950,-0.936623,0.038716,-140.108,-9.135,-178.587,b6 00 00 00 00 00 00 9d 1e 9d fe 4d 02 1c 18 07 32 9e
0.074,fused,,0,0x07,"IMU0_OK, IMU1_OK, FUSION_READY",0.012000,-0.850100,0.526400,0.000000,-63.521,-63.521,0.724,-178.831,,,,,,,,,,,,,0,,,Not running,,,,,,,,,,,0.012000,-0.850100,0.526400,0.000000,1.000000,0.000000,0.000000,0.000000,0.000,0.000,0.000,b6 00 00 00 00 00 00 78 00 cb de 90 14 00 00 07 00 ee
0.074,fused,,30,0x07,"IMU0_OK, IMU1_OK, FUSION_READY",0.866900,-0.029400,0.056900,0.494200,59.385,59.385,7.337,0.304,,,,,,,,,,,,,0,,,Not running,,,,,,,,,,,0.012000,-0.850100,0.526400,0.000000,0.065356,0.476509,-0.875877,0.038830,-122.930,-8.713,-179.668,b6 00 00 00 00 00 00 dd 21 da fe 39 02 4e 13 07 1e a7
0.075,fused,,40,0x07,"IMU0_OK, IMU1_OK, FUSION_READY",0.982600,0.052900,0.013700,-0.177300,-20.325,-20.325,2.618,5.693,,,,,,,,,,,,,0,,,Not running,,,,,,,,,,,0.012000,-0.850100,0.526400,0.000000,0.025970,-0.929350,0.366384,-0.037368,-43.142,-2.890,-175.656,b6 00 00 00 00 00 00 62 26 11 02 89 00 13 f9 07 28 1b
0.075,fused,,50,0x07,"IMU0_OK, IMU1_OK, FUSION_READY",0.783700,-0.035500,0.058400,0.617200,76.497,76.497,7.779,0.951,,,,,,,,,,,,,0,,,Not running,,,,,,,,,,,0.012000,-0.850100,0.526400,0.000000,0.070335,0.340954,-0.936660,0.038371,-140.106,-9.087,-178.612,b6 00 00 00 00 00 00 9d 1e 9d fe 48 02 1c 18 07 32 9b
0.076,fused,,0,0x07,"IMU0_OK, IMU1_OK, FUSION_READY",0.012000,-0.850100,0.526400,0.000100,-63.521,-63.521,0.734,-178.837,,,,,,,,,,,,,0,,,Not running,,,,,,,,,,,0.012000,-0.850100,0.526400,0.000100,1.000000,0.000000,-0.000000,0.000000,0.000,-0.000,-0.000,b6 00 00 00 00 00 00 78 00 cb de 90 14 01 00 07 00 ef
0.076,fused,,30,0x07,"IMU0_OK, IMU1_OK, FUSION_READY",0.866900,-0.029400,0.055900,0.494300,59.391,59.391,7.238,0.248,,,,,,,,,,,,,0,,,Not running,,,,,,,,,,,0.012000,-0.850100,0.526400,0.000100,0.064879,0.476465,-0.875977,0.037894,-122.934,-8.614,-179.736,b6 00 00 00 00 00 00 dd 21 da fe 2f 02 4f 13 07 1e b0
0.077,fused,,40,0x07,"IMU0_OK, IMU1_OK, FUSION_READY",0.982600,0.052700,0.013700,-0.177300,-20.325,-20.325,2.614,5.671,,,,,,,,,,,,,0,,,Not running,,,,,,,,,,,0.012000,-0.850100,0.526400,0.000100,0.025818,-0.929359,0.366393,-0.037165,-43.141,-2.875,-175.681,b6 00 00 00 00 00 00 62 26 0f 02 89 00 13 f9 07 28 05
0.077,fused,,50,0x07,"IMU0_OK, IMU1_OK, FUSION_READY",0.783800,-0.035500,0.058000,0.617200,76.494,76.494,7.744,0.922,,,,,,,,,,,,,0,,,Not running,,,,,,,,,,,0.012000,-0.850100,0.526400,0.000100,0.070184,0.341026,-0.936662,0.037950,-140.095,-9.054,-178.652,b6 00 00 00 00 00 00 9e 1e 9d fe 44 02 1c 18 07 32 94
0.077,fused,,0,0x07,"IMU0_OK, IMU1_OK, FUSION_READY",0.011900,-0.850100,0.526400,0.000100,-63.521,-63.521,0.728,-178.846,,,,,,,,,,,,,0,,,Not running,,,,,,,,,,,0.011900,-0.850100,0.526400,0.000100,1.000000,0.000000,-0.000000,0.000000,0.000,-0.000,-0.000,b6 00 00 00 00 00 00 77 00 cb de 90 14 01 00 07 00 e0
0.078,fused,,30,0x07,"IMU0_OK, IMU1_OK, FUSION_READY",0.867000,-0.029500,0.054900,0.494300,59.384,59.384,7.144,0.180,,,,,,,,,,,,,0,,,Not running,,,,,,,,,,,0.011900,-0.850100,0.526400,0.000100,0.064350,0.476536,-0.876018,0.036941,-122.924,-8.508,-179.804,b6 00 00 00 00 00 00 de 21 d9 fe 25 02 4f 13 07 1e ba
0.078,fused,,40,0x07,"IMU0_OK, IMU1_OK, FUSION_READY",0.982600,0.052400,0.013700,-0.177300,-20.326,-20.326,2.608,5.637,,,,,,,,,,,,,0,,,Not running,,,,,,,,,,,0.011900,-0.850100,0.526400,0.000100,0.025661,-0.929366,0.366400,-0.037026,-43.141,-2.867,-175.703,b6 00 00 00 00 00 00 62 26 0c 02 89 00 13 f9 07 28 06
0.079,fused,,50,0x07,"IMU0_OK, IMU1_OK, FUSION_READY",0.783800,-0.035500,0.057500,0.617200,76.488,76.488,7.698,0.886,,,,,,,,,,,,,0,,,Not running,,,,,,,,,,,0.011900,-0.850100,0.526400,0.000100,0.069844,0.341040,-0.936702,0.037464,-140.091,-8.998,-178.692,b6 00 00 00 00 00 00 9e 1e 9d fe 3f 02 1c 18 07 32 ef
0.159,fused,,0,0x07,"IMU0_OK, IMU1_OK, FUSION_READY",0.011900,-0.850100,0.526400,0.000100,-63.521,-63.521,0.728,-178.846,,,,,,,,,,,,,0,,,Not running,,,,,,,,,,,0.011900,-0.850100,0.526400,0.000100,1.000000,0.000000,-0.000000,0.000000,0.000,-0.000,-0.000,b6 00 00 00 00 00 00 77 00 cb de 90 14 01 00 07 00 e0
0.160,fused,,30,0x07,"IMU0_OK, IMU1_OK, FUSION_READY",0.867000,-0.029400,0.054000,0.494400,59.391,59.391,7.048,0.139,,,,,,,,,,,,,0,,,Not running,,,,,,,,,,,0.011900,-0.850100,0.526400,0.000100,0.063791,0.476486,-0.876116,0.036229,-122.931,-8.413,-179.844,b6 00 00 00 00 00 00 de 21 da fe 1c 02 50 13 07 1e 9f
0.160,fused,,40,0x07,"IMU0_OK, IMU1_OK, FUSION_READY",0.982600,0.052200,0.013700,-0.177200,-20.314,-20.314,2.603,5.614,,,,,,,,,,,,,0,,,Not running,,,,,,,,,,,0.011900,-0.850100,0.526400,0.000100,0.025492,-0.929337,0.366496,-0.036923,-43.152,-2.863,-175.725,b6 00 00 00 00 00 00 62 26 0a 02 89 00 14 f9 07 28 07
0.161,fused,,50,0x07,"IMU0_OK, IMU1_OK, FUSION_READY",0.783800,-0.035400,0.057000,0.617200,76.482,76.482,7.646,0.860,,,,,,,,,,,,,0,,,Not running,,,,,,,,,,,0.011900,-0.850100,0.526400,0.000100,0.069498,0.341052,-0.936738,0.037093,-140.089,-8.946,-178.719,b6 00 00 00 00 00 00 9e 1e 9e fe 3a 02 1c 18 07 32 e9
0.161,fused,,0,0x07,"IMU0_OK, IMU1_OK, FUSION_READY",0.011900,-0.850100,0.526400,0.000100,-63.521,-63.521,0.728,-178.846,,,,,,,,,,,,,0,,,Not running,,,,,,,,,,,0.011900,-0.850100,0.526400,0.000100,1.000000,0.000000,-0.000000,0.000000,0.000,-0.000,-0.000,b6 00 00 00 00 00 00 77 00 cb de 90 14 01 00 07 00 e0
0.162,fused,,30,0x07,"IMU0_OK, IMU1_OK, FUSION_READY",0.867000,-0.029500,0.053000,0.494400,59.382,59.382,6.954,0.072,,,,,,,,,,,,,0,,,Not running,,,,,,,,,,,0.011900,-0.850100,0.526400,0.000100,0.063353,0.476508,-0.876172,0.035328,-122.927,-8.319,-179.911,b6 00 00 00 00 00 00 de 21 d9 fe 12 02 50 13 07 1e 92
0.162,fused,,40,0x07,"IMU0_OK, IMU1_OK, FUSION_READY",0.982700,0.052000,0.013700,-0.177200,-20.316,-20.316,2.600,5.592,,,,,,,,,,,,,0,,,Not running,,,,,,,,,,,0.011900,-0.850100,0.526400,0.000100,0.025318,-0.929338,0.366516,-0.036814,-43.153,-2.858,-175.748,b6 00 00 00 00 00 00 63 26 08 02 89 00 14 f9 07 28 04
0.163,fused,,50,0x07,"IMU0_OK, IMU1_OK, FUSION_READY",0.783900,-0.035400,0.056500,0.617200,76.478,76.478,7.601,0.823,,,,,,,,,,,,,0,,,Not running,,,,,,,,,,,0.011900,-0.850100,0.526400,0.000100,0.069233,0.341120,-0.936750,0.036666,-140.078,-8.901,-178.755,b6 00 00 00 00 00 00 9f 1e 9e fe 35 02 1c 18 07 32 e7
0.163,fused,,0,0x07,"IMU0_OK, IMU1_OK, FUSION_READY",0.011900,-0.850100,0.526400,0.000100,-63.521,-63.521,0.728,-178.846,,,,,,,,,,,,,0,,,Not running,,,,,,,,,,,0.011900,-0.850100,0.526400,0.000100,1.000000,0.000000,-0.000000,0.000000,0.000,-0.000,-0.000,b6 00 00 00 00 00 00 77 00 cb de 90 14 01 00 07 00 e0
0.164,fused,,30,0x07,"IMU0_OK, IMU1_OK, FUSION_READY",0.867000,-0.029500,0.052100,0.494500,59.389,59.389,6.864,0.022,,,,,,,,,,,,,0,,,Not running,,,,,,,,,,,0.011900,-0.850100,0.526400,0.000100,0.062879,0.476455,-0.876266,0.034564,-122.934,-8.229,-179.962,b6 00 00 00 00 00 00 de 21 d9 fe 09 02 51 13 07 1e 88
0.164,fused,,40,0x07,"IMU0_OK, IMU1_OK, FUSION_READY",0.982700,0.051800,0.013700,-0.177200,-20.317,-20.317,2.595,5.569,,,,,,,,,,,,,0,,,Not running,,,,,,,,,,,0.011900,-0.850100,0.526400,0.000100,0.025149,-0.929346,0.366520,-0.036709,-43.152,-2.854,-175.771,b6 00 00 00 00 00 00 63 26 06 02 89 00 14 f9 07 28 0a
0.165,fused,,50,0x07,"IMU0_OK, IMU1_OK, FUSION_READY",0.783900,-0.035400,0.056100,0.617200,76.473,76.473,7.565,0.795,,,,,,,,,,,,,0,,,Not running,,,,,,,,,,,0.011900,-0.850100,0.526400,0.000100,0.069024,0.341127,-0.936775,0.036327,-140.076,-8.865,-178.784,b6 00 00 00 00 00 00 9f 1e 9e fe 31 02 1c 18 07 32 e3
0.165,fused,,0,0x07,"IMU0_OK, IMU1_OK, FUSION_READY",0.011900,-0.850100,0.526400,0.000100,-63.521,-63.521,0.728,-178.846,,,,,,,,,,,,,0,,,Not running,,,,,,,,,,,0.011900,-0.850100,0.526400,0.000100,1.000000,0.000000,-0.000000,0.000000,0.000,-0.000,-0.000,b6 00 00 00 00 00 00 77 00 cb de 90 14 01 00 07 00 e0
0.166,fused,,30,0x07,"IMU0_OK, IMU1_OK, FUSION_READY",0.867100,-0.029500,0.051200,0.494500,59.384,59.384,6.775,-0.030,,,,,,,,,,,,,0,,,Not running,,,,,,,,,,,0.011900,-0.850100,0.526400,0.000100,0.062404,0.476520,-0.876294,0.033798,-122.925,-8.139,179.986,b6 00 00 00 00 00 00 df 21 d9 fe 00 02 51 13 07 1e 80
0.166,fused,,40,0x07,"IMU0_OK, IMU1_OK, FUSION_READY",0.982700,0.051600,0.013700,-0.177200,-20.317,-20.317,2.591,5.547,,,,,,,,,,,,,0,,,Not running,,,,,,,,,,,0.011900,-0.850100,0.526400,0.000100,0.024979,-0.929353,0.366524,-0.036604,-43.152,-2.850,-175.793,b6 00 00 00 00 00 00 63 26 04 02 89 00 14 f9 07 28 08
0.167,fused,,50,0x07,"IMU0_OK, IMU1_OK, FUSION_READY",0.783900,-0.035400,0.055600,0.617200,76.467,76.467,7.520,0.759,,,,,,,,,,,,,0,,,Not running,,,,,,,,,,,0.011900,-0.850100,0.526400,0.000100,0.068762,0.341137,-0.936808,0.035903,-140.073,-8.820,-178.820,b6 00 00 00 00 00 00 9f 1e 9e fe 2c 02 1c 18 07 32 fe
0.167,fused,,0,0x07,"IMU0_OK, IMU1_OK, FUSION_READY",0.011900,-0.850100,0.526400,0.000100,-63.521,-63.521,0.728,-178.846,,,,,,,,,,,,,0,,,Not running,,,,,,,,,,,0.011900,-0.850100,0.526400,0.000100,1.000000,0.000000,-0.000000,0.000000,0.000,-0.000,-0.000,b6 00 00 00 00 00 00 77 00 cb de 90 14 01 00 07 00 e0
0.168,fused,,30,0x07,"IMU0_OK, IMU1_OK, FUSION_READY",0.867100,-0.029500,0.050300,0.494600,59.391,59.391,6.685,-0.081,,,,,,,,,,,,,0,,,Not running,,,,,,,,,,,0.011900,-0.850100,0.526400,0.000100,0.061930,0.476466,-0.876387,0.033034,-122.932,-8.049,179.935,b6 00 00 00 00 00 00 df 21 d9 fe f7 01 52 13 07 1e 77
0.168,fused,,40,0x07,"IMU0_OK, IMU1_OK, FUSION_READY",0.982700,0.051300,0.013700,-0.177100,-20.305,-20.305,2.585,5.513,,,,,,,,,,,,,0,,,Not running,,,,,,,,,,,0.011900,-0.850100,0.526400,0.000100,0.024725,-0.929327,0.366621,-0.036449,-43.162,-2.844,-175.827,b6 00 00 00 00 00 00 63 26 01 02 89 00 15 f9 07 28 0c
0.169,fused,,50,0x07,"IMU0_OK, IMU1_OK, FUSION_READY",0.784000,-0.035400,0.055200,0.617200,76.465,76.465,7.484,0.730,,,,,,,,,,,,,0,,,Not running,,,,,,,,,,,0.011900,-0.850100,0.526400,0.000100,0.068549,0.341203,-0.936812,0.035561,-140.063,-8.784,-178.849,b6 00 00 00 00 00 00 a0 1e 9e fe 28 02 1c 18 07 32 c5
0.169,fused,,0,0x07,"IMU0_OK, IMU1_OK, FUSION_READY",0.011900,-0.850100,0.526400,0.000100,-63.521,-63.521,0.728,-178.846,,,,,,,,,,,,,0,,,Not running,,,,,,,,,,,0.011900,-0.850100,0.526400,0.000100,1.000000,0.000000,-0.000000,0.000000,0.000,-0.000,-0.000,b6 00 00 00 00 00 00 77 00 cb de 90 14 01 00 07 00 e0
0.170,fused,,30,0x07,"IMU0_OK, IMU1_OK, FUSION_READY",0.867100,-0.029500,0.049500,0.494600,59.385,59.385,6.605,-0.127,,,,,,,,,,,,,0,,,Not running,,,,,,,,,,,0.011900,-0.850100,0.526400,0.000100,0.061511,0.476485,-0.876431,0.032355,-122.930,-7.970,179.890,b6 00 00 00 00 00 00 df 21 d9 fe ef 01 52 13 07 1e 6f
0.170,fused,,40,0x07,"IMU0_OK, IMU1_OK, FUSION_READY",0.982700,0.051100,0.013700,-0.177100,-20.306,-20.306,2.581,5.490,,,,,,,,,,,,,0,,,Not running,,,,,,,,,,,0.011900,-0.850100,0.526400,0.000100,0.024555,-0.929334,0.366625,-0.036344,-43.162,-2.840,-175.849,b6 00 00 00 00 00 00 63 26 ff 01 89 00 15 f9 07 28 f1
0.171,fused,,50,0x07,"IMU0_OK, IMU1_OK, FUSION_READY",0.784000,-0.035400,0.054800,0.617200,76.460,76.460,7.448,0.701,,,,,,,,,,,,,0,,,Not running,,,,,,,,,,,0.011900,-0.850100,0.526400,0.000100,0.068340,0.341210,-0.936838,0.035221,-140.061,-8.748,-178.878,b6 00 00 00 00 00 00 a0 1e 9e fe 24 02 1c 18 07 32 c9
0.171,fused,,0,0x07,"IMU0_OK, IMU1_OK, FUSION_READY",0.011900,-0.850100,0.526400,0.000100,-63.521,-63.521,0.728,-178.846,,,,,,,,,,,,,0,,,Not running,,,,,,,,,,,0.011900,-0.850100,0.526400,0.000100,1.000000,0.000000,-0.000000,0.000000,0.000,-0.000,-0.000,b6 00 00 00 00 00 00 77 00 cb de 90 14 01 00 07 00 e0
0.172,fused,,30,0x07,"IMU0_OK, IMU1_OK, FUSION_READY",0.867200,-0.029500,0.048600,0.494600,59.381,59.381,6.516,-0.178,,,,,,,,,,,,,0,,,Not running,,,,,,,,,,,0.011900,-0.850100,0.526400,0.000100,0.061036,0.476549,-0.876457,0.031588,-122.921,-7.880,179.838,b6 00 00 00 00 00 00 e0 21 d9 fe e6 01 52 13 07 1e 59
0.172,fused,,40,0x07,"IMU0_OK, IMU1_OK, FUSION_READY",0.982700,0.051000,0.013700,-0.177100,-20.306,-20.306,2.579,5.479,,,,,,,,,,,,,0,,,Not running,,,,,,,,,,,0.011900,-0.850100,0.526400,0.000100,0.024470,-0.929338,0.366626,-0.036291,-43.161,-2.838,-175.861,b6 00 00 00 00 00 00 63 26 fe 01 89 00 15 f9 07 28 f0
0.173,fused,,50,0x07,"IMU0_OK, IMU1_OK, FUSION_READY",0.784000,-0.035400,0.054300,0.617200,76.454,76.454,7.403,0.666,,,,,,,,,,,,,0,,,Not running,,,,,,,,,,,0.011900,-0.850100,0.526400,0.000100,0.068079,0.341219,-0.936869,0.034797,-140.058,-8.703,-178.914,b6 00 00 00 00 00 00 a0 1e 9e fe 1f 02 1c 18 07 32 f2
0.173,fused,,0,0x07,"IMU0_OK, IMU1_OK, FUSION_READY",0.011900,-0.850100,0.526400,0.000100,-63.521,-63.521,0.728,-178.846,,,,,,,,,,,,,0,,,Not running,,,,,,,,,,,0.011900,-0.850100,0.526400,0.000100,1.000000,0.000000,-0.000000,0.000000,0.000,-0.000,-0.000,b6 00 00 00 00 00 00 77 00 cb de 90 14 01 00 07 00 e0
0.173,fused,,30,0x07,"IMU0_OK, IMU1_OK, FUSION_READY",0.867200,-0.029500,0.047800,0.494700,59.389,59.389,6.436,-0.223,,,,,,,,,,,,,0,,,Not running,,,,,,,,,,,0.011900,-0.850100,0.526400,0.000100,0.060614,0.476491,-0.876542,0.030909,-122.929,-7.800,179.793,b6 00 00 00 00 00 00 e0 21 d9 fe de 01 53 13 07 1e 60
0.174,fused,,40,0x07,"IMU0_OK, IMU1_OK, FUSION_READY",0.982800,0.050800,0.013700,-0.177000,-20.296,-20.296,2.574,5.457,,,,,,,,,,,,,0,,,Not running,,,,,,,,,,,0.011900,-0.850100,0.526400,0.000100,0.024297,-0.929303,0.366738,-0.036185,-43.174,-2.833,-175.883,b6 00 00 00 00 00 00 64 26 fc 01 89 00 16 f9 07 28 f6
0.175,fused,,50,0x07,"IMU0_OK, IMU1_OK, FUSION_READY",0.784100,-0.035400,0.053900,0.617200,76.451,76.451,7.367,0.637,,,,,,,,,,,,,0,,,Not running,,,,,,,,,,,0.011900,-0.850100,0.526400,0.000100,0.067865,0.341285,-0.936873,0.034455,-140.049,-8.666,-178.943,b6 00 00 00 00 00 00 a1 1e 9e fe 1b 02 1c 18 07 32 f7
0.175,fused,,0,0x07,"IMU0_OK, IMU1_OK, FUSION_READY",0.011900,-0.850100,0.526400,0.000100,-63.521,-63.521,0.728,-178.846,,,,,,,,,,,,,0,,,Not running,,,,,,,,,,,0.011900,-0.850100,0.526400,0.000100,1.000000,0.000000,-0.000000,0.000000,0.000,-0.000,-0.000,b6 00 00 00 00 00 00 77 00 cb de 90 14 01 00 07 00 e0
0.176,fused,,30,0x07,"IMU0_OK, IMU1_OK, FUSION_READY",0.867200,-0.029500,0.046900,0.494700,59.382,59.382,6.346,-0.275,,,,,,,,,,,,,0,,,Not running,,,,,,,,,,,0.011900,-0.850100,0.526400,0.000100,0.060143,0.476512,-0.876590,0.030145,-122.926,-7.711,179.742,b6 00 00 00 00 00 00 e0 21 d9 fe d5 01 53 13 07 1e 6b
0.176,fused,,40,0x07,"IMU0_OK, IMU1_OK, FUSION_READY",0.982800,0.050600,0.013700,-0.177000,-20.296,-20.296,2.570,5.434,,,,,,,,,,,,,0,,,Not running,,,,,,,,,,,0.011900,-0.850100,0.526400,0.000100,0.024127,-0.929310,0.366742,-0.036080,-43.173,-2.829,-175.906,b6 00 00 00 00 00 00 64 26 fa 01 89 00 16 f9 07 28 f0
0.177,fused,,50,0x07,"IMU0_OK, IMU1_OK, FUSION_READY",0.784100,-0.035400,0.053500,0.617200,76.447,76.447,7.331,0.608,,,,,,,,,,,,,0,,,Not running,,,,,,,,,,,0.011900,-0.850100,0.526400,0.000100,0.067656,0.341292,-0.936898,0.034116,-140.046,-8.630,-178.972,b6 00 00 00 00 00 00 a1 1e 9e fe 17 02 1c 18 07 32 fb
0.177,fused,,0,0x07,"IMU0_OK, IMU1_OK, FUSION_READY",0.011900,-0.850100,0.526400,0.000100,-63.521,-63.521,0.728,-178.846,,,,,,,,,,,,,0,,,Not running,,,,,,,,,,,0.011900,-0.850100,0.526400,0.000100,1.000000,0.000000,-0.000000,0.000000,0.000,-0.000,-0.000,b6 00 00 00 00 00 00 77 00 cb de 90 14 01 00 07 00 e0
0.178,fused,,30,0x07,"IMU0_OK, IMU1_OK, FUSION_READY",0.867200,-0.029500,0.046100,0.494800,59.391,59.391,6.266,-0.320,,,,,,,,,,,,,0,,,Not running,,,,,,,,,,,0.011900,-0.850100,0.526400,0.000100,0.059721,0.476453,-0.876674,0.029466,-122.934,-7.631,179.697,b6 00 00 00 00 00 00 e0 21 d9 fe cd 01 54 13 07 1e 74
0.178,fused,,40,0x07,"IMU0_OK, IMU1_OK, FUSION_READY",0.982800,0.050400,0.013700,-0.177000,-20.297,-20.297,2.566,5.412,,,,,,,,,,,,,0,,,Not running,,,,,,,,,,,0.011900,-0.850100,0.526400,0.000100,0.023957,-0.929317,0.366746,-0.035975,-43.173,-2.825,-175.928,b6 00 00 00 00 00 00 64 26 f8 01 89 00 16 f9 07 28 f2
0.179,fused,,50,0x07,"IMU0_OK, IMU1_OK, FUSION_READY",0.784100,-0.035400,0.053100,0.617200,76.443,76.443,7.294,0.580,,,,,,,,,,,,,0,,,Not running,,,,,,,,,,,0.011900,-0.850100,0.526400,0.000100,0.067447,0.341299,-0.936923,0.033777,-140.044,-8.595,-179.000,b6 00 00 00 00 00 00 a1 1e 9e fe 13 02 1c 18 07 32 ff
0.179,fused,,0,0x07,"IMU0_OK, IMU1_OK, FUSION_READY",0.011800,-0.850100,0.526400,0.000100,-63.521,-63.521,0.722,-178.856,,,,,,,,,,,,,0,,,Not running,,,,,,,,,,,0.011800,-0.850100,0.526400,0.000100,1.000000,0.000000,-0.000000,0.000000,0.000,-0.000,-0.000,b6 00 00 00 00 00 00 76 00 cb de 90 14 01 00 07 00 e1
0.180,fused,,30,0x07,"IMU0_OK, IMU1_OK, FUSION_READY",0.867200,-0.029500,0.045300,0.494800,59.385,59.385,6.186,-0.365,,,,,,,,,,,,,0,,,Not running,,,,,,,,,,,0.011800,-0.850100,0.526400,0.000100,0.059215,0.476474,-0.876721,0.028737,-122.931,-7.540,179.651,b6 00 00 00 00 00 00 e0 21 d9 fe c5 01 54 13 07 1e 7c
0.180,fused,,40,0x07,"IMU0_OK, IMU1_OK, FUSION_READY",0.982800,0.050200,0.013800,-0.177000,-20.296,-20.296,2.573,5.387,,,,,,,,,,,,,0,,,Not running,,,,,,,,,,,0.011800,-0.850100,0.526400,0.000100,0.023833,-0.929318,0.366749,-0.035973,-43.173,-2.830,-175.942,b6 00 00 00 00 00 00 64 26 f6 01 8a 00 16 f9 07 28 ff
0.251,fused,,50,0x07,"IMU0_OK, IMU1_OK, FUSION_READY",0.784200,-0.035400,0.052700,0.617200,76.440,76.440,7.259,0.551,,,,,,,,,,,,,0,,,Not running,,,,,,,,,,,0.011800,-0.850100,0.526400,0.000100,0.067155,0.341369,-0.936933,0.033373,-140.034,-8.547,-179.033,b6 00 00 00 00 00 00 a2 1e 9e fe 0f 02 1c 18 07 32 e0
0.253,fused,,0,0x07,"IMU0_OK, IMU1_OK, FUSION_READY",0.011800,-0.850100,0.526400,0.000100,-63.521,-63.521,0.722,-178.856,,,,,,,,,,,,,0,,,Not running,,,,,,,,,,,0.011800,-0.850100,0.526400,0.000100,1.000000,0.000000,-0.000000,0.000000,0.000,-0.000,-0.000,b6 00 00 00 00 00 00 76 00 cb de 90 14 01 00 07 00 e1
0.253,fused,,30,0x07,"IMU0_OK, IMU1_OK, FUSION_READY",0.867200,-0.029600,0.044500,0.494900,59.394,59.394,6.112,-0.420,,,,,,,,,,,,,0,,,Not running,,,,,,,,,,,0.011800,-0.850100,0.526400,0.000100,0.058878,0.476412,-0.876801,0.028005,-122.939,-7.466,179.596,b6 00 00 00 00 00 00 e0 21 d8 fe bd 01 55 13 07 1e 04
0.254,fused,,40,0x07,"IMU0_OK, IMU1_OK, FUSION_READY",0.982800,0.050000,0.013700,-0.176900,-20.285,-20.285,2.557,5.366,,,,,,,,,,,,,0,,,Not running,,,,,,,,,,,0.011800,-0.850100,0.526400,0.000100,0.023717,-0.929290,0.366846,-0.035785,-43.183,-2.815,-175.962,b6 00 00 00 00 00 00 64 26 f4 01 89 00 17 f9 07 28 ff
0.254,fused,,50,0x07,"IMU0_OK, IMU1_OK, FUSION_READY",0.784200,-0.035400,0.052300,0.617200,76.436,76.436,7.223,0.522,,,,,,,,,,,,,0,,,Not running,,,,,,,,,,,0.011800,-0.850100,0.526400,0.000100,0.066946,0.341376,-0.936958,0.033034,-140.032,-8.511,-179.062,b6 00 00 00 00 00 00 a2 1e 9e fe 0b 02 1c 18 07 32 e4
0.255,fused,,0,0x07,"IMU0_OK, IMU1_OK, FUSION_READY",0.011800,-0.850100,0.526400,0.000100,-63.521,-63.521,0.722,-178.856,,,,,,,,,,,,,0,,,Not running,,,,,,,,,,,0.011800,-0.850100,0.526400,0.000100,1.000000,0.000000,-0.000000,0.000000,0.000,-0.000,-0.000,b6 00 00 00 00 00 00 76 00 cb de 90 14 01 00 07 00 e1
0.256,fused,,30,0x07,"IMU0_OK, IMU1_OK, FUSION_READY",0.867300,-0.029600,0.043700,0.494900,59.392,59.392,6.033,-0.466,,,,,,,,,,,,,0,,,Not running,,,,,,,,,,,0.011800,-0.850100,0.526400,0.000100,0.058455,0.476473,-0.876818,0.027323,-122.931,-7.386,179.550,b6 00 00 00 00 00 00 e1 21 d8 fe b5 01 55 13 07 1e 0d
0.256,fused,,40,0x07,"IMU0_OK, IMU1_OK, FUSION_READY",0.982800,0.049800,0.013800,-0.176900,-20.285,-20.285,2.565,5.342,,,,,,,,,,,,,0,,,Not running,,,,,,,,,,,0.011800,-0.850100,0.526400,0.000100,0.023494,-0.929296,0.366848,-0.035765,-43.183,-2.822,-175.987,b6 00 00 00 00 00 00 64 26 f2 01 8a 00 17 f9 07 28 fa
0.257,fused,,50,0x07,"IMU0_OK, IMU1_OK, FUSION_READY",0.784200,-0.035400,0.051900,0.617200,76.431,76.431,7.186,0.493,,,,,,,,,,,,,0,,,Not running,,,,,,,,,,,0.011800,-0.850100,0.526400,0.000100,0.066737,0.341383,-0.936982,0.032694,-140.030,-8.475,-179.090,b6 00 00 00 00 00 00 a2 1e 9e fe 07 02 1c 18 07 32 e8
0.257,fused,,0,0x07,"IMU0_OK, IMU1_OK, FUSION_READY",0.011800,-0.850100,0.526400,0.000100,-63.521,-63.521,0.722,-178.856,,,,,,,,,,,,,0,,,Not running,,,,,,,,,,,0.011800,-0.850100,0.526400,0.000100,1.000000,0.000000,-0.000000,0.000000,0.000,-0.000,-0.000,b6 00 00 00 00 00 00 76 00 cb de 90 14 01 00 07 00 e1
0.258,fused,,30,0x07,"IMU0_OK, IMU1_OK, FUSION_READY",0.867300,-0.029600,0.043000,0.494900,59.387,59.387,5.963,-0.506,,,,,,,,,,,,,0,,,Not running,,,,,,,,,,,0.011800,-0.850100,0.526400,0.000100,0.058089,0.476487,-0.876853,0.026729,-122.929,-7.316,179.510,b6 00 00 00 00 00 00 e1 21 d8 fe ae 01 55 13 07 1e 16
0.258,fused,,40,0x07,"IMU0_OK, IMU1_OK, FUSION_READY",0.982800,0.049600,0.013800,-0.176900,-20.285,-20.285,2.560,5.319,,,,,,,,,,,,,0,,,Not running,,,,,,,,,,,0.011800,-0.850100,0.526400,0.000100,0.023324,-0.929303,0.366852,-0.035660,-43.182,-2.818,-176.009,b6 00 00 00 00 00 00 64 26 f0 01 8a 00 17 f9 07 28 f8
0.259,fused,,50,0x07,"IMU0_OK, IMU1_OK, FUSION_READY",0.784200,-0.035400,0.051500,0.617200,76.427,76.427,7.150,0.465,,,,,,,,,,,,,0,,,Not running,,,,,,,,,,,0.011800,-0.850100,0.526400,0.000100,0.066528,0.341390,-0.937006,0.032355,-140.027,-8.440,-179.119,b6 00 00 00 00 00 00 a2 1e 9e fe 03 02 1c 18 07 32 ec
0.259,fused,,0,0x07,"IMU0_OK, IMU1_OK, FUSION_READY",0.011800,-0.850100,0.526400,0.000100,-63.521,-63.521,0.722,-178.856,,,,,,,,,,,,,0,,,Not running,,,,,,,,,,,0.011800,-0.850100,0.526400,0.000100,1.000000,0.000000,-0.000000,0.000000,0.000,-0.000,-0.000,b6 00 00 00 00 00 00 76 00 cb de 90 14 01 00 07 00 e1
0.260,fused,,30,0x07,"IMU0_OK, IMU1_OK, FUSION_READY",0.867300,-0.029600,0.042200,0.495000,59.396,59.396,5.883,-0.551,,,,,,,,,,,,,0,,,Not running,,,,,,,,,,,0.011800,-0.850100,0.526400,0.000100,0.057667,0.476427,-0.876934,0.026050,-122.937,-7.236,179.465,b6 00 00 00 00 00 00 e1 21 d8 fe a6 01 56 13 07 1e 1d
0.260,fused,,40,0x07,"IMU0_OK, IMU1_OK, FUSION_READY",0.982800,0.049500,0.013800,-0.176900,-20.285,-20.285,2.558,5.308,,,,,,,,,,,,,0,,,Not running,,,,,,,,,,,0.011800,-0.850100,0.526400,0.000100,0.023239,-0.929306,0.366854,-0.035607,-43.182,-2.816,-176.020,b6 00 00 00 00 00 00 64 26 ef 01 8a 00 17 f9 07 28 e7
0.261,fused,,50,0x07,"IMU0_OK, IMU1_OK, FUSION_READY",0.784300,-0.035400,0.051100,0.617200,76.425,76.425,7.115,0.436,,,,,,,,,,,,,0,,,Not running,,,,,,,,,,,0.011800,-0.850100,0.526400,0.000100,0.066315,0.341455,-0.937009,0.032013,-140.018,-8.403,-179.148,b6 00 00 00 00 00 00 a3 1e 9e fe ff 01 1c 18 07 32 12
0.261,fused,,0,0x07,"IMU0_OK, IMU1_OK, FUSION_READY",0.011800,-0.850100,0.526400,0.000100,-63.521,-63.521,0.722,-178.856,,,,,,,,,,,,,0,,,Not running,,,,,,,,,,,0.011800,-0.850100,0.526400,0.000100,1.000000,0.000000,-0.000000,0.000000,0.000,-0.000,-0.000,b6 00 00 00 00 00 00 76 00 cb de 90 14 01 00 07 00 e1
0.262,fused,,30,0x07,"IMU0_OK, IMU1_OK, FUSION_READY",0.867300,-0.029600,0.041500,0.495000,59.392,59.392,5.813,-0.591,,,,,,,,,,,,,0,,,Not running,,,,,,,,,,,0.011800,-0.850100,0.526400,0.000100,0.057300,0.476441,-0.876968,0.025455,-122.935,-7.167,179.425,b6 00 00 00 00 00 00 e1 21 d8 fe 9f 01 56 13 07 1e 24
0.262,fused,,40,0x07,"IMU0_OK, IMU1_OK, FUSION_READY",0.982900,0.049300,0.013700,-0.176800,-20.276,-20.276,2.543,5.288,,,,,,,,,,,,,0,,,Not running,,,,,,,,,,,0.011800,-0.850100,0.526400,0.000100,0.023119,-0.929272,0.366967,-0.035416,-43.195,-2.800,-176.041,b6 00 00 00 00 00 00 65 26 ed 01 89 00 18 f9 07 28 e8
0.263,fused,,50,0x07,"IMU0_OK, IMU1_OK, FUSION_READY",0.784300,-0.035300,0.050800,0.617200,76.421,76.421,7.080,0.424,,,,,,,,,,,,,0,,,Not running,,,,,,,,,,,0.011800,-0.850100,0.526400,0.000100,0.066073,0.341463,-0.937030,0.031811,-140.017,-8.369,-179.161,b6 00 00 00 00 00 00 a3 1e 9f fe fc 01 1c 18 07 32 10
0.263,fused,,0,0x07,"IMU0_OK, IMU1_OK, FUSION_READY",0.011800,-0.850100,0.526400,0.000100,-63.521,-63.521,0.722,-178.856,,,,,,,,,,,,,0,,,Not running,,,,,,,,,,,0.011800,-0.850100,0.526400,0.000100,1.000000,0.000000,-0.000000,0.000000,0.000,-0.000,-0.000,b6 00 00 00 00 00 00 76 00 cb de 90 14 01 00 07 00 e1
0.264,fused,,30,0x07,"IMU0_OK, IMU1_OK, FUSION_READY",0.867300,-0.029600,0.040700,0.495100,59.401,59.401,5.734,-0.636,,,,,,,,,,,,,0,,,Not running,,,,,,,,,,,0.011800,-0.850100,0.526400,0.000100,0.056878,0.476380,-0.877048,0.024776,-122.943,-7.087,179.380,b6 00 00 00 00 00 00 e1 21 d8 fe 97 01 57 13 07 1e 2d
0.264,fused,,40,0x07,"IMU0_OK, IMU1_OK, FUSION_READY",0.982900,0.049100,0.013700,-0.176800,-20.276,-20.276,2.539,5.265,,,,,,,,,,,,,0,,,Not running,,,,,,,,,,,0.011800,-0.850100,0.526400,0.000100,0.022949,-0.929279,0.366971,-0.035311,-43.194,-2.796,-176.064,b6 00 00 00 00 00 00 65 26 eb 01 89 00 18 f9 07 28 ee
0.265,fused,,50,0x07,"IMU0_OK, IMU1_OK, FUSION_READY",0.784300,-0.035300,0.050400,0.617200,76.417,76.417,7.044,0.395,,,,,,,,,,,,,0,,,Not running,,,,,,,,,,,0.011800,-0.850100,0.526400,0.000100,0.065864,0.341470,-0.937054,0.031472,-140.015,-8.333,-179.189,b6 00 00 00 00 00 00 a3 1e 9f fe f8 01 1c 18 07 32 14
0.265,fused,,0,0x07,"IMU0_OK, IMU1_OK, FUSION_READY",0.011800,-0.850100,0.526400,0.000100,-63.521,-63.521,0.722,-178.856,,,,,,,,,,,,,0,,,Not running,,,,,,,,,,,0.011800,-0.850100,0.526400,0.000100,1.000000,0.000000,-0.000000,0.000000,0.000,-0.000,-0.000,b6 00 00 00 00 00 00 76 00 cb de 90 14 01 00 07 00 e1
0.266,fused,,30,0x07,"IMU0_OK, IMU1_OK, FUSION_READY",0.867300,-0.029600,0.040000,0.495100,59.397,59.397,5.664,-0.676,,,,,,,,,,,,,0,,,Not running,,,,,,,,,,,0.011800,-0.850100,0.526400,0.000100,0.056511,0.476394,-0.877081,0.024181,-122.942,-7.017,179.340,b6 00 00 00 00 00 00 e1 21 d8 fe 90 01 57 13 07 1e 2a
0.266,fused,,40,0x07,"IMU0_OK, IMU1_OK, FUSION_READY",0.982900,0.048900,0.013800,-0.176800,-20.276,-20.276,2.546,5.241,,,,,,,,,,,,,0,,,Not running,,,,,,,,,,,0.011800,-0.850100,0.526400,0.000100,0.022727,-0.929284,0.366973,-0.035291,-43.194,-2.803,-176.088,b6 00 00 00 00 00 00 65 26 e9 01 8a 00 18 f9 07 28 ef
0.266,fused,,50,0x07,"IMU0_OK, IMU1_OK, FUSION_READY",0.784400,-0.035300,0.050100,0.617100,76.400,76.400,7.017,0.373,,,,,,,,,,,,,0,,,Not running,,,,,,,,,,,0.011800,-0.850100,0.526400,0.000100,0.065707,0.341607,-0.937023,0.031215,-139.997,-8.306,-179.212,b6 00 00 00 00 00 00 a4 1e 9f fe f5 01 1b 18 07 32 19
0.330,fused,,0,0x07,"IMU0_OK, IMU1_OK, FUSION_READY",0.011800,-0.850100,0.526400,0.000100,-63.521,-63.521,0.722,-178.856,,,,,,,,,,,,,0,,,Not running,,,,,,,,,,,0.011800,-0.850100,0.526400,0.000100,1.000000,0.000000,-0.000000,0.000000,0.000,-0.000,-0.000,b6 00 00 00 00 00 00 76 00 cb de 90 14 01 00 07 00 e1
0.331,fused,,30,0x07,"IMU0_OK, IMU1_OK, FUSION_READY",0.867400,-0.029600,0.039300,0.495100,59.396,59.396,5.595,-0.716,,,,,,,,,,,,,0,,,Not running,,,,,,,,,,,0.011800,-0.850100,0.526400,0.000100,0.056140,0.476450,-0.877090,0.023585,-122.934,-6.947,179.300,b6 00 00 00 00 00 00 e2 21 d8 fe 89 01 57 13 07 1e 30
0.331,fused,,40,0x07,"IMU0_OK, IMU1_OK, FUSION_READY",0.982900,0.048800,0.013800,-0.176800,-20.276,-20.276,2.544,5.229,,,,,,,,,,,,,0,,,Not running,,,,,,,,,,,0.011800,-0.850100,0.526400,0.000100,0.022642,-0.929288,0.366974,-0.035238,-43.193,-2.801,-176.099,b6 00 00 00 00 00 00 65 26 e8 01 8a 00 18 f9 07 28 ee
0.332,fused,,50,0x07,"IMU0_OK, IMU1_OK, FUSION_READY",0.784400,-0.035300,0.049700,0.617100,76.396,76.396,6.981,0.344,,,,,,,,,,,,,0,,,Not running,,,,,,,,,,,0.011800,-0.850100,0.526400,0.000100,0.065497,0.341614,-0.937047,0.030876,-139.995,-8.270,-179.241,b6 00 00 00 00 00 00 a4 1e 9f fe f1 01 1b 18 07 32 1d
0.332,fused,,0,0x07,"IMU0_OK, IMU1_OK, FUSION_READY",0.011700,-0.850100,0.526400,0.000100,-63.521,-63.521,0.716,-178.866,,,,,,,,,,,,,0,,,Not running,,,,,,,,,,,0.011700,-0.850100,0.526400,0.000100,1.000000,0.000000,-0.000000,-0.000000,-0.000,-0.000,0.000,b6 00 00 00 00 00 00 75 00 cb de 90 14 01 00 07 00 e2
0.333,fused,,30,0x07,"IMU0_OK, IMU1_OK, FUSION_READY",0.867400,-0.029600,0.038600,0.495200,59.406,59.406,5.525,-0.755,,,,,,,,,,,,,0,,,Not running,,,,,,,,,,,0.011700,-0.850100,0.526400,0.000100,0.055684,0.476391,-0.877169,0.022941,-122.943,-6.866,179.261,b6 00 00 00 00 00 00 e2 21 d8 fe 82 01 58 13 07 1e 34
0.333,fused,,40,0x07,"IMU0_OK, IMU1_OK, FUSION_READY",0.982900,0.048600,0.013800,-0.176700,-20.265,-20.265,2.539,5.207,,,,,,,,,,,,,0,,,Not running,,,,,,,,,,,0.011700,-0.850100,0.526400,0.000100,0.022571,-0.929254,0.367071,-0.035153,-43.205,-2.795,-176.110,b6 00 00 00 00 00 00 65 26 e6 01 8a 00 19 f9 07 28 e1
0.334,fused,,50,0x07,"IMU0_OK, IMU1_OK, FUSION_READY",0.784400,-0.035300,0.049400,0.617100,76.393,76.393,6.954,0.323,,,,,,,,,,,,,0,,,Not running,,,,,,,,,,,0.011700,-0.850100,0.526400,0.000100,0.065262,0.341623,-0.937070,0.030559,-139.993,-8.232,-179.266,b6 00 00 00 00 00 00 a4 1e 9f fe ee 01 1b 18 07 32 02
0.336,fused,,0,0x07,"IMU0_OK, IMU1_OK, FUSION_READY",0.011700,-0.850100,0.526400,0.000100,-63.521,-63.521,0.716,-178.866,,,,,,,,,,,,,0,,,Not running,,,,,,,,,,,0.011700,-0.850100,0.526400,0.000100,1.000000,0.000000,-0.000000,-0.000000,-0.000,-0.000,0.000,b6 00 00 00 00 00 00 75 00 cb de 90 14 01 00 07 00 e2
0.336,fused,,30,0x07,"IMU0_OK, IMU1_OK, FUSION_READY",0.867400,-0.029600,0.037900,0.495200,59.402,59.402,5.455,-0.795,,,,,,,,,,,,,0,,,Not running,,,,,,,,,,,0.011700,-0.850100,0.526400,0.000100,0.055317,0.476403,-0.877200,0.022346,-122.941,-6.796,179.221,b6 00 00 00 00 00 00 e2 21 d8 fe 7b 01 58 13 07 1e cd
0.337,fused,,40,0x07,"IMU0_OK, IMU1_OK, FUSION_READY",0.982900,0.048400,0.013800,-0.176700,-20.265,-20.265,2.535,5.184,,,,,,,,,,,,,0,,,Not running,,,,,,,,,,,0.011700,-0.850100,0.526400,0.000100,0.022401,-0.929261,0.367075,-0.035048,-43.204,-2.791,-176.133,b6 00 00 00 00 00 00 65 26 e4 01 8a 00 19 f9 07 28 e3
0.338,fused,,50,0x07,"IMU0_OK, IMU1_OK, FUSION_READY",0.784500,-0.035300,0.049000,0.617100,76.390,76.390,6.918,0.294,,,,,,,,,,,,,0,,,Not running,,,,,,,,,,,0.011700,-0.850100,0.526400,0.000100,0.065049,0.341687,-0.937073,0.030218,-139.983,-8.196,-179.295,b6 00 00 00 00 00 00 a5 1e 9f fe ea 01 1b 18 07 32 07
0.338,fused,,0,0x07,"IMU0_OK, IMU1_OK, FUSION_READY",0.011700,-0.850100,0.526400,0.000100,-63.521,-63.521,0.716,-178.866,,,,,,,,,,,,,0,,,Not running,,,,,,,,,,,0.011700,-0.850100,0.526400,0.000100,1.000000,0.000000,-0.000000,-0.000000,-0.000,-0.000,0.000,b6 00 00 00 00 00 00 75 00 cb de 90 14 01 00 07 00 e2
0.339,fused,,30,0x07,"IMU0_OK, IMU1_OK, FUSION_READY",0.867400,-0.029600,0.037300,0.495200,59.399,59.399,5.395,-0.829,,,,,,,,,,,,,0,,,Not running,,,,,,,,,,,0.011700,-0.850100,0.526400,0.000100,0.055002,0.476414,-0.877227,0.021837,-122.940,-6.737,179.187,b6 00 00 00 00 00 00 e2 21 d8 fe 75 01 58 13 07 1e c3
0.340,fused,,40,0x07,"IMU0_OK, IMU1_OK, FUSION_READY",0.982900,0.048300,0.013800,-0.176700,-20.265,-20.265,2.533,5.173,,,,,,,,,,,,,0,,,Not running,,,,,,,,,,,0.011700,-0.850100,0.526400,0.000100,0.022316,-0.929264,0.367077,-0.034995,-43.204,-2.789,-176.144,b6 00 00 00 00 00 00 65 26 e3 01 8a 00 19 f9 07 28 e4
0.340,fused,,50,0x07,"IMU0_OK, IMU1_OK, FUSION_READY",0.784500,-0.035300,0.048700,0.617100,76.387,76.387,6.891,0.272,,,,,,,,,,,,,0,,,Not running,,,,,,,,,,,0.011700,-0.850100,0.526400,0.000100,0.064892,0.341692,-0.937090,0.029963,-139.982,-8.169,-179.316,b6 00 00 00 00 00 00 a5 1e 9f fe e7 01 1b 18 07 32 0a
0.341,fused,,0,0x07,"IMU0_OK, IMU1_OK, FUSION_READY",0.011700,-0.850100,0.526400,0.000100,-63.521,-63.521,0.716,-178.866,,,,,,,,,,,,,0,,,Not running,,,,,,,,,,,0.011700,-0.850100,0.526400,0.000100,1.000000,0.000000,-0.000000,-0.000000,-0.000,-0.000,0.000,b6 00 00 00 00 00 00 75 00 cb de 90 14 01 00 07 00 e2
0.341,fused,,30,0x07,"IMU0_OK, IMU1_OK, FUSION_READY",0.867400,-0.029600,0.036600,0.495300,59.410,59.410,5.326,-0.869,,,,,,,,,,,,,0,,,Not running,,,,,,,,,,,0.011700,-0.850100,0.526400,0.000100,0.054632,0.476350,-0.877300,0.021242,-122.949,-6.667,179.148,b6 00 00 00 00 00 00 e2 21 d8 fe 6e 01 59 13 07 1e d9
0.342,fused,,40,0x07,"IMU0_OK, IMU1_OK, FUSION_READY",0.983000,0.048100,0.013800,-0.176600,-20.255,-20.255,2.529,5.151,,,,,,,,,,,,,0,,,Not running,,,,,,,,,,,0.011700,-0.850100,0.526400,0.000100,0.022143,-0.929228,0.367188,-0.034889,-43.216,-2.784,-176.167,b6 00 00 00 00 00 00 66 26 e1 01 8a 00 1a f9 07 28 e6
0.342,fused,,50,0x07,"IMU0_OK, IMU1_OK, FUSION_READY",0.784500,-0.035300,0.048300,0.617100,76.383,76.383,6.855,0.244,,,,,,,,,,,,,0,,,Not running,,,,,,,,,,,0.011700,-0.850100,0.526400,0.000100,0.064683,0.341699,-0.937113,0.029623,-139.980,-8.133,-179.345,b6 00 00 00 00 00 00 a5 1e 9f fe e3 01 1b 18 07 32 0e
0.343,fused,,0,0x07,"IMU0_OK, IMU1_OK, FUSION_READY",0.011700,-0.850100,0.526400,0.000100,-63.521,-63.521,0.716,-178.866,,,,,,,,,,,,,0,,,Not running,,,,,,,,,,,0.011700,-0.850100,0.526400,0.000100,1.000000,0.000000,-0.000000,-0.000000,-0.000,-0.000,0.000,b6 00 00 00 00 00 00 75 00 cb de 90 14 01 00 07 00 e2
0.343,fused,,30,0x07,"IMU0_OK, IMU1_OK, FUSION_READY",0.867400,-0.029600,0.035900,0.495300,59.406,59.406,5.256,-0.908,,,,,,,,,,,,,0,,,Not running,,,,,,,,,,,0.011700,-0.850100,0.526400,0.000100,0.054265,0.476362,-0.877330,0.020648,-122.948,-6.597,179.108,b6 00 00 00 00 00 00 e2 21 d8 fe 67 01 59 13 07 1e d0
0.344,fused,,40,0x07,"IMU0_OK, IMU1_OK, FUSION_READY",0.983000,0.048000,0.013800,-0.176600,-20.256,-20.256,2.527,5.139,,,,,,,,,,,,,0,,,Not running,,,,,,,,,,,0.011700,-0.850100,0.526400,0.000100,0.022058,-0.929232,0.367190,-0.034836,-43.216,-2.782,-176.178,b6 00 00 00 00 00 00 66 26 e0 01 8a 00 1a f9 07 28 e7
0.344,fused,,50,0x07,"IMU0_OK, IMU1_OK, FUSION_READY",0.784500,-0.035300,0.048000,0.617100,76.381,76.381,6.827,0.223,,,,,,,,,,,,,0,,,Not running,,,,,,,,,,,0.011700,-0.850100,0.526400,0.000100,0.064526,0.341704,-0.937130,0.029369,-139.978,-8.106,-179.366,b6 00 00 00 00 00 00 a5 1e 9f fe e0 01 1b 18 07 32 0d
0.345,fused,,0,0x07,"IMU0_OK, IMU1_OK, FUSION_READY",0.011700,-0.850100,0.526300,0.000100,-63.506,-63.506,0.715,-178.866,,,,,,,,,,,,,0,,,Not running,,,,,,,,,,,0.011700,-0.850100,0.526300,0.000100,1.000000,0.000000,0.000000,-0.000000,-0.000,0.000,-0.000,b6 00 00 00 00 00 00 75 00 cb de 8f 14 01 00 07 00 fd
0.345,fused,,30,0x07,"IMU0_OK, IMU1_OK, FUSION_READY",0.867400,-0.029600,0.035300,0.495300,59.403,59.403,5.196,-0.943,,,,,,,,,,,,,0,,,Not running,,,,,,,,,,,0.011700,-0.850100,0.526300,0.000100,0.053950,0.476447,-0.877315,0.020142,-122.937,-6.538,179.073,b6 00 00 00 00 00 00 e2 21 d8 fe 61 01 59 13 07 1e d6
0.346,fused,,40,0x07,"IMU0_OK, IMU1_OK, FUSION_READY",0.983000,0.047800,0.013800,-0.176600,-20.256,-20.256,2.523,5.117,,,,,,,,,,,,,0,,,Not running,,,,,,,,,,,0.011700,-0.850100,0.526300,0.000100,0.021891,-0.929269,0.367114,-0.034728,-43.206,-2.778,-176.201,b6 00 00 00 00 00 00 66 26 de 01 8a 00 1a f9 07 28 d9
0.348,fused,,50,0x07,"IMU0_OK, IMU1_OK, FUSION_READY",0.784600,-0.035300,0.047700,0.617100,76.379,76.379,6.801,0.201,,,,,,,,,,,,,0,,,Not running,,,,,,,,,,,0.011700,-0.850100,0.526300,0.000100,0.064363,0.341847,-0.937097,0.029117,-139.960,-8.079,-179.389,b6 00 00 00 00 00 00 a6 1e 9f fe dd 01 1b 18 07 32 33
0.349,fused,,0,0x07,"IMU0_OK, IMU1_OK, FUSION_READY",0.011700,-0.850100,0.526300,0.000100,-63.506,-63.506,0.715,-178.866,,,,,,,,,,,,,0,,,Not running,,,,,,,,,,,0.011700,-0.850100,0.526300,0.000100,1.000000,0.000000,0.000000,-0.000000,-0.000,0.000,-0.000,b6 00 00 00 00 00 00 75 00 cb de 8f 14 01 00 07 00 fd
0.349,fused,,30,0x07,"IMU0_OK, IMU1_OK, FUSION_READY",0.867400,-0.029600,0.034600,0.495400,59.414,59.414,5.126,-0.982,,,,,,,,,,,,,0,,,Not running,,,,,,,,,,,0.011700,-0.850100,0.526300,0.000100,0.053580,0.476382,-0.877387,0.019548,-122.945,-6.468,179.034,b6 00 00 00 00 00 00 e2 21 d8 fe 5a 01 5a 13 07 1e ee
0.350,fused,,40,0x07,"IMU0_OK, IMU1_OK, FUSION_READY",0.983000,0.047700,0.013800,-0.176600,-20.256,-20.256,2.521,5.106,,,,,,,,,,,,,0,,,Not running,,,,,,,,,,,0.011700,-0.850100,0.526300,0.000100,0.021806,-0.929273,0.367116,-0.034676,-43.206,-2.776,-176.212,b6 00 00 00 00 00 00 66 26 dd 01 8a 00 1a f9 07 28 da
0.351,fused,,50,0x07,"IMU0_OK, IMU1_OK, FUSION_READY",0.784600,-0.035200,0.047400,0.617100,76.376,76.376,6.767,0.188,,,,,,,,,,,,,0,,,Not running,,,,,,,,,,,0.011700,-0.850100,0.526300,0.000100,0.064121,0.341854,-0.937117,0.028915,-139.959,-8.045,-179.401,b6 00 00 00 00 00 00 a6 1e a0 fe da 01 1b 18 07 32 0b
0.352,fused,,0,0x07,"IMU0_OK, IMU1_OK, FUSION_READY",0.011700,-0.850100,0.526300,0.000100,-63.506,-63.506,0.715,-178.866,,,,,,,,,,,,,0,,,Not running,,,,,,,,,,,0.011700,-0.850100,0.526300,0.000100,1.000000,0.000000,0.000000,-0.000000,-0.000,0.000,-0.000,b6 00 00 00 00 00 00 75 00 cb de 8f 14 01 00 07 00 fd
0.353,fused,,30,0x07,"IMU0_OK, IMU1_OK, FUSION_READY",0.867400,-0.029700,0.034000,0.495400,59.411,59.411,5.072,-1.026,,,,,,,,,,,,,0,,,Not running,,,,,,,,,,,0.011700,-0.850100,0.526300,0.000100,0.053350,0.476389,-0.877409,0.018985,-122.944,-6.414,178.990,b6 00 00 00 00 00 00 e2 21 d7 fe 54 01 5a 13 07 1e ef
0.354,fused,,40,0x07,"IMU0_OK, IMU1_OK, FUSION_READY",0.983000,0.047500,0.013800,-0.176500,-20.244,-20.244,2.516,5.083,,,,,,,,,,,,,0,,,Not running,,,,,,,,,,,0.011700,-0.850100,0.526300,0.000100,0.021637,-0.929243,0.367211,-0.034573,-43.216,-2.772,-176.234,b6 00 00 00 00 00 00 66 26 db 01 8a 00 1b f9 07 28 dd
0.354,fused,,50,0x07,"IMU0_OK, IMU1_OK, FUSION_READY",0.784600,-0.035200,0.047100,0.617100,76.374,76.374,6.739,0.167,,,,,,,,,,,,,0,,,Not running,,,,,,,,,,,0.011700,-0.850100,0.526300,0.000100,0.063964,0.341859,-0.937134,0.028660,-139.957,-8.018,-179.422,b6 00 00 00 00 00 00 a6 1e a0 fe d7 01 1b 18 07 32 06
0.355,fused,,0,0x07,"IMU0_OK, IMU1_OK, FUSION_READY",0.011700,-0.850100,0.526400,0.000100,-63.521,-63.521,0.716,-178.866,,,,,,,,,,,,,0,,,Not running,,,,,,,,,,,0.011700,-0.850100,0.526400,0.000100,1.000000,0.000000,-0.000000,-0.000000,-0.000,-0.000,0.000,b6 00 00 00 00 00 00 75 00 cb de 90 14 01 00 07 00 e2
0.355,fused,,30,0x07,"IMU0_OK, IMU1_OK, FUSION_READY",0.867400,-0.029700,0.033400,0.495400,59.408,59.408,5.012,-1.060,,,,,,,,,,,,,0,,,Not running,,,,,,,,,,,0.011700,-0.850100,0.526400,0.000100,0.053036,0.476324,-0.877474,0.018471,-122.953,-6.354,178.956,b6 00 00 00 00 00 00 e2 21 d7 fe 4e 01 5a 13 07 1e f5
0.356,fused,,40,0x07,"IMU0_OK, IMU1_OK, FUSION_READY",0.983000,0.047400,0.013800,-0.176500,-20.244,-20.244,2.514,5.072,,,,,,,,,,,,,0,,,Not running,,,,,,,,,,,0.011700,-0.850100,0.526400,0.000100,0.021549,-0.929215,0.367292,-0.034523,-43.226,-2.770,-176.245,b6 00 00 00 00 00 00 66 26 da 01 8a 00 1b f9 07 28 dc
0.356,fused,,50,0x07,"IMU0_OK, IMU1_OK, FUSION_READY",0.784600,-0.035200,0.046800,0.617100,76.371,76.371,6.712,0.146,,,,,,,,,,,,,0,,,Not running,,,,,,,,,,,0.011700,-0.850100,0.526400,0.000100,0.063809,0.341784,-0.937180,0.028401,-139.966,-7.991,-179.444,b6 00 00 00 00 00 00 a6 1e a0 fe d4 01 1b 18 07 32 05
0.357,fused,,0,0x07,"IMU0_OK, IMU1_OK, FUSION_READY",0.011600,-0.850100,0.526400,0.000100,-63.521,-63.521,0.709,-178.876,,,,,,,,,,,,,0,,,Not running,,,,,,,,,,,0.011600,-0.850100,0.526400,0.000100,1.000000,0.000000,0.000000,0.000000,0.000,0.000,0.000,b6 00 00 00 00 00 00 74 00 cb de 90 14 01 00 07 00 e3
0.357,fused,,30,0x07,"IMU0_OK, IMU1_OK, FUSION_READY",0.867400,-0.029700,0.032800,0.495500,59.420,59.420,4.953,-1.094,,,,,,,,,,,,,0,,,Not running,,,,,,,,,,,0.011600,-0.850100,0.526400,0.000100,0.052632,0.476261,-0.877545,0.017912,-122.962,-6.283,178.922,b6 00 00 00 00 00 00 e2 21 d7 fe 48 01 5b 13 07 1e f2
0.419,fused,,40,0x07,"IMU0_OK, IMU1_OK, FUSION_READY",0.983000,0.047300,0.013800,-0.176500,-20.245,-20.245,2.512,5.060,,,,,,,,,,,,,0,,,Not running,,,,,,,,,,,0.011600,-0.850100,0.526400,0.000100,0.021563,-0.929215,0.367295,-0.034488,-43.226,-2.766,-176.245,b6 00 00 00 00 00 00 66 26 d9 01 8a 00 1b f9 07 28 df
0.419,fused,,50,0x07,"IMU0_OK, IMU1_OK, FUSION_READY",0.784700,-0.035200,0.046500,0.617100,76.370,76.370,6.686,0.124,,,,,,,,,,,,,0,,,Not running,,,,,,,,,,,0.011600,-0.850100,0.526400,0.000100,0.063570,0.341851,-0.937181,0.028082,-139.957,-7.952,-179.469,b6 00 00 00 00 00 00 a7 1e a0 fe d1 01 1b 18 07 32 01
0.420,fused,,0,0x07,"IMU0_OK, IMU1_OK, FUSION_READY",0.011600,-0.850100,0.526400,0.000100,-63.521,-63.521,0.709,-178.876,,,,,,,,,,,,,0,,,Not running,,,,,,,,,,,0.011600,-0.850100,0.526400,0.000100,1.000000,0.000000,0.000000,0.000000,0.000,0.000,0.000,b6 00 00 00 00 00 00 74 00 cb de 90 14 01 00 07 00 e3
0.420,fused,,30,0x07,"IMU0_OK, IMU1_OK, FUSION_READY",0.867400,-0.029700,0.032200,0.495500,59.417,59.417,4.893,-1.128,,,,,,,,,,,,,0,,,Not running,,,,,,,,,,,0.011600,-0.850100,0.526400,0.000100,0.052317,0.476270,-0.877569,0.017403,-122.961,-6.223,178.888,b6 00 00 00 00 00 00 e2 21 d7 fe 42 01 5b 13 07 1e f8
0.421,fused,,40,0x07,"IMU0_OK, IMU1_OK, FUSION_READY",0.983000,0.047100,0.013800,-0.176500,-20.245,-20.245,2.508,5.038,,,,,,,,,,,,,0,,,Not running,,,,,,,,,,,0.011600,-0.850100,0.526400,0.000100,0.021393,-0.929221,0.367299,-0.034383,-43.225,-2.762,-176.268,b6 00 00 00 00 00 00 66 26 d7 01 8a 00 1b f9 07 28 d1
0.421,fused,,50,0x07,"IMU0_OK, IMU1_OK, FUSION_READY",0.784700,-0.035200,0.046200,0.617100,76.367,76.367,6.658,0.103,,,,,,,,,,,,,0,,,Not running,,,,,,,,,,,0.011600,-0.850100,0.526400,0.000100,0.063412,0.341855,-0.937198,0.027827,-139.955,-7.926,-179.491,b6 00 00 00 00 00 00 a7 1e a0 fe ce 01 1b 18 07 32 1e
0.422,fused,,0,0x07,"IMU0_OK, IMU1_OK, FUSION_READY",0.011600,-0.850100,0.526400,0.000100,-63.521,-63.521,0.709,-178.876,,,,,,,,,,,,,0,,,Not running,,,,,,,,,,,0.011600,-0.850100,0.526400,0.000100,1.000000,0.000000,0.000000,0.000000,0.000,0.000,0.000,b6 00 00 00 00 00 00 74 00 cb de 90 14 01 00 07 00 e3
0.422,fused,,30,0x07,"IMU0_OK, IMU1_OK, FUSION_READY",0.867400,-0.029700,0.031600,0.495500,59.414,59.414,4.833,-1.162,,,,,,,,,,,,,0,,,Not running,,,,,,,,,,,0.011600,-0.850100,0.526400,0.000100,0.052002,0.476279,-0.877593,0.016893,-122.960,-6.163,178.854,b6 00 00 00 00 00 00 e2 21 d7 fe 3c 01 5b 13 07 1e 86
0.423,fused,,40,0x07,"IMU0_OK, IMU1_OK, FUSION_READY",0.983000,0.047000,0.013800,-0.176400,-20.233,-20.233,2.505,5.027,,,,,,,,,,,,,0,,,Not running,,,,,,,,,,,0.011600,-0.850100,0.526400,0.000100,0.021308,-0.929188,0.367392,-0.034333,-43.236,-2.760,-176.279,b6 00 00 00 00 00 00 66 26 d6 01 8a 00 1c f9 07 28 d7
0.423,fused,,50,0x07,"IMU0_OK, IMU1_OK, FUSION_READY",0.784700,-0.035200,0.045900,0.617000,76.348,76.348,6.631,0.081,,,,,,,,,,,,,0,,,Not running,,,,,,,,,,,0.011600,-0.850100,0.526400,0.000100,0.063259,0.341934,-0.937187,0.027573,-139.945,-7.899,-179.513,b6 00 00 00 00 00 00 a7 1e a0 fe cb 01 1a 18 07 32 1a
0.424,fused,,0,0x07,"IMU0_OK, IMU1_OK, FUSION_READY",0.011600,-0.850100,0.526400,0.000100,-63.521,-63.521,0.709,-178.876,,,,,,,,,,,,,0,,,Not running,,,,,,,,,,,0.011600,-0.850100,0.526400,0.000100,1.000000,0.000000,0.000000,0.000000,0.000,0.000,0.000,b6 00 00 00 00 00 00 74 00 cb de 90 14 01 00 07 00 e3
0.424,fused,,30,0x07,"IMU0_OK, IMU1_OK, FUSION_READY",0.867400,-0.029700,0.031100,0.495600,59.427,59.427,4.784,-1.190,,,,,,,,,,,,,0,,,Not running,,,,,,,,,,,0.011600,-0.850100,0.526400,0.000100,0.051737,0.476210,-0.877654,0.016468,-122.969,-6.114,178.826,b6 00 00 00 00 00 00 e2 21 d7 fe 37 01 5c 13 07 1e 8a
0.424,fused,,40,0x07,"IMU0_OK, IMU1_OK, FUSION_READY",0.983100,0.046800,0.013800,-0.176400,-20.235,-20.235,2.501,5.004,,,,,,,,,,,,,0,,,Not running,,,,,,,,,,,0.011600,-0.850100,0.526400,0.000100,0.021135,-0.929188,0.367412,-0.034224,-43.238,-2.755,-176.302,b6 00 00 00 00 00 00 67 26 d4 01 8a 00 1c f9 07 28 d4
0.426,fused,,50,0x07,"IMU0_OK, IMU1_OK, FUSION_READY",0.784700,-0.035200,0.045600,0.617000,76.345,76.345,6.604,0.059,,,,,,,,,,,,,0,,,Not running,,,,,,,,,,,0.011600,-0.850100,0.526400,0.000100,0.063102,0.341939,-0.937203,0.027319,-139.943,-7.872,-179.534,b6 00 00 00 00 00 00 a7 1e a0 fe c8 01 1a 18 07 32 19
0.426,fused,,0,0x07,"IMU0_OK, IMU1_OK, FUSION_READY",0.011600,-0.850100,0.526400,0.000100,-63.521,-63.521,0.709,-178.876,,,,,,,,,,,,,0,,,Not running,,,,,,,,,,,0.011600,-0.850100,0.526400,0.000100,1.000000,0.000000,0.000000,0.000000,0.000,0.000,0.000,b6 00 00 00 00 00 00 74 00 cb de 90 14 01 00 07 00 e3
0.427,fused,,30,0x07,"IMU0_OK, IMU1_OK, FUSION_READY",0.867400,-0.029700,0.030500,0.495600,59.424,59.424,4.724,-1.224,,,,,,,,,,,,,0,,,Not running,,,,,,,,,,,0.011600,-0.850100,0.526400,0.000100,0.051422,0.476219,-0.877677,0.015958,-122.968,-6.054,178.792,b6 00 00 00 00 00 00 e2 21 d7 fe 31 01 5c 13 07 1e 8c
0.427,fused,,40,0x07,"IMU0_OK, IMU1_OK, FUSION_READY",0.983100,0.046700,0.013800,-0.176400,-20.235,-20.235,2.499,4.993,,,,,,,,,,,,,0,,,Not running,,,,,,,,,,,0.011600,-0.850100,0.526400,0.000100,0.021050,-0.929191,0.367414,-0.034172,-43.238,-2.753,-176.313,b6 00 00 00 00 00 00 67 26 d3 01 8a 00 1c f9 07 28 d3
0.428,fused,,50,0x07,"IMU0_OK, IMU1_OK, FUSION_READY",0.784800,-0.035200,0.045300,0.617000,76.344,76.344,6.577,0.038,,,,,,,,,,,,,0,,,Not running,,,,,,,,,,,0.011600,-0.850100,0.526400,0.000100,0.062941,0.342001,-0.937199,0.027062,-139.934,-7.845,-179.556,b6 00 00 00 00 00 00 a8 1e a0 fe c5 01 1a 18 07 32 1b
0.428,fused,,0,0x07,"IMU0_OK, IMU1_OK, FUSION_READY",0.011600,-0.850100,0.526400,0.000100,-63.521,-63.521,0.709,-178.876,,,,,,,,,,,,,0,,,Not running,,,,,,,,,,,0.011600,-0.850100,0.526400,0.000100,1.000000,0.000000,0.000000,0.000000,0.000,0.000,0.000,b6 00 00 00 00 00 00 74 00 cb de 90 14 01 00 07 00 e3
0.429,fused,,30,0x07,"IMU0_OK, IMU1_OK, FUSION_READY",0.867400,-0.029700,0.029900,0.495600,59.422,59.422,4.664,-1.258,,,,,,,,,,,,,0,,,Not running,,,,,,,,,,,0.011600,-0.850100,0.526400,0.000100,0.051107,0.476228,-0.877700,0.015449,-122.968,-5.994,178.758,b6 00 00 00 00 00 00 e2 21 d7 fe 2b 01 5c 13 07 1e 96
0.429,fused,,40,0x07,"IMU0_OK, IMU1_OK, FUSION_READY",0.983100,0.046600,0.013800,-0.176400,-20.236,-20.236,2.497,4.982,,,,,,,,,,,,,0,,,Not running,,,,,,,,,,,0.011600,-0.850100,0.526400,0.000100,0.020965,-0.929194,0.367415,-0.034119,-43.237,-2.751,-176.324,b6 00 00 00 00 00 00 67 26 d2 01 8a 00 1c f9 07 28 d2
