time_s,protocol,sequence,node_id,status_hex,status_bits,quat_w,quat_x,quat_y,quat_z,yaw_deg,yaw_unwrapped_deg,pitch_deg,roll_deg,imu0_accel_x_mg,imu0_accel_y_mg,imu0_accel_z_mg,imu0_gyro_x_dps,imu0_gyro_y_dps,imu0_gyro_z_dps,imu1_accel_x_mg,imu1_accel_y_mg,imu1_accel_z_mg,imu1_gyro_x_dps,imu1_gyro_y_dps,imu1_gyro_z_dps,guided_test_active,guided_test_step,guided_test_step_label,guided_test_step_status,guided_test_elapsed_s,guided_test_target_node,guided_test_target_label,guided_test_error_deg,guided_test_reference_node,guided_test_reference_label,palm_ref_quat_w,palm_ref_quat_x,palm_ref_quat_y,palm_ref_quat_z,palm_live_quat_w,palm_live_quat_x,palm_live_quat_y,palm_live_quat_z,relative_to_palm_quat_w,relative_to_palm_quat_x,relative_to_palm_quat_y,relative_to_palm_quat_z,relative_to_palm_yaw_deg,relative_to_palm_pitch_deg,relative_to_palm_roll_deg,raw_frame_hex
0.000,fused,,30,0x07,"IMU0_OK, IMU1_OK, FUSION_READY",0.924100,0.010700,0.019100,-0.381300,-44.830,-44.830,2.491,0.299,,,,,,,,,,,,,0,,,Not running,,,,,,,,,,,0.995300,0.020900,0.019700,-0.092400,0.955677,-0.002917,-0.006176,-0.294337,-34.236,-0.775,-0.111,b6 00 00 00 00 00 00 19 24 6b 00 bf 00 1b f1 07 1e 1a
0.001,fused,,0,0x07,"IMU0_OK, IMU1_OK, FUSION_READY",0.995300,0.020900,0.019700,-0.092400,-10.561,-10.561,2.469,2.178,,,,,,,,,,,,,0,,,Not running,,,,,,,,,,,0.995300,0.020900,0.019700,-0.092400,1.000000,0.000000,-0.000000,0.000000,0.000,-0.000,0.000,b6 00 00 00 00 00 00 e1 26 d1 00 c5 00 64 fc 07 00 4c
0.001,fused,,30,0x07,"IMU0_OK, IMU1_OK, FUSION_READY",0.924100,0.010700,0.019100,-0.381300,-44.830,-44.830,2.491,0.299,,,,,,,,,,,,,0,,,Not running,,,,,,,,,,,0.995300,0.020900,0.019700,-0.092400,0.955677,-0.002917,-0.006176,-0.294337,-34.236,-0.775,-0.111,b6 00 00 00 00 00 00 19 24 6b 00 bf 00 1b f1 07 1e 1a
0.002,fused,,0,0x07,"IMU0_OK, IMU1_OK, FUSION_READY",0.995300,0.020900,0.019700,-0.092400,-10.561,-10.561,2.469,2.178,,,,,,,,,,,,,0,,,Not running,,,,,,,,,,,0.995300,0.020900,0.019700,-0.092400,1.000000,0.000000,-0.000000,0.000000,0.000,-0.000,0.000,b6 00 00 00 00 00 00 e1 26 d1 00 c5 00 64 fc 07 00 4c
0.002,fused,,30,0x07,"IMU0_OK, IMU1_OK, FUSION_READY",0.924100,0.010700,0.019100,-0.381300,-44.830,-44.830,2.491,0.299,,,,,,,,,,,,,0,,,Not running,,,,,,,,,,,0.995300,0.020900,0.019700,-0.092400,0.955677,-0.002917,-0.006176,-0.294337,-34.236,-0.775,-0.111,b6 00 00 00 00 00 00 19 24 6b 00 bf 00 1b f1 07 1e 1a
0.003,fused,,0,0x07,"IMU0_OK, IMU1_OK, FUSION_READY",0.995300,0.020900,0.019600,-0.092400,-10.561,-10.561,2.457,2.179,,,,,,,,,,,,,0,,,Not running,,,,,,,,,,,0.995300,0.020900,0.019600,-0.092400,1.000000,0.000000,-0.000000,0.000000,0.000,-0.000,0.000,b6 00 00 00 00 00 00 e1 26 d1 00 c4 00 64 fc 07 00 4d
0.003,fused,,30,0x07,"IMU0_OK, IMU1_OK, FUSION_READY",0.924200,0.010800,0.019100,-0.381200,-44.820,-44.820,2.495,0.310,,,,,,,,,,,,,0,,,Not running,,,,,,,,,,,0.995300,0.020900,0.019600,-0.092400,0.955717,-0.002860,-0.006073,-0.294211,-34.221,-0.762,-0.108,b6 00 00 00 00 00 00 1a 24 6c 00 bf 00 1c f1 07 1e 19
0.004,fused,,0,0x07,"IMU0_OK, IMU1_OK, FUSION_READY",0.995300,0.020900,0.019600,-0.092400,-10.561,-10.561,2.457,2.179,,,,,,,,,,,,,0,,,Not running,,,,,,,,,,,0.995300,0.020900,0.019600,-0.092400,1.000000,0.000000,-0.000000,0.000000,0.000,-0.000,0.000,b6 00 00 00 00 00 00 e1 26 d1 00 c4 00 64 fc 07 00 4d
0.004,fused,,30,0x07,"IMU0_OK, IMU1_OK, FUSION_READY",0.924200,0.010800,0.019000,-0.381200,-44.819,-44.819,2.485,0.314,,,,,,,,,,,,,0,,,Not running,,,,,,,,,,,0.995300,0.020900,0.019600,-0.092400,0.955717,-0.002851,-0.006173,-0.294210,-34.220,-0.772,-0.104,b6 00 00 00 00 00 00 1a 24 6c 00 be 00 1c f1 07 1e 18
0.005,fused,,0,0x07,"IMU0_OK, IMU1_OK, FUSION_READY",0.995300,0.020900,0.019600,-0.092400,-10.561,-10.561,2.457,2.179,,,,,,,,,,,,,0,,,Not running,,,,,,,,,,,0.995300,0.020900,0.019600,-0.092400,1.000000,0.000000,-0.000000,0.000000,0.000,-0.000,0.000,b6 00 00 00 00 00 00 e1 26 d1 00 c4 00 64 fc 07 00 4d
0.005,fused,,30,0x07,"IMU0_OK, IMU1_OK, FUSION_READY",0.924200,0.010800,0.019100,-0.381200,-44.820,-44.820,2.495,0.310,,,,,,,,,,,,,0,,,Not running,,,,,,,,,,,0.995300,0.020900,0.019600,-0.092400,0.955717,-0.002860,-0.006073,-0.294211,-34.221,-0.762,-0.108,b6 00 00 00 00 00 00 1a 24 6c 00 bf 00 1c f1 07 1e 19
0.005,fused,,0,0x07,"IMU0_OK, IMU1_OK, FUSION_READY",0.995300,0.020900,0.019600,-0.092400,-10.561,-10.561,2.457,2.179,,,,,,,,,,,,,0,,,Not running,,,,,,,,,,,0.995300,0.020900,0.019600,-0.092400,1.000000,0.000000,-0.000000,0.000000,0.000,-0.000,0.000,b6 00 00 00 00 00 00 e1 26 d1 00 c4 00 64 fc 07 00 4d
0.006,fused,,30,0x07,"IMU0_OK, IMU1_OK, FUSION_READY",0.924200,0.010700,0.019100,-0.381200,-44.820,-44.820,2.491,0.299,,,,,,,,,,,,,0,,,Not running,,,,,,,,,,,0.995300,0.020900,0.019600,-0.092400,0.955716,-0.002960,-0.006083,-0.294214,-34.221,-0.766,-0.119,b6 00 00 00 00 00 00 1a 24 6b 00 bf 00 1c f1 07 1e 1e
0.006,fused,,0,0x07,"IMU0_OK, IMU1_OK, FUSION_READY",0.995200,0.020900,0.019600,-0.092400,-10.560,-10.560,2.457,2.178,,,,,,,,,,,,,0,,,Not running,,,,,,,,,,,0.995200,0.020900,0.019600,-0.092400,1.000000,0.000000,-0.000000,0.000000,0.000,-0.000,0.000,b6 00 00 00 00 00 00 e0 26 d1 00 c4 00 64 fc 07 00 4c
0.080,fused,,30,0x07,"IMU0_OK, IMU1_OK, FUSION_READY",0.924200,0.010700,0.019100,-0.381200,-44.820,-44.820,2.491,0.299,,,,,,,,,,,,,0,,,Not running,,,,,,,,,,,0.995200,0.020900,0.019600,-0.092400,0.955718,-0.002961,-0.006085,-0.294205,-34.220,-0.766,-0.119,b6 00 00 00 00 00 00 1a 24 6b 00 bf 00 1c f1 07 1e 1e
0.081,fused,,0,0x07,"IMU0_OK, IMU1_OK, FUSION_READY",0.995200,0.020900,0.019600,-0.092400,-10.560,-10.560,2.457,2.178,,,,,,,,,,,,,0,,,Not running,,,,,,,,,,,0.995200,0.020900,0.019600,-0.092400,1.000000,0.000000,-0.000000,0.000000,0.000,-0.000,0.000,b6 00 00 00 00 00 00 e0 26 d1 00 c4 00 64 fc 07 00 4c
0.082,fused,,30,0x07,"IMU0_OK, IMU1_OK, FUSION_READY",0.924200,0.010700,0.019100,-0.381100,-44.806,-44.806,2.491,0.299,,,,,,,,,,,,,0,,,Not running,,,,,,,,,,,0.995200,0.020900,0.019600,-0.092400,0.955746,-0.002963,-0.006083,-0.294116,-34.209,-0.766,-0.119,b6 00 00 00 00 00 00 1a 24 6b 00 bf 00 1d f1 07 1e 1f
0.083,fused,,0,0x07,"IMU0_OK, IMU1_OK, FUSION_READY",0.995200,0.020900,0.019600,-0.092400,-10.560,-10.560,2.457,2.178,,,,,,,,,,,,,0,,,Not running,,,,,,,,,,,0.995200,0.020900,0.019600,-0.092400,1.000000,0.000000,-0.000000,0.000000,0.000,-0.000,0.000,b6 00 00 00 00 00 00 e0 26 d1 00 c4 00 64 fc 07 00 4c
0.083,fused,,30,0x07,"IMU0_OK, IMU1_OK, FUSION_READY",0.924200,0.010800,0.019100,-0.381100,-44.806,-44.806,2.495,0.310,,,,,,,,,,,,,0,,,Not running,,,,,,,,,,,0.995200,0.020900,0.019600,-0.092400,0.955747,-0.002863,-0.006074,-0.294114,-34.209,-0.762,-0.109,b6 00 00 00 00 00 00 1a 24 6c 00 bf 00 1d f1 07 1e 18
0.084,fused,,0,0x07,"IMU0_OK, IMU1_OK, FUSION_READY",0.995200,0.020900,0.019700,-0.092500,-10.571,-10.571,2.469,2.177,,,,,,,,,,,,,0,,,Not running,,,,,,,,,,,0.995200,0.020900,0.019700,-0.092500,1.000000,0.000000,-0.000000,0.000000,0.000,-0.000,0.000,b6 00 00 00 00 00 00 e0 26 d1 00 c5 00 63 fc 07 00 4a
0.084,fused,,30,0x07,"IMU0_OK, IMU1_OK, FUSION_READY",0.924200,0.010800,0.019100,-0.381100,-44.806,-44.806,2.495,0.310,,,,,,,,,,,,,0,,,Not running,,,,,,,,,,,0.995200,0.020900,0.019700,-0.092500,0.955776,-0.002827,-0.006165,-0.294017,-34.197,-0.771,-0.102,b6 00 00 00 00 00 00 1a 24 6c 00 bf 00 1d f1 07 1e 18
0.085,fused,,0,0x07,"IMU0_OK, IMU1_OK, FUSION_READY",0.995200,0.020900,0.019600,-0.092500,-10.571,-10.571,2.458,2.178,,,,,,,,,,,,,0,,,Not running,,,,,,,,,,,0.995200,0.020900,0.019600,-0.092500,1.000000,0.000000,0.000000,0.000000,0.000,0.000,0.000,b6 00 00 00 00 00 00 e0 26 d1 00 c4 00 63 fc 07 00 4b
0.086,fused,,30,0x07,"IMU0_OK, IMU1_OK, FUSION_READY",0.924200,0.010900,0.019100,-0.381000,-44.792,-44.792,2.499,0.321,,,,,,,,,,,,,0,,,Not running,,,,,,,,,,,0.995200,0.020900,0.019600,-0.092500,0.955804,-0.002768,-0.006062,-0.293928,-34.187,-0.757,-0.099,b6 00 00 00 00 00 00 1a 24 6d 00 bf 00 1e f1 07 1e 1a
0.086,fused,,0,0x07,"IMU0_OK, IMU1_OK, FUSION_READY",0.995200,0.020900,0.019600,-0.092500,-10.571,-10.571,2.458,2.178,,,,,,,,,,,,,0,,,Not running,,,,,,,,,,,0.995200,0.020900,0.019600,-0.092500,1.000000,0.000000,0.000000,0.000000,0.000,0.000,0.000,b6 00 00 00 00 00 00 e0 26 d1 00 c4 00 63 fc 07 00 4b
0.087,fused,,30,0x07,"IMU0_OK, IMU1_OK, FUSION_READY",0.924200,0.011000,0.019100,-0.381000,-44.792,-44.792,2.504,0.331,,,,,,,,,,,,,0,,,Not running,,,,,,,,,,,0.995200,0.020900,0.019600,-0.092500,0.955805,-0.002668,-0.006053,-0.293926,-34.187,-0.753,-0.088,b6 00 00 00 00 00 00 1a 24 6e 00 bf 00 1e f1 07 1e 19
0.087,fused,,0,0x07,"IMU0_OK, IMU1_OK, FUSION_READY",0.995200,0.020900,0.019600,-0.092500,-10.571,-10.571,2.458,2.178,,,,,,,,,,,,,0,,,Not running,,,,,,,,,,,0.995200,0.020900,0.019600,-0.092500,1.000000,0.000000,0.000000,0.000000,0.000,0.000,0.000,b6 00 00 00 00 00 00 e0 26 d1 00 c4 00 63 fc 07 00 4b
0.088,fused,,30,0x07,"IMU0_OK, IMU1_OK, FUSION_READY",0.924200,0.011000,0.019100,-0.381000,-44.792,-44.792,2.504,0.331,,,,,,,,,,,,,0,,,Not running,,,,,,,,,,,0.995200,0.020900,0.019600,-0.092500,0.955805,-0.002668,-0.006053,-0.293926,-34.187,-0.753,-0.088,b6 00 00 00 00 00 00 1a 24 6e 00 bf 00 1e f1 07 1e 19
0.088,fused,,0,0x07,"IMU0_OK, IMU1_OK, FUSION_READY",0.995200,0.020900,0.019600,-0.092500,-10.571,-10.571,2.458,2.178,,,,,,,,,,,,,0,,,Not running,,,,,,,,,,,0.995200,0.020900,0.019600,-0.092500,1.000000,0.000000,0.000000,0.000000,0.000,0.000,0.000,b6 00 00 00 00 00 00 e0 26 d1 00 c4 00 63 fc 07 00 4b
0.089,fused,,30,0x07,"IMU0_OK, IMU1_OK, FUSION_READY",0.924200,0.011000,0.019100,-0.381000,-44.792,-44.792,2.504,0.331,,,,,,,,,,,,,0,,,Not running,,,,,,,,,,,0.995200,0.020900,0.019600,-0.092500,0.955805,-0.002668,-0.006053,-0.293926,-34.187,-0.753,-0.088,b6 00 00 00 00 00 00 1a 24 6e 00 bf 00 1e f1 07 1e 19
0.089,fused,,0,0x07,"IMU0_OK, IMU1_OK, FUSION_READY",0.995200,0.020900,0.019600,-0.092500,-10.571,-10.571,2.458,2.178,,,,,,,,,,,,,0,,,Not running,,,,,,,,,,,0.995200,0.020900,0.019600,-0.092500,1.000000,0.000000,0.000000,0.000000,0.000,0.000,0.000,b6 00 00 00 00 00 00 e0 26 d1 00 c4 00 63 fc 07 00 4b
0.090,fused,,30,0x07,"IMU0_OK, IMU1_OK, FUSION_READY",0.924200,0.011000,0.019100,-0.381000,-44.792,-44.792,2.504,0.331,,,,,,,,,,,,,0,,,Not running,,,,,,,,,,,0.995200,0.020900,0.019600,-0.092500,0.955805,-0.002668,-0.006053,-0.293926,-34.187,-0.753,-0.088,b6 00 00 00 00 00 00 1a 24 6e 00 bf 00 1e f1 07 1e 19
0.090,fused,,0,0x07,"IMU0_OK, IMU1_OK, FUSION_READY",0.995200,0.020900,0.019600,-0.092500,-10.571,-10.571,2.458,2.178,,,,,,,,,,,,,0,,,Not running,,,,,,,,,,,0.995200,0.020900,0.019600,-0.092500,1.000000,0.000000,0.000000,0.000000,0.000,0.000,0.000,b6 00 00 00 00 00 00 e0 26 d1 00 c4 00 63 fc 07 00 4b
0.091,fused,,30,0x07,"IMU0_OK, IMU1_OK, FUSION_READY",0.924200,0.011000,0.019100,-0.381000,-44.792,-44.792,2.504,0.331,,,,,,,,,,,,,0,,,Not running,,,,,,,,,,,0.995200,0.020900,0.019600,-0.092500,0.955805,-0.002668,-0.006053,-0.293926,-34.187,-0.753,-0.088,b6 00 00 00 00 00 00 1a 24 6e 00 bf 00 1e f1 07 1e 19
0.091,fused,,0,0x07,"IMU0_OK, IMU1_OK, FUSION_READY",0.995200,0.020900,0.019600,-0.092500,-10.571,-10.571,2.458,2.178,,,,,,,,,,,,,0,,,Not running,,,,,,,,,,,0.995200,0.020900,0.019600,-0.092500,1.000000,0.000000,0.000000,0.000000,0.000,0.000,0.000,b6 00 00 00 00 00 00 e0 26 d1 00 c4 00 63 fc 07 00 4b
0.092,fused,,30,0x07,"IMU0_OK, IMU1_OK, FUSION_READY",0.924200,0.011000,0.019100,-0.381000,-44.792,-44.792,2.504,0.331,,,,,,,,,,,,,0,,,Not running,,,,,,,,,,,0.995200,0.020900,0.019600,-0.092500,0.955805,-0.002668,-0.006053,-0.293926,-34.187,-0.753,-0.088,b6 00 00 00 00 00 00 1a 24 6e 00 bf 00 1e f1 07 1e 19
0.092,fused,,0,0x07,"IMU0_OK, IMU1_OK, FUSION_READY",0.995200,0.020900,0.019600,-0.092500,-10.571,-10.571,2.458,2.178,,,,,,,,,,,,,0,,,Not running,,,,,,,,,,,0.995200,0.020900,0.019600,-0.092500,1.000000,0.000000,0.000000,0.000000,0.000,0.000,0.000,b6 00 00 00 00 00 00 e0 26 d1 00 c4 00 63 fc 07 00 4b
0.093,fused,,30,0x07,"IMU0_OK, IMU1_OK, FUSION_READY",0.924200,0.011000,0.019100,-0.381000,-44.792,-44.792,2.504,0.331,,,,,,,,,,,,,0,,,Not running,,,,,,,,,,,0.995200,0.020900,0.019600,-0.092500,0.955805,-0.002668,-0.006053,-0.293926,-34.187,-0.753,-0.088,b6 00 00 00 00 00 00 1a 24 6e 00 bf 00 1e f1 07 1e 19
0.093,fused,,0,0x07,"IMU0_OK, IMU1_OK, FUSION_READY",0.995200,0.020900,0.019600,-0.092500,-10.571,-10.571,2.458,2.178,,,,,,,,,,,,,0,,,Not running,,,,,,,,,,,0.995200,0.020900,0.019600,-0.092500,1.000000,0.000000,0.000000,0.000000,0.000,0.000,0.000,b6 00 00 00 00 00 00 e0 26 d1 00 c4 00 63 fc 07 00 4b
0.094,fused,,30,0x07,"IMU0_OK, IMU1_OK, FUSION_READY",0.924300,0.011000,0.019100,-0.381000,-44.795,-44.795,2.504,0.332,,,,,,,,,,,,,0,,,Not running,,,,,,,,,,,0.995200,0.020900,0.019600,-0.092500,0.955816,-0.002670,-0.006054,-0.293890,-34.182,-0.753,-0.089,b6 00 00 00 00 00 00 1b 24 6e 00 bf 00 1e f1 07 1e 18
0.094,fused,,0,0x07,"IMU0_OK, IMU1_OK, FUSION_READY",0.995200,0.020800,0.019500,-0.092500,-10.572,-10.572,2.445,2.168,,,,,,,,,,,,,0,,,Not running,,,,,,,,,,,0.995200,0.020800,0.019500,-0.092500,1.000000,0.000000,-0.000000,0.000000,0.000,-0.000,0.000,b6 00 00 00 00 00 00 e0 26 d0 00 c3 00 63 fc 07 00 4d
0.094,fused,,30,0x07,"IMU0_OK, IMU1_OK, FUSION_READY",0.924300,0.011100,0.019000,-0.380900,-44.781,-44.781,2.498,0.347,,,,,,,,,,,,,0,,,Not running,,,,,,,,,,,0.995200,0.020800,0.019500,-0.092500,0.955845,-0.002509,-0.006012,-0.293798,-34.171,-0.743,-0.072,b6 00 00 00 00 00 00 1b 24 6f 00 be 00 1f f1 07 1e 19
0.095,fused,,0,0x07,"IMU0_OK, IMU1_OK, FUSION_READY",0.995200,0.020800,0.019500,-0.092500,-10.572,-10.572,2.445,2.168,,,,,,,,,,,,,0,,,Not running,,,,,,,,,,,0.995200,0.020800,0.019500,-0.092500,1.000000,0.000000,-0.000000,0.000000,0.000,-0.000,0.000,b6 00 00 00 00 00 00 e0 26 d0 00 c3 00 63 fc 07 00 4d
0.095,fused,,30,0x07,"IMU0_OK, IMU1_OK, FUSION_READY",0.924300,0.011100,0.019000,-0.380900,-44.781,-44.781,2.498,0.347,,,,,,,,,,,,,0,,,Not running,,,,,,,,,,,0.995200,0.020800,0.019500,-0.092500,0.955845,-0.002509,-0.006012,-0.293798,-34.171,-0.743,-0.072,b6 00 00 00 00 00 00 1b 24 6f 00 be 00 1f f1 07 1e 19
0.207,fused,,0,0x07,"IMU0_OK, IMU1_OK, FUSION_READY",0.995200,0.020800,0.019500,-0.092600,-10.583,-10.583,2.445,2.168,,,,,,,,,,,,,0,,,Not running,,,,,,,,,,,0.995200,0.020800,0.019500,-0.092600,1.000000,0.000000,0.000000,0.000000,0.000,0.000,0.000,b6 00 00 00 00 00 00 e0 26 d0 00 c3 00 62 fc 07 00 4c
0.208,fused,,30,0x07,"IMU0_OK, IMU1_OK, FUSION_READY",0.924300,0.011100,0.019000,-0.380900,-44.781,-44.781,2.498,0.347,,,,,,,,,,,,,0,,,Not running,,,,,,,,,,,0.995200,0.020800,0.019500,-0.092600,0.955875,-0.002511,-0.006011,-0.293703,-34.160,-0.743,-0.073,b6 00 00 00 00 00 00 1b 24 6f 00 be 00 1f f1 07 1e 19
0.209,fused,,0,0x07,"IMU0_OK, IMU1_OK, FUSION_READY",0.995200,0.020800,0.019500,-0.092600,-10.583,-10.583,2.445,2.168,,,,,,,,,,,,,0,,,Not running,,,,,,,,,,,0.995200,0.020800,0.019500,-0.092600,1.000000,0.000000,0.000000,0.000000,0.000,0.000,0.000,b6 00 00 00 00 00 00 e0 26 d0 00 c3 00 62 fc 07 00 4c
0.210,fused,,30,0x07,"IMU0_OK, IMU1_OK, FUSION_READY",0.924300,0.011100,0.019000,-0.380900,-44.781,-44.781,2.498,0.347,,,,,,,,,,,,,0,,,Not running,,,,,,,,,,,0.995200,0.020800,0.019500,-0.092600,0.955875,-0.002511,-0.006011,-0.293703,-34.160,-0.743,-0.073,b6 00 00 00 00 00 00 1b 24 6f 00 be 00 1f f1 07 1e 19
0.211,fused,,0,0x07,"IMU0_OK, IMU1_OK, FUSION_READY",0.995200,0.020800,0.019500,-0.092600,-10.583,-10.583,2.445,2.168,,,,,,,,,,,,,0,,,Not running,,,,,,,,,,,0.995200,0.020800,0.019500,-0.092600,1.000000,0.000000,0.000000,0.000000,0.000,0.000,0.000,b6 00 00 00 00 00 00 e0 26 d0 00 c3 00 62 fc 07 00 4c
0.212,fused,,30,0x07,"IMU0_OK, IMU1_OK, FUSION_READY",0.924300,0.011200,0.019000,-0.380800,-44.767,-44.767,2.502,0.358,,,,,,,,,,,,,0,,,Not running,,,,,,,,,,,0.995200,0.020800,0.019500,-0.092600,0.955903,-0.002413,-0.006000,-0.293612,-34.149,-0.738,-0.063,b6 00 00 00 00 00 00 1b 24 70 00 be 00 20 f1 07 1e 39
0.212,fused,,0,0x07,"IMU0_OK, IMU1_OK, FUSION_READY",0.995200,0.020800,0.019500,-0.092600,-10.583,-10.583,2.445,2.168,,,,,,,,,,,,,0,,,Not running,,,,,,,,,,,0.995200,0.020800,0.019500,-0.092600,1.000000,0.000000,0.000000,0.000000,0.000,0.000,0.000,b6 00 00 00 00 00 00 e0 26 d0 00 c3 00 62 fc 07 00 4c
0.213,fused,,30,0x07,"IMU0_OK, IMU1_OK, FUSION_READY",0.924300,0.011300,0.019000,-0.380800,-44.767,-44.767,2.506,0.368,,,,,,,,,,,,,0,,,Not running,,,,,,,,,,,0.995200,0.020800,0.019500,-0.092600,0.955904,-0.002314,-0.005990,-0.293610,-34.149,-0.734,-0.052,b6 00 00 00 00 00 00 1b 24 71 00 be 00 20 f1 07 1e 38
0.214,fused,,0,0x07,"IMU0_OK, IMU1_OK, FUSION_READY",0.995200,0.020800,0.019500,-0.092600,-10.583,-10.583,2.445,2.168,,,,,,,,,,,,,0,,,Not running,,,,,,,,,,,0.995200,0.020800,0.019500,-0.092600,1.000000,0.000000,0.000000,0.000000,0.000,0.000,0.000,b6 00 00 00 00 00 00 e0 26 d0 00 c3 00 62 fc 07 00 4c
0.214,fused,,30,0x07,"IMU0_OK, IMU1_OK, FUSION_READY",0.924400,0.011400,0.019000,-0.380700,-44.756,-44.756,2.511,0.379,,,,,,,,,,,,,0,,,Not running,,,,,,,,,,,0.995200,0.020800,0.019500,-0.092600,0.955943,-0.002218,-0.005981,-0.293483,-34.134,-0.730,-0.042,b6 00 00 00 00 00 00 1c 24 72 00 be 00 21 f1 07 1e 3d
0.215,fused,,0,0x07,"IMU0_OK, IMU1_OK, FUSION_READY",0.995200,0.020800,0.019500,-0.092600,-10.583,-10.583,2.445,2.168,,,,,,,,,,,,,0,,,Not running,,,,,,,,,,,0.995200,0.020800,0.019500,-0.092600,1.000000,0.000000,0.000000,0.000000,0.000,0.000,0.000,b6 00 00 00 00 00 00 e0 26 d0 00 c3 00 62 fc 07 00 4c
0.215,fused,,30,0x07,"IMU0_OK, IMU1_OK, FUSION_READY",0.924400,0.011400,0.019000,-0.380700,-44.756,-44.756,2.511,0.379,,,,,,,,,,,,,0,,,Not running,,,,,,,,,,,0.995200,0.020800,0.019500,-0.092600,0.955943,-0.002218,-0.005981,-0.293483,-34.134,-0.730,-0.042,b6 00 00 00 00 00 00 1c 24 72 00 be 00 21 f1 07 1e 3d
0.216,fused,,0,0x07,"IMU0_OK, IMU1_OK, FUSION_READY",0.995200,0.020800,0.019500,-0.092600,-10.583,-10.583,2.445,2.168,,,,,,,,,,,,,0,,,Not running,,,,,,,,,,,0.995200,0.020800,0.019500,-0.092600,1.000000,0.000000,0.000000,0.000000,0.000,0.000,0.000,b6 00 00 00 00 00 00 e0 26 d0 00 c3 00 62 fc 07 00 4c
0.216,fused,,30,0x07,"IMU0_OK, IMU1_OK, FUSION_READY",0.924400,0.011400,0.019000,-0.380700,-44.756,-44.756,2.511,0.379,,,,,,,,,,,,,0,,,Not running,,,,,,,,,,,0.995200,0.020800,0.019500,-0.092600,0.955943,-0.002218,-0.005981,-0.293483,-34.134,-0.730,-0.042,b6 00 00 00 00 00 00 1c 24 72 00 be 00 21 f1 07 1e 3d
0.268,fused,,0,0x07,"IMU0_OK, IMU1_OK, FUSION_READY",0.995200,0.020800,0.019500,-0.092600,-10.583,-10.583,2.445,2.168,,,,,,,,,,,,,0,,,Not running,,,,,,,,,,,0.995200,0.020800,0.019500,-0.092600,1.000000,0.000000,0.000000,0.000000,0.000,0.000,0.000,b6 00 00 00 00 00 00 e0 26 d0 00 c3 00 62 fc 07 00 4c
0.269,fused,,30,0x07,"IMU0_OK, IMU1_OK, FUSION_READY",0.924400,0.011400,0.019000,-0.380700,-44.756,-44.756,2.511,0.379,,,,,,,,,,,,,0,,,Not running,,,,,,,,,,,0.995200,0.020800,0.019500,-0.092600,0.955943,-0.002218,-0.005981,-0.293483,-34.134,-0.730,-0.042,b6 00 00 00 00 00 00 1c 24 72 00 be 00 21 f1 07 1e 3d
0.270,fused,,0,0x07,"IMU0_OK, IMU1_OK, FUSION_READY",0.995200,0.020800,0.019500,-0.092600,-10.583,-10.583,2.445,2.168,,,,,,,,,,,,,0,,,Not running,,,,,,,,,,,0.995200,0.020800,0.019500,-0.092600,1.000000,0.000000,0.000000,0.000000,0.000,0.000,0.000,b6 00 00 00 00 00 00 e0 26 d0 00 c3 00 62 fc 07 00 4c
0.271,fused,,30,0x07,"IMU0_OK, IMU1_OK, FUSION_READY",0.924400,0.011400,0.019000,-0.380700,-44.756,-44.756,2.511,0.379,,,,,,,,,,,,,0,,,Not running,,,,,,,,,,,0.995200,0.020800,0.019500,-0.092600,0.955943,-0.002218,-0.005981,-0.293483,-34.134,-0.730,-0.042,b6 00 00 00 00 00 00 1c 24 72 00 be 00 21 f1 07 1e 3d
0.271,fused,,0,0x07,"IMU0_OK, IMU1_OK, FUSION_READY",0.995200,0.020800,0.019500,-0.092600,-10.583,-10.583,2.445,2.168,,,,,,,,,,,,,0,,,Not running,,,,,,,,,,,0.995200,0.020800,0.019500,-0.092600,1.000000,0.000000,0.000000,0.000000,0.000,0.000,0.000,b6 00 00 00 00 00 00 e0 26 d0 00 c3 00 62 fc 07 00 4c
0.272,fused,,30,0x07,"IMU0_OK, IMU1_OK, FUSION_READY",0.924400,0.011400,0.019000,-0.380700,-44.756,-44.756,2.511,0.379,,,,,,,,,,,,,0,,,Not running,,,,,,,,,,,0.995200,0.020800,0.019500,-0.092600,0.955943,-0.002218,-0.005981,-0.293483,-34.134,-0.730,-0.042,b6 00 00 00 00 00 00 1c 24 72 00 be 00 21 f1 07 1e 3d
0.272,fused,,0,0x07,"IMU0_OK, IMU1_OK, FUSION_READY",0.995200,0.020800,0.019500,-0.092600,-10.583,-10.583,2.445,2.168,,,,,,,,,,,,,0,,,Not running,,,,,,,,,,,0.995200,0.020800,0.019500,-0.092600,1.000000,0.000000,0.000000,0.000000,0.000,0.000,0.000,b6 00 00 00 00 00 00 e0 26 d0 00 c3 00 62 fc 07 00 4c
0.272,fused,,30,0x07,"IMU0_OK, IMU1_OK, FUSION_READY",0.924400,0.011400,0.019000,-0.380700,-44.756,-44.756,2.511,0.379,,,,,,,,,,,,,0,,,Not running,,,,,,,,,,,0.995200,0.020800,0.019500,-0.092600,0.955943,-0.002218,-0.005981,-0.293483,-34.134,-0.730,-0.042,b6 00 00 00 00 00 00 1c 24 72 00 be 00 21 f1 07 1e 3d
0.273,fused,,0,0x07,"IMU0_OK, IMU1_OK, FUSION_READY",0.995200,0.020800,0.019500,-0.092600,-10.583,-10.583,2.445,2.168,,,,,,,,,,,,,0,,,Not running,,,,,,,,,,,0.995200,0.020800,0.019500,-0.092600,1.000000,0.000000,0.000000,0.000000,0.000,0.000,0.000,b6 00 00 00 00 00 00 e0 26 d0 00 c3 00 62 fc 07 00 4c
0.274,fused,,30,0x07,"IMU0_OK, IMU1_OK, FUSION_READY",0.924400,0.011400,0.019000,-0.380700,-44.756,-44.756,2.511,0.379,,,,,,,,,,,,,0,,,Not running,,,,,,,,,,,0.995200,0.020800,0.019500,-0.092600,0.955943,-0.002218,-0.005981,-0.293483,-34.134,-0.730,-0.042,b6 00 00 00 00 00 00 1c 24 72 00 be 00 21 f1 07 1e 3d
0.275,fused,,0,0x07,"IMU0_OK, IMU1_OK, FUSION_READY",0.995200,0.020800,0.019500,-0.092600,-10.583,-10.583,2.445,2.168,,,,,,,,,,,,,0,,,Not running,,,,,,,,,,,0.995200,0.020800,0.019500,-0.092600,1.000000,0.000000,0.000000,0.000000,0.000,0.000,0.000,b6 00 00 00 00 00 00 e0 26 d0 00 c3 00 62 fc 07 00 4c
0.276,fused,,30,0x07,"IMU0_OK, IMU1_OK, FUSION_READY",0.924400,0.011400,0.019000,-0.380600,-44.743,-44.743,2.511,0.379,,,,,,,,,,,,,0,,,Not running,,,,,,,,,,,0.995200,0.020800,0.019500,-0.092600,0.955970,-0.002220,-0.005979,-0.293394,-34.123,-0.730,-0.042,b6 00 00 00 00 00 00 1c 24 72 00 be 00 22 f1 07 1e 3e
0.276,fused,,0,0x07,"IMU0_OK, IMU1_OK, FUSION_READY",0.995200,0.020800,0.019500,-0.092600,-10.583,-10.583,2.445,2.168,,,,,,,,,,,,,0,,,Not running,,,,,,,,,,,0.995200,0.020800,0.019500,-0.092600,1.000000,0.000000,0.000000,0.000000,0.000,0.000,0.000,b6 00 00 00 00 00 00 e0 26 d0 00 c3 00 62 fc 07 00 4c
0.277,fused,,30,0x07,"IMU0_OK, IMU1_OK, FUSION_READY",0.924400,0.011300,0.019000,-0.380600,-44.743,-44.743,2.506,0.369,,,,,,,,,,,,,0,,,Not running,,,,,,,,,,,0.995200,0.020800,0.019500,-0.092600,0.955969,-0.002320,-0.005988,-0.293397,-34.123,-0.734,-0.053,b6 00 00 00 00 00 00 1c 24 71 00 be 00 22 f1 07 1e 3d
0.334,fused,,0,0x07,"IMU0_OK, IMU1_OK, FUSION_READY",0.995200,0.020800,0.019600,-0.092600,-10.583,-10.583,2.457,2.167,,,,,,,,,,,,,0,,,Not running,,,,,,,,,,,0.995200,0.020800,0.019600,-0.092600,1.000000,0.000000,0.000000,0.000000,0.000,0.000,0.000,b6 00 00 00 00 00 00 e0 26 d0 00 c4 00 62 fc 07 00 4b
0.335,fused,,30,0x07,"IMU0_OK, IMU1_OK, FUSION_READY",0.924400,0.011200,0.019000,-0.380600,-44.743,-44.743,2.502,0.358,,,,,,,,,,,,,0,,,Not running,,,,,,,,,,,0.995200,0.020800,0.019600,-0.092600,0.955968,-0.002381,-0.006090,-0.293397,-34.123,-0.747,-0.056,b6 00 00 00 00 00 00 1c 24 70 00 be 00 22 f1 07 1e 3c
0.336,fused,,0,0x07,"IMU0_OK, IMU1_OK, FUSION_READY",0.995200,0.020800,0.019600,-0.092600,-10.583,-10.583,2.457,2.167,,,,,,,,,,,,,0,,,Not running,,,,,,,,,,,0.995200,0.020800,0.019600,-0.092600,1.000000,0.000000,0.000000,0.000000,0.000,0.000,0.000,b6 00 00 00 00 00 00 e0 26 d0 00 c4 00 62 fc 07 00 4b
0.336,fused,,30,0x07,"IMU0_OK, IMU1_OK, FUSION_READY",0.924400,0.011200,0.019000,-0.380600,-44.743,-44.743,2.502,0.358,,,,,,,,,,,,,0,,,Not running,,,,,,,,,,,0.995200,0.020800,0.019600,-0.092600,0.955968,-0.002381,-0.006090,-0.293397,-34.123,-0.747,-0.056,b6 00 00 00 00 00 00 1c 24 70 00 be 00 22 f1 07 1e 3c
0.337,fused,,0,0x07,"IMU0_OK, IMU1_OK, FUSION_READY",0.995200,0.020900,0.019600,-0.092700,-10.595,-10.595,2.458,2.178,,,,,,,,,,,,,0,,,Not running,,,,,,,,,,,0.995200,0.020900,0.019600,-0.092700,1.000000,0.000000,0.000000,0.000000,0.000,0.000,0.000,b6 00 00 00 00 00 00 e0 26 d1 00 c4 00 61 fc 07 00 49
0.337,fused,,30,0x07,"IMU0_OK, IMU1_OK, FUSION_READY",0.924400,0.011200,0.019000,-0.380600,-44.743,-44.743,2.502,0.358,,,,,,,,,,,,,0,,,Not running,,,,,,,,,,,0.995200,0.020900,0.019600,-0.092700,0.955997,-0.002476,-0.006127,-0.293303,-34.112,-0.754,-0.065,b6 00 00 00 00 00 00 1c 24 70 00 be 00 22 f1 07 1e 3c
0.337,fused,,0,0x07,"IMU0_OK, IMU1_OK, FUSION_READY",0.995200,0.020900,0.019600,-0.092700,-10.595,-10.595,2.458,2.178,,,,,,,,,,,,,0,,,Not running,,,,,,,,,,,0.995200,0.020900,0.019600,-0.092700,1.000000,0.000000,0.000000,0.000000,0.000,0.000,0.000,b6 00 00 00 00 00 00 e0 26 d1 00 c4 00 61 fc 07 00 49
0.338,fused,,30,0x07,"IMU0_OK, IMU1_OK, FUSION_READY",0.924500,0.011200,0.019000,-0.380500,-44.732,-44.732,2.502,0.358,,,,,,,,,,,,,0,,,Not running,,,,,,,,,,,0.995200,0.020900,0.019600,-0.092700,0.956035,-0.002480,-0.006126,-0.293179,-34.097,-0.754,-0.066,b6 00 00 00 00 00 00 1d 24 70 00 be 00 23 f1 07 1e 3c
0.338,fused,,0,0x07,"IMU0_OK, IMU1_OK, FUSION_READY",0.995200,0.020900,0.019600,-0.092700,-10.595,-10.595,2.458,2.178,,,,,,,,,,,,,0,,,Not running,,,,,,,,,,,0.995200,0.020900,0.019600,-0.092700,1.000000,0.000000,0.000000,0.000000,0.000,0.000,0.000,b6 00 00 00 00 00 00 e0 26 d1 00 c4 00 61 fc 07 00 49
0.339,fused,,30,0x07,"IMU0_OK, IMU1_OK, FUSION_READY",0.924400,0.011300,0.019000,-0.380500,-44.729,-44.729,2.506,0.369,,,,,,,,,,,,,0,,,Not running,,,,,,,,,,,0.995200,0.020900,0.019600,-0.092700,0.956025,-0.002378,-0.006116,-0.293213,-34.101,-0.750,-0.055,b6 00 00 00 00 00 00 1c 24 71 00 be 00 23 f1 07 1e 3c
0.339,fused,,0,0x07,"IMU0_OK, IMU1_OK, FUSION_READY",0.995200,0.020900,0.019600,-0.092700,-10.595,-10.595,2.458,2.178,,,,,,,,,,,,,0,,,Not running,,,,,,,,,,,0.995200,0.020900,0.019600,-0.092700,1.000000,0.000000,0.000000,0.000000,0.000,0.000,0.000,b6 00 00 00 00 00 00 e0 26 d1 00 c4 00 61 fc 07 00 49
0.340,fused,,30,0x07,"IMU0_OK, IMU1_OK, FUSION_READY",0.924500,0.011400,0.019000,-0.380500,-44.732,-44.732,2.511,0.380,,,,,,,,,,,,,0,,,Not running,,,,,,,,,,,0.995200,0.020900,0.019600,-0.092700,0.956037,-0.002280,-0.006108,-0.293174,-34.097,-0.746,-0.045,b6 00 00 00 00 00 00 1d 24 72 00 be 00 23 f1 07 1e 3e
0.340,fused,,0,0x07,"IMU0_OK, IMU1_OK, FUSION_READY",0.995200,0.020900,0.019600,-0.092700,-10.595,-10.595,2.458,2.178,,,,,,,,,,,,,0,,,Not running,,,,,,,,,,,0.995200,0.020900,0.019600,-0.092700,1.000000,0.000000,0.000000,0.000000,0.000,0.000,0.000,b6 00 00 00 00 00 00 e0 26 d1 00 c4 00 61 fc 07 00 49
0.341,fused,,30,0x07,"IMU0_OK, IMU1_OK, FUSION_READY",0.924500,0.011300,0.019000,-0.380500,-44.732,-44.732,2.506,0.369,,,,,,,,,,,,,0,,,Not running,,,,,,,,,,,0.995200,0.020900,0.019600,-0.092700,0.956036,-0.002380,-0.006117,-0.293176,-34.097,-0.750,-0.055,b6 00 00 00 00 00 00 1d 24 71 00 be 00 23 f1 07 1e 3d
0.394,fused,,0,0x07,"IMU0_OK, IMU1_OK, FUSION_READY",0.995200,0.020900,0.019600,-0.092700,-10.595,-10.595,2.458,2.178,,,,,,,,,,,,,0,,,Not running,,,,,,,,,,,0.995200,0.020900,0.019600,-0.092700,1.000000,0.000000,0.000000,0.000000,0.000,0.000,0.000,b6 00 00 00 00 00 00 e0 26 d1 00 c4 00 61 fc 07 00 49
0.395,fused,,30,0x07,"IMU0_OK, IMU1_OK, FUSION_READY",0.924400,0.011300,0.019000,-0.380500,-44.729,-44.729,2.506,0.369,,,,,,,,,,,,,0,,,Not running,,,,,,,,,,,0.995200,0.020900,0.019600,-0.092700,0.956025,-0.002378,-0.006116,-0.293213,-34.101,-0.750,-0.055,b6 00 00 00 00 00 00 1c 24 71 00 be 00 23 f1 07 1e 3c
0.395,fused,,0,0x07,"IMU0_OK, IMU1_OK, FUSION_READY",0.995200,0.020900,0.019500,-0.092700,-10.595,-10.595,2.447,2.179,,,,,,,,,,,,,0,,,Not running,,,,,,,,,,,0.995200,0.020900,0.019500,-0.092700,1.000000,0.000000,0.000000,0.000000,0.000,0.000,0.000,b6 00 00 00 00 00 00 e0 26 d1 00 c3 00 61 fc 07 00 4e
0.396,fused,,30,0x07,"IMU0_OK, IMU1_OK, FUSION_READY",0.924500,0.011200,0.019000,-0.380500,-44.732,-44.732,2.502,0.358,,,,,,,,,,,,,0,,,Not running,,,,,,,,,,,0.995200,0.020900,0.019500,-0.092700,0.956035,-0.002518,-0.006034,-0.293180,-34.097,-0.746,-0.073,b6 00 00 00 00 00 00 1d 24 70 00 be 00 23 f1 07 1e 3c
0.396,fused,,0,0x07,"IMU0_OK, IMU1_OK, FUSION_READY",0.995200,0.020900,0.019600,-0.092700,-10.595,-10.595,2.458,2.178,,,,,,,,,,,,,0,,,Not running,,,,,,,,,,,0.995200,0.020900,0.019600,-0.092700,1.000000,0.000000,0.000000,0.000000,0.000,0.000,0.000,b6 00 00 00 00 00 00 e0 26 d1 00 c4 00 61 fc 07 00 49
0.397,fused,,30,0x07,"IMU0_OK, IMU1_OK, FUSION_READY",0.924500,0.011200,0.019000,-0.380500,-44.732,-44.732,2.502,0.358,,,,,,,,,,,,,0,,,Not running,,,,,,,,,,,0.995200,0.020900,0.019600,-0.092700,0.956035,-0.002480,-0.006126,-0.293179,-34.097,-0.754,-0.066,b6 00 00 00 00 00 00 1d 24 70 00 be 00 23 f1 07 1e 3c
0.397,fused,,0,0x07,"IMU0_OK, IMU1_OK, FUSION_READY",0.995200,0.020900,0.019600,-0.092700,-10.595,-10.595,2.458,2.178,,,,,,,,,,,,,0,,,Not running,,,,,,,,,,,0.995200,0.020900,0.019600,-0.092700,1.000000,0.000000,0.000000,0.000000,0.000,0.000,0.000,b6 00 00 00 00 00 00 e0 26 d1 00 c4 00 61 fc 07 00 49
0.398,fused,,30,0x07,"IMU0_OK, IMU1_OK, FUSION_READY",0.924500,0.011200,0.019000,-0.380500,-44.732,-44.732,2.502,0.358,,,,,,,,,,,,,0,,,Not running,,,,,,,,,,,0.995200,0.020900,0.019600,-0.092700,0.956035,-0.002480,-0.006126,-0.293179,-34.097,-0.754,-0.066,b6 00 00 00 00 00 00 1d 24 70 00 be 00 23 f1 07 1e 3c
0.398,fused,,0,0x07,"IMU0_OK, IMU1_OK, FUSION_READY",0.995200,0.020900,0.019600,-0.092700,-10.595,-10.595,2.458,2.178,,,,,,,,,,,,,0,,,Not running,,,,,,,,,,,0.995200,0.020900,0.019600,-0.092700,1.000000,0.000000,0.000000,0.000000,0.000,0.000,0.000,b6 00 00 00 00 00 00 e0 26 d1 00 c4 00 61 fc 07 00 49
0.399,fused,,30,0x07,"IMU0_OK, IMU1_OK, FUSION_READY",0.924500,0.011200,0.019000,-0.380400,-44.719,-44.719,2.502,0.359,,,,,,,,,,,,,0,,,Not running,,,,,,,,,,,0.995200,0.020900,0.019600,-0.092700,0.956062,-0.002482,-0.006124,-0.293090,-34.086,-0.754,-0.066,b6 00 00 00 00 00 00 1d 24 70 00 be 00 24 f1 07 1e 3b
0.399,fused,,0,0x07,"IMU0_OK, IMU1_OK, FUSION_READY",0.995200,0.020900,0.019600,-0.092700,-10.595,-10.595,2.458,2.178,,,,,,,,,,,,,0,,,Not running,,,,,,,,,,,0.995200,0.020900,0.019600,-0.092700,1.000000,0.000000,0.000000,0.000000,0.000,0.000,0.000,b6 00 00 00 00 00 00 e0 26 d1 00 c4 00 61 fc 07 00 49
0.399,fused,,30,0x07,"IMU0_OK, IMU1_OK, FUSION_READY",0.924500,0.011300,0.019000,-0.380400,-44.719,-44.719,2.506,0.369,,,,,,,,,,,,,0,,,Not running,,,,,,,,,,,0.995200,0.020900,0.019600,-0.092700,0.956063,-0.002382,-0.006115,-0.293088,-34.086,-0.750,-0.056,b6 00 00 00 00 00 00 1d 24 71 00 be 00 24 f1 07 1e 3a
0.400,fused,,0,0x07,"IMU0_OK, IMU1_OK, FUSION_READY",0.995200,0.020900,0.019600,-0.092700,-10.595,-10.595,2.458,2.178,,,,,,,,,,,,,0,,,Not running,,,,,,,,,,,0.995200,0.020900,0.019600,-0.092700,1.000000,0.000000,0.000000,0.000000,0.000,0.000,0.000,b6 00 00 00 00 00 00 e0 26 d1 00 c4 00 61 fc 07 00 49
0.400,fused,,30,0x07,"IMU0_OK, IMU1_OK, FUSION_READY",0.924500,0.011300,0.019000,-0.380400,-44.719,-44.719,2.506,0.369,,,,,,,,,,,,,0,,,Not running,,,,,,,,,,,0.995200,0.020900,0.019600,-0.092700,0.956063,-0.002382,-0.006115,-0.293088,-34.086,-0.750,-0.056,b6 00 00 00 00 00 00 1d 24 71 00 be 00 24 f1 07 1e 3a
0.401,fused,,0,0x07,"IMU0_OK, IMU1_OK, FUSION_READY",0.995200,0.020900,0.019600,-0.092700,-10.595,-10.595,2.458,2.178,,,,,,,,,,,,,0,,,Not running,,,,,,,,,,,0.995200,0.020900,0.019600,-0.092700,1.000000,0.000000,0.000000,0.000000,0.000,0.000,0.000,b6 00 00 00 00 00 00 e0 26 d1 00 c4 00 61 fc 07 00 49
0.460,fused,,30,0x07,"IMU0_OK, IMU1_OK, FUSION_READY",0.924500,0.011300,0.019000,-0.380400,-44.719,-44.719,2.506,0.369,,,,,,,,,,,,,0,,,Not running,,,,,,,,,,,0.995200,0.020900,0.019600,-0.092700,0.956063,-0.002382,-0.006115,-0.293088,-34.086,-0.750,-0.056,b6 00 00 00 00 00 00 1d 24 71 00 be 00 24 f1 07 1e 3a
0.461,fused,,0,0x07,"IMU0_OK, IMU1_OK, FUSION_READY",0.995200,0.020900,0.019600,-0.092700,-10.595,-10.595,2.458,2.178,,,,,,,,,,,,,0,,,Not running,,,,,,,,,,,0.995200,0.020900,0.019600,-0.092700,1.000000,0.000000,0.000000,0.000000,0.000,0.000,0.000,b6 00 00 00 00 00 00 e0 26 d1 00 c4 00 61 fc 07 00 49
0.461,fused,,30,0x07,"IMU0_OK, IMU1_OK, FUSION_READY",0.924500,0.011300,0.019000,-0.380300,-44.705,-44.705,2.506,0.369,,,,,,,,,,,,,0,,,Not running,,,,,,,,,,,0.995200,0.020900,0.019600,-0.092700,0.956090,-0.002384,-0.006113,-0.293000,-34.076,-0.750,-0.056,b6 00 00 00 00 00 00 1d 24 71 00 be 00 25 f1 07 1e 3b
0.462,fused,,0,0x07,"IMU0_OK, IMU1_OK, FUSION_READY",0.995200,0.020900,0.019600,-0.092700,-10.595,-10.595,2.458,2.178,,,,,,,,,,,,,0,,,Not running,,,,,,,,,,,0.995200,0.020900,0.019600,-0.092700,1.000000,0.000000,0.000000,0.000000,0.000,0.000,0.000,b6 00 00 00 00 00 00 e0 26 d1 00 c4 00 61 fc 07 00 49
0.462,fused,,30,0x07,"IMU0_OK, IMU1_OK, FUSION_READY",0.924500,0.011200,0.019000,-0.380300,-44.705,-44.705,2.502,0.359,,,,,,,,,,,,,0,,,Not running,,,,,,,,,,,0.995200,0.020900,0.019600,-0.092700,0.956089,-0.002484,-0.006122,-0.293002,-34.076,-0.754,-0.067,b6 00 00 00 00 00 00 1d 24 70 00 be 00 25 f1 07 1e 3a
0.463,fused,,0,0x07,"IMU0_OK, IMU1_OK, FUSION_READY",0.995200,0.020900,0.019600,-0.092800,-10.606,-10.606,2.458,2.178,,,,,,,,,,,,,0,,,Not running,,,,,,,,,,,0.995200,0.020900,0.019600,-0.092800,1.000000,0.000000,-0.000000,0.000000,0.000,-0.000,0.000,b6 00 00 00 00 00 00 e0 26 d1 00 c4 00 60 fc 07 00 48
0.463,fused,,30,0x07,"IMU0_OK, IMU1_OK, FUSION_READY",0.924500,0.011200,0.019000,-0.380300,-44.705,-44.705,2.502,0.359,,,,,,,,,,,,,0,,,Not running,,,,,,,,,,,0.995200,0.020900,0.019600,-0.092800,0.956118,-0.002486,-0.006121,-0.292907,-34.064,-0.754,-0.067,b6 00 00 00 00 00 00 1d 24 70 00 be 00 25 f1 07 1e 3a
0.464,fused,,0,0x07,"IMU0_OK, IMU1_OK, FUSION_READY",0.995200,0.020900,0.019600,-0.092800,-10.606,-10.606,2.458,2.178,,,,,,,,,,,,,0,,,Not running,,,,,,,,,,,0.995200,0.020900,0.019600,-0.092800,1.000000,0.000000,-0.000000,0.000000,0.000,-0.000,0.000,b6 00 00 00 00 00 00 e0 26 d1 00 c4 00 60 fc 07 00 48
0.464,fused,,30,0x07,"IMU0_OK, IMU1_OK, FUSION_READY",0.924500,0.011300,0.019000,-0.380300,-44.705,-44.705,2.506,0.369,,,,,,,,,,,,,0,,,Not running,,,,,,,,,,,0.995200,0.020900,0.019600,-0.092800,0.956119,-0.002386,-0.006112,-0.292904,-34.064,-0.750,-0.056,b6 00 00 00 00 00 00 1d 24 71 00 be 00 25 f1 07 1e 3b
0.465,fused,,0,0x07,"IMU0_OK, IMU1_OK, FUSION_READY",0.995200,0.020900,0.019600,-0.092800,-10.606,-10.606,2.458,2.178,,,,,,,,,,,,,0,,,Not running,,,,,,,,,,,0.995200,0.020900,0.019600,-0.092800,1.000000,0.000000,-0.000000,0.000000,0.000,-0.000,0.000,b6 00 00 00 00 00 00 e0 26 d1 00 c4 00 60 fc 07 00 48
0.465,fused,,30,0x07,"IMU0_OK, IMU1_OK, FUSION_READY",0.924600,0.011300,0.019000,-0.380200,-44.694,-44.694,2.506,0.370,,,,,,,,,,,,,0,,,Not running,,,,,,,,,,,0.995200,0.020900,0.019600,-0.092800,0.956157,-0.002390,-0.006112,-0.292780,-34.049,-0.750,-0.057,b6 00 00 00 00 00 00 1e 24 71 00 be 00 26 f1 07 1e 3b
0.466,fused,,0,0x07,"IMU0_OK, IMU1_OK, FUSION_READY",0.995200,0.020900,0.019600,-0.092800,-10.606,-10.606,2.458,2.178,,,,,,,,,,,,,0,,,Not running,,,,,,,,,,,0.995200,0.020900,0.019600,-0.092800,1.000000,0.000000,-0.000000,0.000000,0.000,-0.000,0.000,b6 00 00 00 00 00 00 e0 26 d1 00 c4 00 60 fc 07 00 48
0.466,fused,,30,0x07,"IMU0_OK, IMU1_OK, FUSION_READY",0.924600,0.011400,0.019000,-0.380200,-44.694,-44.694,2.511,0.380,,,,,,,,,,,,,0,,,Not running,,,,,,,,,,,0.995200,0.020900,0.019600,-0.092800,0.956158,-0.002290,-0.006102,-0.292777,-34.049,-0.745,-0.046,b6 00 00 00 00 00 00 1e 24 72 00 be 00 26 f1 07 1e 38
0.467,fused,,0,0x07,"IMU0_OK, IMU1_OK, FUSION_READY",0.995200,0.020900,0.019600,-0.092800,-10.606,-10.606,2.458,2.178,,,,,,,,,,,,,0,,,Not running,,,,,,,,,,,0.995200,0.020900,0.019600,-0.092800,1.000000,0.000000,-0.000000,0.000000,0.000,-0.000,0.000,b6 00 00 00 00 00 00 e0 26 d1 00 c4 00 60 fc 07 00 48
0.521,fused,,30,0x07,"IMU0_OK, IMU1_OK, FUSION_READY",0.924600,0.011300,0.019000,-0.380200,-44.694,-44.694,2.506,0.370,,,,,,,,,,,,,0,,,Not running,,,,,,,,,,,0.995200,0.020900,0.019600,-0.092800,0.956157,-0.002390,-0.006112,-0.292780,-34.049,-0.750,-0.057,b6 00 00 00 00 00 00 1e 24 71 00 be 00 26 f1 07 1e 3b
0.522,fused,,0,0x07,"IMU0_OK, IMU1_OK, FUSION_READY",0.995200,0.020900,0.019600,-0.092800,-10.606,-10.606,2.458,2.178,,,,,,,,,,,,,0,,,Not running,,,,,,,,,,,0.995200,0.020900,0.019600,-0.092800,1.000000,0.000000,-0.000000,0.000000,0.000,-0.000,0.000,b6 00 00 00 00 00 00 e0 26 d1 00 c4 00 60 fc 07 00 48
0.523,fused,,30,0x07,"IMU0_OK, IMU1_OK, FUSION_READY",0.924600,0.011300,0.019000,-0.380200,-44.694,-44.694,2.506,0.370,,,,,,,,,,,,,0,,,Not running,,,,,,,,,,,0.995200,0.020900,0.019600,-0.092800,0.956157,-0.002390,-0.006112,-0.292780,-34.049,-0.750,-0.057,b6 00 00 00 00 00 00 1e 24 71 00 be 00 26 f1 07 1e 3b
0.523,fused,,0,0x07,"IMU0_OK, IMU1_OK, FUSION_READY",0.995200,0.020900,0.019600,-0.092800,-10.606,-10.606,2.458,2.178,,,,,,,,,,,,,0,,,Not running,,,,,,,,,,,0.995200,0.020900,0.019600,-0.092800,1.000000,0.000000,-0.000000,0.000000,0.000,-0.000,0.000,b6 00 00 00 00 00 00 e0 26 d1 00 c4 00 60 fc 07 00 48
0.524,fused,,30,0x07,"IMU0_OK, IMU1_OK, FUSION_READY",0.924600,0.011300,0.019100,-0.380200,-44.695,-44.695,2.517,0.365,,,,,,,,,,,,,0,,,Not running,,,,,,,,,,,0.995200,0.020900,0.019600,-0.092800,0.956158,-0.002399,-0.006012,-0.292781,-34.049,-0.739,-0.061,b6 00 00 00 00 00 00 1e 24 71 00 bf 00 26 f1 07 1e 3a
0.524,fused,,0,0x07,"IMU0_OK, IMU1_OK, FUSION_READY",0.995200,0.020900,0.019700,-0.092800,-10.606,-10.606,2.470,2.177,,,,,,,,,,,,,0,,,Not running,,,,,,,,,,,0.995200,0.020900,0.019700,-0.092800,1.000000,0.000000,-0.000000,0.000000,0.000,-0.000,0.000,b6 00 00 00 00 00 00 e0 26 d1 00 c5 00 60 fc 07 00 49
0.525,fused,,30,0x07,"IMU0_OK, IMU1_OK, FUSION_READY",0.924600,0.011300,0.019100,-0.380200,-44.695,-44.695,2.517,0.365,,,,,,,,,,,,,0,,,Not running,,,,,,,,,,,0.995200,0.020900,0.019700,-0.092800,0.956158,-0.002361,-0.006104,-0.292780,-34.049,-0.748,-0.054,b6 00 00 00 00 00 00 1e 24 71 00 bf 00 26 f1 07 1e 3a
0.525,fused,,0,0x07,"IMU0_OK, IMU1_OK, FUSION_READY",0.995200,0.020900,0.019600,-0.092800,-10.606,-10.606,2.458,2.178,,,,,,,,,,,,,0,,,Not running,,,,,,,,,,,0.995200,0.020900,0.019600,-0.092800,1.000000,0.000000,-0.000000,0.000000,0.000,-0.000,0.000,b6 00 00 00 00 00 00 e0 26 d1 00 c4 00 60 fc 07 00 48
0.526,fused,,30,0x07,"IMU0_OK, IMU1_OK, FUSION_READY",0.924600,0.011300,0.019100,-0.380100,-44.681,-44.681,2.517,0.366,,,,,,,,,,,,,0,,,Not running,,,,,,,,,,,0.995200,0.020900,0.019600,-0.092800,0.956185,-0.002401,-0.006010,-0.292693,-34.039,-0.739,-0.062,b6 00 00 00 00 00 00 1e 24 71 00 bf 00 27 f1 07 1e 3b
0.526,fused,,0,0x07,"IMU0_OK, IMU1_OK, FUSION_READY",0.995200,0.020900,0.019600,-0.092800,-10.606,-10.606,2.458,2.178,,,,,,,,,,,,,0,,,Not running,,,,,,,,,,,0.995200,0.020900,0.019600,-0.092800,1.000000,0.000000,-0.000000,0.000000,0.000,-0.000,0.000,b6 00 00 00 00 00 00 e0 26 d1 00 c4 00 60 fc 07 00 48
0.527,fused,,30,0x07,"IMU0_OK, IMU1_OK, FUSION_READY",0.924600,0.011400,0.019100,-0.380100,-44.681,-44.681,2.521,0.376,,,,,,,,,,,,,0,,,Not running,,,,,,,,,,,0.995200,0.020900,0.019600,-0.092800,0.956186,-0.002302,-0.006001,-0.292691,-34.039,-0.735,-0.051,b6 00 00 00 00 00 00 1e 24 72 00 bf 00 27 f1 07 1e 38
0.527,fused,,0,0x07,"IMU0_OK, IMU1_OK, FUSION_READY",0.995200,0.020900,0.019600,-0.092800,-10.606,-10.606,2.458,2.178,,,,,,,,,,,,,0,,,Not running,,,,,,,,,,,0.995200,0.020900,0.019600,-0.092800,1.000000,0.000000,-0.000000,0.000000,0.000,-0.000,0.000,b6 00 00 00 00 00 00 e0 26 d1 00 c4 00 60 fc 07 00 48
0.528,fused,,30,0x07,"IMU0_OK, IMU1_OK, FUSION_READY",0.924600,0.011400,0.019000,-0.380100,-44.680,-44.680,2.510,0.381,,,,,,,,,,,,,0,,,Not running,,,,,,,,,,,0.995200,0.020900,0.019600,-0.092800,0.956185,-0.002292,-0.006100,-0.292689,-34.038,-0.745,-0.047,b6 00 00 00 00 00 00 1e 24 72 00 be 00 27 f1 07 1e 39
0.528,fused,,0,0x07,"IMU0_OK, IMU1_OK, FUSION_READY",0.995200,0.020900,0.019600,-0.092800,-10.606,-10.606,2.458,2.178,,,,,,,,,,,,,0,,,Not running,,,,,,,,,,,0.995200,0.020900,0.019600,-0.092800,1.000000,0.000000,-0.000000,0.000000,0.000,-0.000,0.000,b6 00 00 00 00 00 00 e0 26 d1 00 c4 00 60 fc 07 00 48
0.582,fused,,30,0x07,"IMU0_OK, IMU1_OK, FUSION_READY",0.924600,0.011500,0.019000,-0.380100,-44.680,-44.680,2.515,0.391,,,,,,,,,,,,,0,,,Not running,,,,,,,,,,,0.995200,0.020900,0.019600,-0.092800,0.956186,-0.002193,-0.006091,-0.292687,-34.038,-0.741,-0.036,b6 00 00 00 00 00 00 1e 24 73 00 be 00 27 f1 07 1e 38
0.583,fused,,0,0x07,"IMU0_OK, IMU1_OK, FUSION_READY",0.995200,0.020900,0.019600,-0.092800,-10.606,-10.606,2.458,2.178,,,,,,,,,,,,,0,,,Not running,,,,,,,,,,,0.995200,0.020900,0.019600,-0.092800,1.000000,0.000000,-0.000000,0.000000,0.000,-0.000,0.000,b6 00 00 00 00 00 00 e0 26 d1 00 c4 00 60 fc 07 00 48
0.583,fused,,30,0x07,"IMU0_OK, IMU1_OK, FUSION_READY",0.924700,0.011500,0.019000,-0.380000,-44.670,-44.670,2.515,0.392,,,,,,,,,,,,,0,,,Not running,,,,,,,,,,,0.995200,0.020900,0.019600,-0.092800,0.956225,-0.002197,-0.006091,-0.292562,-34.023,-0.741,-0.037,b6 00 00 00 00 00 00 1f 24 73 00 be 00 28 f1 07 1e 36
0.584,fused,,0,0x07,"IMU0_OK, IMU1_OK, FUSION_READY",0.995200,0.020900,0.019600,-0.092800,-10.606,-10.606,2.458,2.178,,,,,,,,,,,,,0,,,Not running,,,,,,,,,,,0.995200,0.020900,0.019600,-0.092800,1.000000,0.000000,-0.000000,0.000000,0.000,-0.000,0.000,b6 00 00 00 00 00 00 e0 26 d1 00 c4 00 60 fc 07 00 48
0.584,fused,,30,0x07,"IMU0_OK, IMU1_OK, FUSION_READY",0.924700,0.011500,0.019000,-0.380000,-44.670,-44.670,2.515,0.392,,,,,,,,,,,,,0,,,Not running,,,,,,,,,,,0.995200,0.020900,0.019600,-0.092800,0.956225,-0.002197,-0.006091,-0.292562,-34.023,-0.741,-0.037,b6 00 00 00 00 00 00 1f 24 73 00 be 00 28 f1 07 1e 36
0.585,fused,,0,0x07,"IMU0_OK, IMU1_OK, FUSION_READY",0.995200,0.020800,0.019600,-0.092800,-10.607,-10.607,2.457,2.166,,,,,,,,,,,,,0,,,Not running,,,,,,,,,,,0.995200,0.020800,0.019600,-0.092800,1.000000,0.000000,0.000000,0.000000,0.000,0.000,0.000,b6 00 00 00 00 00 00 e0 26 d0 00 c4 00 60 fc 07 00 49
0.585,fused,,30,0x07,"IMU0_OK, IMU1_OK, FUSION_READY",0.924700,0.011500,0.019000,-0.380000,-44.670,-44.670,2.515,0.392,,,,,,,,,,,,,0,,,Not running,,,,,,,,,,,0.995200,0.020800,0.019600,-0.092800,0.956225,-0.002104,-0.006053,-0.292561,-34.023,-0.734,-0.028,b6 00 00 00 00 00 00 1f 24 73 00 be 00 28 f1 07 1e 36
0.586,fused,,0,0x07,"IMU0_OK, IMU1_OK, FUSION_READY",0.995200,0.020800,0.019600,-0.092900,-10.618,-10.618,2.457,2.166,,,,,,,,,,,,,0,,,Not running,,,,,,,,,,,0.995200,0.020800,0.019600,-0.092900,1.000000,0.000000,0.000000,0.000000,0.000,0.000,0.000,b6 00 00 00 00 00 00 e0 26 d0 00 c4 00 5f fc 07 00 76
0.586,fused,,30,0x07,"IMU0_OK, IMU1_OK, FUSION_READY",0.924700,0.011400,0.019000,-0.380000,-44.670,-44.670,2.511,0.381,,,,,,,,,,,,,0,,,Not running,,,,,,,,,,,0.995200,0.020800,0.019600,-0.092900,0.956254,-0.002206,-0.006061,-0.292468,-34.012,-0.738,-0.039,b6 00 00 00 00 00 00 1f 24 72 00 be 00 28 f1 07 1e 37
0.587,fused,,0,0x07,"IMU0_OK, IMU1_OK, FUSION_READY",0.995200,0.020800,0.019600,-0.092900,-10.618,-10.618,2.457,2.166,,,,,,,,,,,,,0,,,Not running,,,,,,,,,,,0.995200,0.020800,0.019600,-0.092900,1.000000,0.000000,0.000000,0.000000,0.000,0.000,0.000,b6 00 00 00 00 00 00 e0 26 d0 00 c4 00 5f fc 07 00 76
0.587,fused,,30,0x07,"IMU0_OK, IMU1_OK, FUSION_READY",0.924700,0.011300,0.019100,-0.380000,-44.670,-44.670,2.517,0.366,,,,,,,,,,,,,0,,,Not running,,,,,,,,,,,0.995200,0.020800,0.019600,-0.092900,0.956253,-0.002315,-0.005971,-0.292472,-34.012,-0.732,-0.054,b6 00 00 00 00 00 00 1f 24 71 00 bf 00 28 f1 07 1e 35
0.588,fused,,0,0x07,"IMU0_OK, IMU1_OK, FUSION_READY",0.995200,0.020800,0.019600,-0.092900,-10.618,-10.618,2.457,2.166,,,,,,,,,,,,,0,,,Not running,,,,,,,,,,,0.995200,0.020800,0.019600,-0.092900,1.000000,0.000000,0.000000,0.000000,0.000,0.000,0.000,b6 00 00 00 00 00 00 e0 26 d0 00 c4 00 5f fc 07 00 76
0.588,fused,,30,0x07,"IMU0_OK, IMU1_OK, FUSION_READY",0.924700,0.011300,0.019100,-0.380000,-44.670,-44.670,2.517,0.366,,,,,,,,,,,,,0,,,Not running,,,,,,,,,,,0.995200,0.020800,0.019600,-0.092900,0.956253,-0.002315,-0.005971,-0.292472,-34.012,-0.732,-0.054,b6 00 00 00 00 00 00 1f 24 71 00 bf 00 28 f1 07 1e 35
0.589,fused,,0,0x07,"IMU0_OK, IMU1_OK, FUSION_READY",0.995200,0.020800,0.019600,-0.092900,-10.618,-10.618,2.457,2.166,,,,,,,,,,,,,0,,,Not running,,,,,,,,,,,0.995200,0.020800,0.019600,-0.092900,1.000000,0.000000,0.000000,0.000000,0.000,0.000,0.000,b6 00 00 00 00 00 00 e0 26 d0 00 c4 00 5f fc 07 00 76
0.710,fused,,30,0x07,"IMU0_OK, IMU1_OK, FUSION_READY",0.924700,0.011300,0.019100,-0.380000,-44.670,-44.670,2.517,0.366,,,,,,,,,,,,,0,,,Not running,,,,,,,,,,,0.995200,0.020800,0.019600,-0.092900,0.956253,-0.002315,-0.005971,-0.292472,-34.012,-0.732,-0.054,b6 00 00 00 00 00 00 1f 24 71 00 bf 00 28 f1 07 1e 35
0.711,fused,,0,0x07,"IMU0_OK, IMU1_OK, FUSION_READY",0.995200,0.020800,0.019600,-0.092900,-10.618,-10.618,2.457,2.166,,,,,,,,,,,,,0,,,Not running,,,,,,,,,,,0.995200,0.020800,0.019600,-0.092900,1.000000,0.000000,0.000000,0.000000,0.000,0.000,0.000,b6 00 00 00 00 00 00 e0 26 d0 00 c4 00 5f fc 07 00 76
0.712,fused,,30,0x07,"IMU0_OK, IMU1_OK, FUSION_READY",0.924700,0.011300,0.019000,-0.380000,-44.670,-44.670,2.506,0.370,,,,,,,,,,,,,0,,,Not running,,,,,,,,,,,0.995200,0.020800,0.019600,-0.092900,0.956253,-0.002305,-0.006070,-0.292470,-34.012,-0.742,-0.049,b6 00 00 00 00 00 00 1f 24 71 00 be 00 28 f1 07 1e 34
0.713,fused,,0,0x07,"IMU0_OK, IMU1_OK, FUSION_READY",0.995200,0.020800,0.019600,-0.092900,-10.618,-10.618,2.457,2.166,,,,,,,,,,,,,0,,,Not running,,,,,,,,,,,0.995200,0.020800,0.019600,-0.092900,1.000000,0.000000,0.000000,0.000000,0.000,0.000,0.000,b6 00 00 00 00 00 00 e0 26 d0 00 c4 00 5f fc 07 00 76
0.713,fused,,30,0x07,"IMU0_OK, IMU1_OK, FUSION_READY",0.924700,0.011400,0.019000,-0.380000,-44.670,-44.670,2.511,0.381,,,,,,,,,,,,,0,,,Not running,,,,,,,,,,,0.995200,0.020800,0.019600,-0.092900,0.956254,-0.002206,-0.006061,-0.292468,-34.012,-0.738,-0.039,b6 00 00 00 00 00 00 1f 24 72 00 be 00 28 f1 07 1e 37
0.714,fused,,0,0x07,"IMU0_OK, IMU1_OK, FUSION_READY",0.995200,0.020800,0.019600,-0.092900,-10.618,-10.618,2.457,2.166,,,,,,,,,,,,,0,,,Not running,,,,,,,,,,,0.995200,0.020800,0.019600,-0.092900,1.000000,0.000000,0.000000,0.000000,0.000,0.000,0.000,b6 00 00 00 00 00 00 e0 26 d0 00 c4 00 5f fc 07 00 76
0.714,fused,,30,0x07,"IMU0_OK, IMU1_OK, FUSION_READY",0.924700,0.011400,0.019000,-0.379900,-44.656,-44.656,2.510,0.381,,,,,,,,,,,,,0,,,Not running,,,,,,,,,,,0.995200,0.020800,0.019600,-0.092900,0.956281,-0.002208,-0.006059,-0.292379,-34.001,-0.738,-0.039,b6 00 00 00 00 00 00 1f 24 72 00 be 00 29 f1 07 1e 36
0.715,fused,,0,0x07,"IMU0_OK, IMU1_OK, FUSION_READY",0.995200,0.020800,0.019600,-0.092900,-10.618,-10.618,2.457,2.166,,,,,,,,,,,,,0,,,Not running,,,,,,,,,,,0.995200,0.020800,0.019600,-0.092900,1.000000,0.000000,0.000000,0.000000,0.000,0.000,0.000,b6 00 00 00 00 00 00 e0 26 d0 00 c4 00 5f fc 07 00 76
0.715,fused,,30,0x07,"IMU0_OK, IMU1_OK, FUSION_READY",0.924700,0.011400,0.019000,-0.379900,-44.656,-44.656,2.510,0.381,,,,,,,,,,,,,0,,,Not running,,,,,,,,,,,0.995200,0.020800,0.019600,-0.092900,0.956281,-0.002208,-0.006059,-0.292379,-34.001,-0.738,-0.039,b6 00 00 00 00 00 00 1f 24 72 00 be 00 29 f1 07 1e 36
0.716,fused,,0,0x07,"IMU0_OK, IMU1_OK, FUSION_READY",0.995200,0.020800,0.019600,-0.092900,-10.618,-10.618,2.457,2.166,,,,,,,,,,,,,0,,,Not running,,,,,,,,,,,0.995200,0.020800,0.019600,-0.092900,1.000000,0.000000,0.000000,0.000000,0.000,0.000,0.000,b6 00 00 00 00 00 00 e0 26 d0 00 c4 00 5f fc 07 00 76
0.716,fused,,30,0x07,"IMU0_OK, IMU1_OK, FUSION_READY",0.924700,0.011400,0.019000,-0.379900,-44.656,-44.656,2.510,0.381,,,,,,,,,,,,,0,,,Not running,,,,,,,,,,,0.995200,0.020800,0.019600,-0.092900,0.956281,-0.002208,-0.006059,-0.292379,-34.001,-0.738,-0.039,b6 00 00 00 00 00 00 1f 24 72 00 be 00 29 f1 07 1e 36
0.716,fused,,0,0x07,"IMU0_OK, IMU1_OK, FUSION_READY",0.995200,0.020800,0.019600,-0.092900,-10.618,-10.618,2.457,2.166,,,,,,,,,,,,,0,,,Not running,,,,,,,,,,,0.995200,0.020800,0.019600,-0.092900,1.000000,0.000000,0.000000,0.000000,0.000,0.000,0.000,b6 00 00 00 00 00 00 e0 26 d0 00 c4 00 5f fc 07 00 76
0.717,fused,,30,0x07,"IMU0_OK, IMU1_OK, FUSION_READY",0.924700,0.011400,0.019000,-0.379900,-44.656,-44.656,2.510,0.381,,,,,,,,,,,,,0,,,Not running,,,,,,,,,,,0.995200,0.020800,0.019600,-0.092900,0.956281,-0.002208,-0.006059,-0.292379,-34.001,-0.738,-0.039,b6 00 00 00 00 00 00 1f 24 72 00 be 00 29 f1 07 1e 36
0.717,fused,,0,0x07,"IMU0_OK, IMU1_OK, FUSION_READY",0.995200,0.020800,0.019600,-0.092900,-10.618,-10.618,2.457,2.166,,,,,,,,,,,,,0,,,Not running,,,,,,,,,,,0.995200,0.020800,0.019600,-0.092900,1.000000,0.000000,0.000000,0.000000,0.000,0.000,0.000,b6 00 00 00 00 00 00 e0 26 d0 00 c4 00 5f fc 07 00 76
0.773,fused,,30,0x07,"IMU0_OK, IMU1_OK, FUSION_READY",0.924700,0.011500,0.019000,-0.379900,-44.656,-44.656,2.515,0.392,,,,,,,,,,,,,0,,,Not running,,,,,,,,,,,0.995200,0.020800,0.019600,-0.092900,0.956282,-0.002108,-0.006050,-0.292377,-34.001,-0.734,-0.028,b6 00 00 00 00 00 00 1f 24 73 00 be 00 29 f1 07 1e 37
0.777,fused,,0,0x07,"IMU0_OK, IMU1_OK, FUSION_READY",0.995200,0.020800,0.019600,-0.092900,-10.618,-10.618,2.457,2.166,,,,,,,,,,,,,0,,,Not running,,,,,,,,,,,0.995200,0.020800,0.019600,-0.092900,1.000000,0.000000,0.000000,0.000000,0.000,0.000,0.000,b6 00 00 00 00 00 00 e0 26 d0 00 c4 00 5f fc 07 00 76
0.778,fused,,30,0x07,"IMU0_OK, IMU1_OK, FUSION_READY",0.924700,0.011500,0.019000,-0.379800,-44.642,-44.642,2.515,0.392,,,,,,,,,,,,,0,,,Not running,,,,,,,,,,,0.995200,0.020800,0.019600,-0.092900,0.956309,-0.002110,-0.006048,-0.292289,-33.991,-0.733,-0.029,b6 00 00 00 00 00 00 1f 24 73 00 be 00 2a f1 07 1e 34
0.779,fused,,0,0x07,"IMU0_OK, IMU1_OK, FUSION_READY",0.995200,0.020800,0.019600,-0.092900,-10.618,-10.618,2.457,2.166,,,,,,,,,,,,,0,,,Not running,,,,,,,,,,,0.995200,0.020800,0.019600,-0.092900,1.000000,0.000000,0.000000,0.000000,0.000,0.000,0.000,b6 00 00 00 00 00 00 e0 26 d0 00 c4 00 5f fc 07 00 76
0.779,fused,,30,0x07,"IMU0_OK, IMU1_OK, FUSION_READY",0.924700,0.011500,0.019100,-0.379800,-44.643,-44.643,2.525,0.388,,,,,,,,,,,,,0,,,Not running,,,,,,,,,,,0.995200,0.020800,0.019600,-0.092900,0.956309,-0.002120,-0.005948,-0.292290,-33.991,-0.723,-0.033,b6 00 00 00 00 00 00 1f 24 73 00 bf 00 2a f1 07 1e 35
0.780,fused,,0,0x07,"IMU0_OK, IMU1_OK, FUSION_READY",0.995200,0.020800,0.019700,-0.092900,-10.618,-10.618,2.469,2.165,,,,,,,,,,,,,0,,,Not running,,,,,,,,,,,0.995200,0.020800,0.019700,-0.092900,1.000000,0.000000,0.000000,0.000000,0.000,0.000,0.000,b6 00 00 00 00 00 00 e0 26 d0 00 c5 00 5f fc 07 00 77
0.780,fused,,30,0x07,"IMU0_OK, IMU1_OK, FUSION_READY",0.924700,0.011500,0.019100,-0.379800,-44.643,-44.643,2.525,0.388,,,,,,,,,,,,,0,,,Not running,,,,,,,,,,,0.995200,0.020800,0.019700,-0.092900,0.956309,-0.002082,-0.006041,-0.292288,-33.991,-0.732,-0.026,b6 00 00 00 00 00 00 1f 24 73 00 bf 00 2a f1 07 1e 35
0.781,fused,,0,0x07,"IMU0_OK, IMU1_OK, FUSION_READY",0.995200,0.020800,0.019700,-0.093000,-10.630,-10.630,2.469,2.165,,,,,,,,,,,,,0,,,Not running,,,,,,,,,,,0.995200,0.020800,0.019700,-0.093000,1.000000,0.000000,-0.000000,0.000000,0.000,-0.000,0.000,b6 00 00 00 00 00 00 e0 26 d0 00 c5 00 5e fc 07 00 76
0.781,fused,,30,0x07,"IMU0_OK, IMU1_OK, FUSION_READY",0.924700,0.011500,0.019100,-0.379800,-44.643,-44.643,2.525,0.388,,,,,,,,,,,,,0,,,Not running,,,,,,,,,,,0.995200,0.020800,0.019700,-0.093000,0.956338,-0.002084,-0.006039,-0.292193,-33.979,-0.732,-0.026,b6 00 00 00 00 00 00 1f 24 73 00 bf 00 2a f1 07 1e 35
0.782,fused,,0,0x07,"IMU0_OK, IMU1_OK, FUSION_READY",0.995200,0.020800,0.019600,-0.093000,-10.630,-10.630,2.458,2.166,,,,,,,,,,,,,0,,,Not running,,,,,,,,,,,0.995200,0.020800,0.019600,-0.093000,1.000000,0.000000,0.000000,0.000000,0.000,0.000,0.000,b6 00 00 00 00 00 00 e0 26 d0 00 c4 00 5e fc 07 00 77
0.782,fused,,30,0x07,"IMU0_OK, IMU1_OK, FUSION_READY",0.924700,0.011500,0.019100,-0.379800,-44.643,-44.643,2.525,0.388,,,,,,,,,,,,,0,,,Not running,,,,,,,,,,,0.995200,0.020800,0.019600,-0.093000,0.956338,-0.002121,-0.005947,-0.292195,-33.979,-0.723,-0.033,b6 00 00 00 00 00 00 1f 24 73 00 bf 00 2a f1 07 1e 35
0.783,fused,,0,0x07,"IMU0_OK, IMU1_OK, FUSION_READY",0.995200,0.020800,0.019600,-0.093000,-10.630,-10.630,2.458,2.166,,,,,,,,,,,,,0,,,Not running,,,,,,,,,,,0.995200,0.020800,0.019600,-0.093000,1.000000,0.000000,0.000000,0.000000,0.000,0.000,0.000,b6 00 00 00 00 00 00 e0 26 d0 00 c4 00 5e fc 07 00 77
0.783,fused,,30,0x07,"IMU0_OK, IMU1_OK, FUSION_READY",0.924700,0.011500,0.019000,-0.379800,-44.642,-44.642,2.515,0.392,,,,,,,,,,,,,0,,,Not running,,,,,,,,,,,0.995200,0.020800,0.019600,-0.093000,0.956338,-0.002112,-0.006047,-0.292193,-33.979,-0.733,-0.029,b6 00 00 00 00 00 00 1f 24 73 00 be 00 2a f1 07 1e 34
0.784,fused,,0,0x07,"IMU0_OK, IMU1_OK, FUSION_READY",0.995200,0.020800,0.019600,-0.093000,-10.630,-10.630,2.458,2.166,,,,,,,,,,,,,0,,,Not running,,,,,,,,,,,0.995200,0.020800,0.019600,-0.093000,1.000000,0.000000,0.000000,0.000000,0.000,0.000,0.000,b6 00 00 00 00 00 00 e0 26 d0 00 c4 00 5e fc 07 00 77
0.784,fused,,30,0x07,"IMU0_OK, IMU1_OK, FUSION_READY",0.924700,0.011500,0.019000,-0.379800,-44.642,-44.642,2.515,0.392,,,,,,,,,,,,,0,,,Not running,,,,,,,,,,,0.995200,0.020800,0.019600,-0.093000,0.956338,-0.002112,-0.006047,-0.292193,-33.979,-0.733,-0.029,b6 00 00 00 00 00 00 1f 24 73 00 be 00 2a f1 07 1e 34
0.849,fused,,0,0x07,"IMU0_OK, IMU1_OK, FUSION_READY",0.995200,0.020800,0.019600,-0.093000,-10.630,-10.630,2.458,2.166,,,,,,,,,,,,,0,,,Not running,,,,,,,,,,,0.995200,0.020800,0.019600,-0.093000,1.000000,0.000000,0.000000,0.000000,0.000,0.000,0.000,b6 00 00 00 00 00 00 e0 26 d0 00 c4 00 5e fc 07 00 77
0.850,fused,,30,0x07,"IMU0_OK, IMU1_OK, FUSION_READY",0.924800,0.011600,0.019000,-0.379700,-44.632,-44.632,2.519,0.403,,,,,,,,,,,,,0,,,Not running,,,,,,,,,,,0.995200,0.020800,0.019600,-0.093000,0.956377,-0.002017,-0.006037,-0.292066,-33.964,-0.729,-0.019,b6 00 00 00 00 00 00 20 24 74 00 be 00 2b f1 07 1e 0d
0.851,fused,,0,0x07,"IMU0_OK, IMU1_OK, FUSION_READY",0.995200,0.020800,0.019600,-0.093000,-10.630,-10.630,2.458,2.166,,,,,,,,,,,,,0,,,Not running,,,,,,,,,,,0.995200,0.020800,0.019600,-0.093000,1.000000,0.000000,0.000000,0.000000,0.000,0.000,0.000,b6 00 00 00 00 00 00 e0 26 d0 00 c4 00 5e fc 07 00 77
0.851,fused,,30,0x07,"IMU0_OK, IMU1_OK, FUSION_READY",0.924800,0.011600,0.019000,-0.379700,-44.632,-44.632,2.519,0.403,,,,,,,,,,,,,0,,,Not running,,,,,,,,,,,0.995200,0.020800,0.019600,-0.093000,0.956377,-0.002017,-0.006037,-0.292066,-33.964,-0.729,-0.019,b6 00 00 00 00 00 00 20 24 74 00 be 00 2b f1 07 1e 0d
0.852,fused,,0,0x07,"IMU0_OK, IMU1_OK, FUSION_READY",0.995200,0.020800,0.019600,-0.093000,-10.630,-10.630,2.458,2.166,,,,,,,,,,,,,0,,,Not running,,,,,,,,,,,0.995200,0.020800,0.019600,-0.093000,1.000000,0.000000,0.000000,0.000000,0.000,0.000,0.000,b6 00 00 00 00 00 00 e0 26 d0 00 c4 00 5e fc 07 00 77
0.853,fused,,30,0x07,"IMU0_OK, IMU1_OK, FUSION_READY",0.924800,0.011600,0.019000,-0.379700,-44.632,-44.632,2.519,0.403,,,,,,,,,,,,,0,,,Not running,,,,,,,,,,,0.995200,0.020800,0.019600,-0.093000,0.956377,-0.002017,-0.006037,-0.292066,-33.964,-0.729,-0.019,b6 00 00 00 00 00 00 20 24 74 00 be 00 2b f1 07 1e 0d
0.853,fused,,0,0x07,"IMU0_OK, IMU1_OK, FUSION_READY",0.995200,0.020800,0.019600,-0.093000,-10.630,-10.630,2.458,2.166,,,,,,,,,,,,,0,,,Not running,,,,,,,,,,,0.995200,0.020800,0.019600,-0.093000,1.000000,0.000000,0.000000,0.000000,0.000,0.000,0.000,b6 00 00 00 00 00 00 e0 26 d0 00 c4 00 5e fc 07 00 77
0.854,fused,,30,0x07,"IMU0_OK, IMU1_OK, FUSION_READY",0.924800,0.011600,0.019000,-0.379700,-44.632,-44.632,2.519,0.403,,,,,,,,,,,,,0,,,Not running,,,,,,,,,,,0.995200,0.020800,0.019600,-0.093000,0.956377,-0.002017,-0.006037,-0.292066,-33.964,-0.729,-0.019,b6 00 00 00 00 00 00 20 24 74 00 be 00 2b f1 07 1e 0d
0.854,fused,,0,0x07,"IMU0_OK, IMU1_OK, FUSION_READY",0.995200,0.020800,0.019600,-0.093000,-10.630,-10.630,2.458,2.166,,,,,,,,,,,,,0,,,Not running,,,,,,,,,,,0.995200,0.020800,0.019600,-0.093000,1.000000,0.000000,0.000000,0.000000,0.000,0.000,0.000,b6 00 00 00 00 00 00 e0 26 d0 00 c4 00 5e fc 07 00 77
0.854,fused,,30,0x07,"IMU0_OK, IMU1_OK, FUSION_READY",0.924800,0.011700,0.019000,-0.379700,-44.632,-44.632,2.523,0.414,,,,,,,,,,,,,0,,,Not running,,,,,,,,,,,0.995200,0.020800,0.019600,-0.093000,0.956378,-0.001917,-0.006028,-0.292064,-33.964,-0.725,-0.008,b6 00 00 00 00 00 00 20 24 75 00 be 00 2b f1 07 1e 0c
0.855,fused,,0,0x07,"IMU0_OK, IMU1_OK, FUSION_READY",0.995200,0.020800,0.019600,-0.093000,-10.630,-10.630,2.458,2.166,,,,,,,,,,,,,0,,,Not running,,,,,,,,,,,0.995200,0.020800,0.019600,-0.093000,1.000000,0.000000,0.000000,0.000000,0.000,0.000,0.000,b6 00 00 00 00 00 00 e0 26 d0 00 c4 00 5e fc 07 00 77
0.855,fused,,30,0x07,"IMU0_OK, IMU1_OK, FUSION_READY",0.924800,0.011800,0.019000,-0.379600,-44.618,-44.618,2.528,0.424,,,,,,,,,,,,,0,,,Not running,,,,,,,,,,,0.995200,0.020800,0.019600,-0.093000,0.956406,-0.001820,-0.006016,-0.291973,-33.953,-0.720,0.002,b6 00 00 00 00 00 00 20 24 76 00 be 00 2c f1 07 1e 08
0.856,fused,,0,0x07,"IMU0_OK, IMU1_OK, FUSION_READY",0.995200,0.020800,0.019600,-0.093000,-10.630,-10.630,2.458,2.166,,,,,,,,,,,,,0,,,Not running,,,,,,,,,,,0.995200,0.020800,0.019600,-0.093000,1.000000,0.000000,0.000000,0.000000,0.000,0.000,0.000,b6 00 00 00 00 00 00 e0 26 d0 00 c4 00 5e fc 07 00 77
0.856,fused,,30,0x07,"IMU0_OK, IMU1_OK, FUSION_READY",0.924800,0.011800,0.019000,-0.379600,-44.618,-44.618,2.528,0.424,,,,,,,,,,,,,0,,,Not running,,,,,,,,,,,0.995200,0.020800,0.019600,-0.093000,0.956406,-0.001820,-0.006016,-0.291973,-33.953,-0.720,0.002,b6 00 00 00 00 00 00 20 24 76 00 be 00 2c f1 07 1e 08
0.912,fused,,0,0x07,"IMU0_OK, IMU1_OK, FUSION_READY",0.995200,0.020800,0.019500,-0.093000,-10.630,-10.630,2.446,2.167,,,,,,,,,,,,,0,,,Not running,,,,,,,,,,,0.995200,0.020800,0.019500,-0.093000,1.000000,0.000000,0.000000,0.000000,0.000,0.000,0.000,b6 00 00 00 00 00 00 e0 26 d0 00 c3 00 5e fc 07 00 70
0.913,fused,,30,0x07,"IMU0_OK, IMU1_OK, FUSION_READY",0.924800,0.011800,0.019000,-0.379600,-44.618,-44.618,2.528,0.424,,,,,,,,,,,,,0,,,Not running,,,,,,,,,,,0.995200,0.020800,0.019500,-0.093000,0.956406,-0.001858,-0.005924,-0.291975,-33.953,-0.711,-0.005,b6 00 00 00 00 00 00 20 24 76 00 be 00 2c f1 07 1e 08
0.914,fused,,0,0x07,"IMU0_OK, IMU1_OK, FUSION_READY",0.995200,0.020800,0.019500,-0.093000,-10.630,-10.630,2.446,2.167,,,,,,,,,,,,,0,,,Not running,,,,,,,,,,,0.995200,0.020800,0.019500,-0.093000,1.000000,0.000000,0.000000,0.000000,0.000,0.000,0.000,b6 00 00 00 00 00 00 e0 26 d0 00 c3 00 5e fc 07 00 70
0.915,fused,,30,0x07,"IMU0_OK, IMU1_OK, FUSION_READY",0.924800,0.011800,0.019000,-0.379600,-44.618,-44.618,2.528,0.424,,,,,,,,,,,,,0,,,Not running,,,,,,,,,,,0.995200,0.020800,0.019500,-0.093000,0.956406,-0.001858,-0.005924,-0.291975,-33.953,-0.711,-0.005,b6 00 00 00 00 00 00 20 24 76 00 be 00 2c f1 07 1e 08
0.915,fused,,0,0x07,"IMU0_OK, IMU1_OK, FUSION_READY",0.995200,0.020800,0.019500,-0.093000,-10.630,-10.630,2.446,2.167,,,,,,,,,,,,,0,,,Not running,,,,,,,,,,,0.995200,0.020800,0.019500,-0.093000,1.000000,0.000000,0.000000,0.000000,0.000,0.000,0.000,b6 00 00 00 00 00 00 e0 26 d0 00 c3 00 5e fc 07 00 70
0.915,fused,,30,0x07,"IMU0_OK, IMU1_OK, FUSION_READY",0.924800,0.011800,0.019000,-0.379600,-44.618,-44.618,2.528,0.424,,,,,,,,,,,,,0,,,Not running,,,,,,,,,,,0.995200,0.020800,0.019500,-0.093000,0.956406,-0.001858,-0.005924,-0.291975,-33.953,-0.711,-0.005,b6 00 00 00 00 00 00 20 24 76 00 be 00 2c f1 07 1e 08
0.916,fused,,0,0x07,"IMU0_OK, IMU1_OK, FUSION_READY",0.995200,0.020800,0.019500,-0.093100,-10.642,-10.642,2.446,2.167,,,,,,,,,,,,,0,,,Not running,,,,,,,,,,,0.995200,0.020800,0.019500,-0.093100,1.000000,0.000000,-0.000000,0.000000,0.000,-0.000,0.000,b6 00 00 00 00 00 00 e0 26 d0 00 c3 00 5d fc 07 00 73
0.916,fused,,30,0x07,"IMU0_OK, IMU1_OK, FUSION_READY",0.924800,0.011800,0.019000,-0.379600,-44.618,-44.618,2.528,0.424,,,,,,,,,,,,,0,,,Not running,,,,,,,,,,,0.995200,0.020800,0.019500,-0.093100,0.956435,-0.001859,-0.005923,-0.291880,-33.942,-0.711,-0.006,b6 00 00 00 00 00 00 20 24 76 00 be 00 2c f1 07 1e 08
