time_s,protocol,sequence,node_id,status_hex,status_bits,quat_w,quat_x,quat_y,quat_z,yaw_deg,yaw_unwrapped_deg,pitch_deg,roll_deg,imu0_accel_x_mg,imu0_accel_y_mg,imu0_accel_z_mg,imu0_gyro_x_dps,imu0_gyro_y_dps,imu0_gyro_z_dps,imu1_accel_x_mg,imu1_accel_y_mg,imu1_accel_z_mg,imu1_gyro_x_dps,imu1_gyro_y_dps,imu1_gyro_z_dps,guided_test_active,guided_test_step,guided_test_step_label,guided_test_step_status,guided_test_elapsed_s,guided_test_target_node,guided_test_target_label,guided_test_error_deg,guided_test_reference_node,guided_test_reference_label,palm_ref_quat_w,palm_ref_quat_x,palm_ref_quat_y,palm_ref_quat_z,palm_live_quat_w,palm_live_quat_x,palm_live_quat_y,palm_live_quat_z,relative_to_palm_quat_w,relative_to_palm_quat_x,relative_to_palm_quat_y,relative_to_palm_quat_z,relative_to_palm_yaw_deg,relative_to_palm_pitch_deg,relative_to_palm_roll_deg,raw_frame_hex
0.000,fused,,50,0x07,"IMU0_OK, IMU1_OK, FUSION_READY",0.145700,0.003000,-0.014100,-0.989200,-163.240,-163.240,0.105,1.649,,,,,,,,,,,,,0,,,Not running,,,,,,,,,,,0.975600,0.036900,0.031900,-0.213900,0.353417,0.032124,-0.054267,-0.933338,-138.444,1.238,7.125,b6 00 00 00 00 00 00 b1 05 1e 00 73 ff 5c d9 07 32 96
0.001,fused,,0,0x07,"IMU0_OK, IMU1_OK, FUSION_READY",0.975600,0.036900,0.031800,-0.213900,-24.600,-24.600,4.464,3.358,,,,,,,,,,,,,0,,,Not running,,,,,,,,,,,0.975600,0.036900,0.031800,-0.213900,1.000000,0.000000,-0.000000,0.000000,0.000,-0.000,0.000,b6 00 00 00 00 00 00 1c 26 71 01 3e 01 a5 f7 07 00 20
0.002,fused,,40,0x07,"IMU0_OK, IMU1_OK, FUSION_READY",0.998300,0.044000,0.019900,-0.032300,-3.600,-3.600,2.440,4.971,,,,,,,,,,,,,0,,,Not running,,,,,,,,,,,0.975600,0.036900,0.031800,-0.213900,0.983156,0.002860,-0.004112,0.182699,21.053,-0.523,0.236,b6 00 00 00 00 00 00 ff 26 b8 01 c7 00 bd fe 07 28 cb
0.002,fused,,30,0x07,"IMU0_OK, IMU1_OK, FUSION_READY",0.748700,-0.020900,0.002400,0.662500,82.978,82.978,1.793,-1.612,,,,,,,,,,,,,0,,,Not running,,,,,,,,,,,0.975600,0.036900,0.031800,-0.213900,0.588080,-0.069604,-0.001492,0.805800,107.486,6.340,-4.864,b6 00 00 00 00 00 00 3f 1d 2f ff 18 00 e1 19 07 1e 0b
0.003,fused,,50,0x07,"IMU0_OK, IMU1_OK, FUSION_READY",0.145600,0.003000,-0.014100,-0.989200,-163.251,-163.251,0.105,1.649,,,,,,,,,,,,,0,,,Not running,,,,,,,,,,,0.975600,0.036900,0.031800,-0.213900,0.353327,0.032029,-0.054250,-0.933376,-138.455,1.229,7.119,b6 00 00 00 00 00 00 b0 05 1e 00 73 ff 5c d9 07 32 97
0.004,fused,,0,0x07,"IMU0_OK, IMU1_OK, FUSION_READY",0.975600,0.036900,0.031800,-0.213900,-24.600,-24.600,4.464,3.358,,,,,,,,,,,,,0,,,Not running,,,,,,,,,,,0.975600,0.036900,0.031800,-0.213900,1.000000,0.000000,-0.000000,0.000000,0.000,-0.000,0.000,b6 00 00 00 00 00 00 1c 26 71 01 3e 01 a5 f7 07 00 20
0.004,fused,,40,0x07,"IMU0_OK, IMU1_OK, FUSION_READY",0.998300,0.044000,0.019900,-0.032300,-3.600,-3.600,2.440,4.971,,,,,,,,,,,,,0,,,Not running,,,,,,,,,,,0.975600,0.036900,0.031800,-0.213900,0.983156,0.002860,-0.004112,0.182699,21.053,-0.523,0.236,b6 00 00 00 00 00 00 ff 26 b8 01 c7 00 bd fe 07 28 cb
0.005,fused,,30,0x07,"IMU0_OK, IMU1_OK, FUSION_READY",0.748600,-0.020900,0.002400,0.662500,82.977,82.977,1.793,-1.612,,,,,,,,,,,,,0,,,Not running,,,,,,,,,,,0.975600,0.036900,0.031800,-0.213900,0.588027,-0.069606,-0.001489,0.805839,107.493,6.340,-4.863,b6 00 00 00 00 00 00 3e 1d 2f ff 18 00 e1 19 07 1e 0a
0.006,fused,,50,0x07,"IMU0_OK, IMU1_OK, FUSION_READY",0.145600,0.003000,-0.014100,-0.989200,-163.251,-163.251,0.105,1.649,,,,,,,,,,,,,0,,,Not running,,,,,,,,,,,0.975600,0.036900,0.031800,-0.213900,0.353327,0.032029,-0.054250,-0.933376,-138.455,1.229,7.119,b6 00 00 00 00 00 00 b0 05 1e 00 73 ff 5c d9 07 32 97
0.006,fused,,0,0x07,"IMU0_OK, IMU1_OK, FUSION_READY",0.975600,0.036900,0.031800,-0.214000,-24.612,-24.612,4.464,3.358,,,,,,,,,,,,,0,,,Not running,,,,,,,,,,,0.975600,0.036900,0.031800,-0.214000,1.000000,0.000000,0.000000,0.000000,0.000,0.000,0.000,b6 00 00 00 00 00 00 1c 26 71 01 3e 01 a4 f7 07 00 21
0.007,fused,,40,0x07,"IMU0_OK, IMU1_OK, FUSION_READY",0.998300,0.044000,0.019900,-0.032300,-3.600,-3.600,2.440,4.971,,,,,,,,,,,,,0,,,Not running,,,,,,,,,,,0.975600,0.036900,0.031800,-0.214000,0.983138,0.002858,-0.004107,0.182794,21.064,-0.523,0.236,b6 00 00 00 00 00 00 ff 26 b8 01 c7 00 bd fe 07 28 cb
0.008,fused,,30,0x07,"IMU0_OK, IMU1_OK, FUSION_READY",0.748600,-0.020900,0.002400,0.662600,82.993,82.993,1.793,-1.612,,,,,,,,,,,,,0,,,Not running,,,,,,,,,,,0.975600,0.036900,0.031800,-0.214000,0.587888,-0.069603,-0.001487,0.805941,107.513,6.341,-4.862,b6 00 00 00 00 00 00 3e 1d 2f ff 18 00 e2 19 07 1e 09
0.008,fused,,50,0x07,"IMU0_OK, IMU1_OK, FUSION_READY",0.145600,0.002900,-0.014100,-0.989200,-163.251,-163.251,0.093,1.647,,,,,,,,,,,,,0,,,Not running,,,,,,,,,,,0.975600,0.036900,0.031800,-0.214000,0.353415,0.031932,-0.054270,-0.933345,-138.446,1.218,7.117,b6 00 00 00 00 00 00 b0 05 1d 00 73 ff 5c d9 07 32 94
0.009,fused,,0,0x07,"IMU0_OK, IMU1_OK, FUSION_READY",0.975600,0.036900,0.031800,-0.214000,-24.612,-24.612,4.464,3.358,,,,,,,,,,,,,0,,,Not running,,,,,,,,,,,0.975600,0.036900,0.031800,-0.214000,1.000000,0.000000,0.000000,0.000000,0.000,0.000,0.000,b6 00 00 00 00 00 00 1c 26 71 01 3e 01 a4 f7 07 00 21
0.010,fused,,40,0x07,"IMU0_OK, IMU1_OK, FUSION_READY",0.998300,0.044000,0.019900,-0.032300,-3.600,-3.600,2.440,4.971,,,,,,,,,,,,,0,,,Not running,,,,,,,,,,,0.975600,0.036900,0.031800,-0.214000,0.983138,0.002858,-0.004107,0.182794,21.064,-0.523,0.236,b6 00 00 00 00 00 00 ff 26 b8 01 c7 00 bd fe 07 28 cb
0.011,fused,,30,0x07,"IMU0_OK, IMU1_OK, FUSION_READY",0.748600,-0.020900,0.002400,0.662600,82.993,82.993,1.793,-1.612,,,,,,,,,,,,,0,,,Not running,,,,,,,,,,,0.975600,0.036900,0.031800,-0.214000,0.587888,-0.069603,-0.001487,0.805941,107.513,6.341,-4.862,b6 00 00 00 00 00 00 3e 1d 2f ff 18 00 e2 19 07 1e 09
0.012,fused,,50,0x07,"IMU0_OK, IMU1_OK, FUSION_READY",0.145500,0.002900,-0.014100,-0.989200,-163.262,-163.262,0.094,1.647,,,,,,,,,,,,,0,,,Not running,,,,,,,,,,,0.975600,0.036900,0.031800,-0.214000,0.353322,0.031937,-0.054268,-0.933380,-138.457,1.219,7.117,b6 00 00 00 00 00 00 af 05 1d 00 73 ff 5c d9 07 32 8b
0.013,fused,,0,0x07,"IMU0_OK, IMU1_OK, FUSION_READY",0.975600,0.036900,0.031800,-0.214000,-24.612,-24.612,4.464,3.358,,,,,,,,,,,,,0,,,Not running,,,,,,,,,,,0.975600,0.036900,0.031800,-0.214000,1.000000,0.000000,0.000000,0.000000,0.000,0.000,0.000,b6 00 00 00 00 00 00 1c 26 71 01 3e 01 a4 f7 07 00 21
0.014,fused,,40,0x07,"IMU0_OK, IMU1_OK, FUSION_READY",0.998300,0.044000,0.019900,-0.032200,-3.589,-3.589,2.440,4.971,,,,,,,,,,,,,0,,,Not running,,,,,,,,,,,0.975600,0.036900,0.031800,-0.214000,0.983120,0.002855,-0.004104,0.182893,21.076,-0.522,0.236,b6 00 00 00 00 00 00 ff 26 b8 01 c7 00 be fe 07 28 c8
0.015,fused,,30,0x07,"IMU0_OK, IMU1_OK, FUSION_READY",0.748600,-0.020900,0.002400,0.662600,82.993,82.993,1.793,-1.612,,,,,,,,,,,,,0,,,Not running,,,,,,,,,,,0.975600,0.036900,0.031800,-0.214000,0.587888,-0.069603,-0.001487,0.805941,107.513,6.341,-4.862,b6 00 00 00 00 00 00 3e 1d 2f ff 18 00 e2 19 07 1e 09
0.016,fused,,0,0x07,"IMU0_OK, IMU1_OK, FUSION_READY",0.975500,0.036900,0.031800,-0.214000,-24.610,-24.610,4.464,3.357,,,,,,,,,,,,,0,,,Not running,,,,,,,,,,,0.975500,0.036900,0.031800,-0.214000,1.000000,0.000000,0.000000,0.000000,0.000,0.000,0.000,b6 00 00 00 00 00 00 1b 26 71 01 3e 01 a4 f7 07 00 26
0.017,fused,,50,0x07,"IMU0_OK, IMU1_OK, FUSION_READY",0.145500,0.002900,-0.014100,-0.989200,-163.262,-163.262,0.094,1.647,,,,,,,,,,,,,0,,,Not running,,,,,,,,,,,0.975500,0.036900,0.031800,-0.214000,0.353342,0.031939,-0.054271,-0.933372,-138.454,1.219,7.118,b6 00 00 00 00 00 00 af 05 1d 00 73 ff 5c d9 07 32 8b
0.017,fused,,40,0x07,"IMU0_OK, IMU1_OK, FUSION_READY",0.998300,0.044100,0.019900,-0.032200,-3.589,-3.589,2.440,4.982,,,,,,,,,,,,,0,,,Not running,,,,,,,,,,,0.975500,0.036900,0.031800,-0.214000,0.983116,0.002948,-0.004085,0.182916,21.078,-0.522,0.247,b6 00 00 00 00 00 00 ff 26 b9 01 c7 00 be fe 07 28 c9
0.018,fused,,30,0x07,"IMU0_OK, IMU1_OK, FUSION_READY",0.748600,-0.020900,0.002400,0.662600,82.993,82.993,1.793,-1.612,,,,,,,,,,,,,0,,,Not running,,,,,,,,,,,0.975500,0.036900,0.031800,-0.214000,0.587870,-0.069608,-0.001487,0.805954,107.516,6.341,-4.862,b6 00 00 00 00 00 00 3e 1d 2f ff 18 00 e2 19 07 1e 09
0.019,fused,,0,0x07,"IMU0_OK, IMU1_OK, FUSION_READY",0.975500,0.036900,0.031800,-0.214100,-24.622,-24.622,4.465,3.357,,,,,,,,,,,,,0,,,Not running,,,,,,,,,,,0.975500,0.036900,0.031800,-0.214100,1.000000,0.000000,-0.000000,0.000000,0.000,-0.000,0.000,b6 00 00 00 00 00 00 1b 26 71 01 3e 01 a3 f7 07 00 21
0.019,fused,,50,0x07,"IMU0_OK, IMU1_OK, FUSION_READY",0.145500,0.002900,-0.014100,-0.989200,-163.262,-163.262,0.094,1.647,,,,,,,,,,,,,0,,,Not running,,,,,,,,,,,0.975500,0.036900,0.031800,-0.214100,0.353434,0.031940,-0.054270,-0.933338,-138.443,1.218,7.118,b6 00 00 00 00 00 00 af 05 1d 00 73 ff 5c d9 07 32 8b
0.020,fused,,40,0x07,"IMU0_OK, IMU1_OK, FUSION_READY",0.998300,0.044000,0.019900,-0.032200,-3.589,-3.589,2.440,4.971,,,,,,,,,,,,,0,,,Not running,,,,,,,,,,,0.975500,0.036900,0.031800,-0.214100,0.983098,0.002848,-0.004102,0.183010,21.089,-0.522,0.235,b6 00 00 00 00 00 00 ff 26 b8 01 c7 00 be fe 07 28 c8
0.021,fused,,30,0x07,"IMU0_OK, IMU1_OK, FUSION_READY",0.748600,-0.020900,0.002400,0.662600,82.993,82.993,1.793,-1.612,,,,,,,,,,,,,0,,,Not running,,,,,,,,,,,0.975500,0.036900,0.031800,-0.214100,0.587791,-0.069606,-0.001489,0.806011,107.527,6.342,-4.861,b6 00 00 00 00 00 00 3e 1d 2f ff 18 00 e2 19 07 1e 09
0.021,fused,,0,0x07,"IMU0_OK, IMU1_OK, FUSION_READY",0.975500,0.036900,0.031800,-0.214100,-24.622,-24.622,4.465,3.357,,,,,,,,,,,,,0,,,Not running,,,,,,,,,,,0.975500,0.036900,0.031800,-0.214100,1.000000,0.000000,-0.000000,0.000000,0.000,-0.000,0.000,b6 00 00 00 00 00 00 1b 26 71 01 3e 01 a3 f7 07 00 21
0.116,fused,,50,0x07,"IMU0_OK, IMU1_OK, FUSION_READY",0.145400,0.003000,-0.014100,-0.989200,-163.273,-163.273,0.105,1.649,,,,,,,,,,,,,0,,,Not running,,,,,,,,,,,0.975500,0.036900,0.031800,-0.214100,0.353345,0.032042,-0.054246,-0.933369,-138.453,1.231,7.119,b6 00 00 00 00 00 00 ae 05 1e 00 73 ff 5c d9 07 32 89
0.118,fused,,40,0x07,"IMU0_OK, IMU1_OK, FUSION_READY",0.998300,0.044100,0.019900,-0.032200,-3.589,-3.589,2.440,4.982,,,,,,,,,,,,,0,,,Not running,,,,,,,,,,,0.975500,0.036900,0.031800,-0.214100,0.983098,0.002946,-0.004080,0.183012,21.090,-0.521,0.246,b6 00 00 00 00 00 00 ff 26 b9 01 c7 00 be fe 07 28 c9
0.119,fused,,30,0x07,"IMU0_OK, IMU1_OK, FUSION_READY",0.748500,-0.020900,0.002400,0.662600,82.993,82.993,1.793,-1.611,,,,,,,,,,,,,0,,,Not running,,,,,,,,,,,0.975500,0.036900,0.031800,-0.214100,0.587738,-0.069608,-0.001486,0.806050,107.535,6.342,-4.861,b6 00 00 00 00 00 00 3d 1d 2f ff 18 00 e2 19 07 1e 0a
0.120,fused,,0,0x07,"IMU0_OK, IMU1_OK, FUSION_READY",0.975500,0.036900,0.031800,-0.214100,-24.622,-24.622,4.465,3.357,,,,,,,,,,,,,0,,,Not running,,,,,,,,,,,0.975500,0.036900,0.031800,-0.214100,1.000000,0.000000,-0.000000,0.000000,0.000,-0.000,0.000,b6 00 00 00 00 00 00 1b 26 71 01 3e 01 a3 f7 07 00 21
0.121,fused,,50,0x07,"IMU0_OK, IMU1_OK, FUSION_READY",0.145400,0.003000,-0.014100,-0.989200,-163.273,-163.273,0.105,1.649,,,,,,,,,,,,,0,,,Not running,,,,,,,,,,,0.975500,0.036900,0.031800,-0.214100,0.353345,0.032042,-0.054246,-0.933369,-138.453,1.231,7.119,b6 00 00 00 00 00 00 ae 05 1e 00 73 ff 5c d9 07 32 89
0.122,fused,,40,0x07,"IMU0_OK, IMU1_OK, FUSION_READY",0.998300,0.044000,0.019900,-0.032200,-3.589,-3.589,2.440,4.971,,,,,,,,,,,,,0,,,Not running,,,,,,,,,,,0.975500,0.036900,0.031800,-0.214100,0.983098,0.002848,-0.004102,0.183010,21.089,-0.522,0.235,b6 00 00 00 00 00 00 ff 26 b8 01 c7 00 be fe 07 28 c8
0.123,fused,,30,0x07,"IMU0_OK, IMU1_OK, FUSION_READY",0.748500,-0.020900,0.002400,0.662700,83.009,83.009,1.793,-1.611,,,,,,,,,,,,,0,,,Not running,,,,,,,,,,,0.975500,0.036900,0.031800,-0.214100,0.587677,-0.069607,-0.001482,0.806094,107.543,6.343,-4.860,b6 00 00 00 00 00 00 3d 1d 2f ff 18 00 e3 19 07 1e 0b
0.123,fused,,0,0x07,"IMU0_OK, IMU1_OK, FUSION_READY",0.975500,0.036900,0.031800,-0.214100,-24.622,-24.622,4.465,3.357,,,,,,,,,,,,,0,,,Not running,,,,,,,,,,,0.975500,0.036900,0.031800,-0.214100,1.000000,0.000000,-0.000000,0.000000,0.000,-0.000,0.000,b6 00 00 00 00 00 00 1b 26 71 01 3e 01 a3 f7 07 00 21
0.124,fused,,50,0x07,"IMU0_OK, IMU1_OK, FUSION_READY",0.145300,0.003000,-0.014100,-0.989200,-163.283,-163.283,0.105,1.648,,,,,,,,,,,,,0,,,Not running,,,,,,,,,,,0.975500,0.036900,0.031800,-0.214100,0.353252,0.032046,-0.054244,-0.933404,-138.464,1.232,7.119,b6 00 00 00 00 00 00 ad 05 1e 00 73 ff 5c d9 07 32 8a
0.124,fused,,40,0x07,"IMU0_OK, IMU1_OK, FUSION_READY",0.998300,0.044000,0.019900,-0.032100,-3.577,-3.577,2.439,4.971,,,,,,,,,,,,,0,,,Not running,,,,,,,,,,,0.975500,0.036900,0.031800,-0.214100,0.983080,0.002845,-0.004098,0.183108,21.101,-0.521,0.235,b6 00 00 00 00 00 00 ff 26 b8 01 c7 00 bf fe 07 28 c9
0.125,fused,,30,0x07,"IMU0_OK, IMU1_OK, FUSION_READY",0.748500,-0.020900,0.002400,0.662700,83.009,83.009,1.793,-1.611,,,,,,,,,,,,,0,,,Not running,,,,,,,,,,,0.975500,0.036900,0.031800,-0.214100,0.587677,-0.069607,-0.001482,0.806094,107.543,6.343,-4.860,b6 00 00 00 00 00 00 3d 1d 2f ff 18 00 e3 19 07 1e 0b
0.126,fused,,0,0x07,"IMU0_OK, IMU1_OK, FUSION_READY",0.975500,0.036900,0.031800,-0.214200,-24.634,-24.634,4.465,3.356,,,,,,,,,,,,,0,,,Not running,,,,,,,,,,,0.975500,0.036900,0.031800,-0.214200,1.000000,0.000000,0.000000,0.000000,0.000,0.000,0.000,b6 00 00 00 00 00 00 1b 26 71 01 3e 01 a2 f7 07 00 20
0.126,fused,,50,0x07,"IMU0_OK, IMU1_OK, FUSION_READY",0.145300,0.003000,-0.014200,-0.989200,-163.283,-163.283,0.104,1.660,,,,,,,,,,,,,0,,,Not running,,,,,,,,,,,0.975500,0.036900,0.031800,-0.214200,0.353340,0.032068,-0.054340,-0.933365,-138.453,1.230,7.130,b6 00 00 00 00 00 00 ad 05 1e 00 72 ff 5c d9 07 32 8b
0.127,fused,,40,0x07,"IMU0_OK, IMU1_OK, FUSION_READY",0.998300,0.044100,0.019900,-0.032100,-3.577,-3.577,2.439,4.982,,,,,,,,,,,,,0,,,Not running,,,,,,,,,,,0.975500,0.036900,0.031800,-0.214200,0.983062,0.002941,-0.004072,0.183206,21.112,-0.520,0.246,b6 00 00 00 00 00 00 ff 26 b9 01 c7 00 bf fe 07 28 c8
0.128,fused,,30,0x07,"IMU0_OK, IMU1_OK, FUSION_READY",0.748500,-0.020900,0.002400,0.662700,83.009,83.009,1.793,-1.611,,,,,,,,,,,,,0,,,Not running,,,,,,,,,,,0.975500,0.036900,0.031800,-0.214200,0.587599,-0.069605,-0.001484,0.806152,107.554,6.343,-4.859,b6 00 00 00 00 00 00 3d 1d 2f ff 18 00 e3 19 07 1e 0b
0.128,fused,,0,0x07,"IMU0_OK, IMU1_OK, FUSION_READY",0.975500,0.036900,0.031800,-0.214200,-24.634,-24.634,4.465,3.356,,,,,,,,,,,,,0,,,Not running,,,,,,,,,,,0.975500,0.036900,0.031800,-0.214200,1.000000,0.000000,0.000000,0.000000,0.000,0.000,0.000,b6 00 00 00 00 00 00 1b 26 71 01 3e 01 a2 f7 07 00 20
0.129,fused,,50,0x07,"IMU0_OK, IMU1_OK, FUSION_READY",0.145300,0.002900,-0.014200,-0.989200,-163.284,-163.284,0.092,1.658,,,,,,,,,,,,,0,,,Not running,,,,,,,,,,,0.975500,0.036900,0.031800,-0.214200,0.353336,0.031970,-0.054361,-0.933368,-138.455,1.218,7.129,b6 00 00 00 00 00 00 ad 05 1d 00 72 ff 5c d9 07 32 88
0.130,fused,,40,0x07,"IMU0_OK, IMU1_OK, FUSION_READY",0.998300,0.044100,0.019900,-0.032100,-3.577,-3.577,2.439,4.982,,,,,,,,,,,,,0,,,Not running,,,,,,,,,,,0.975500,0.036900,0.031800,-0.214200,0.983062,0.002941,-0.004072,0.183206,21.112,-0.520,0.246,b6 00 00 00 00 00 00 ff 26 b9 01 c7 00 bf fe 07 28 c8
0.131,fused,,30,0x07,"IMU0_OK, IMU1_OK, FUSION_READY",0.748500,-0.020900,0.002400,0.662700,83.009,83.009,1.793,-1.611,,,,,,,,,,,,,0,,,Not running,,,,,,,,,,,0.975500,0.036900,0.031800,-0.214200,0.587599,-0.069605,-0.001484,0.806152,107.554,6.343,-4.859,b6 00 00 00 00 00 00 3d 1d 2f ff 18 00 e3 19 07 1e 0b
0.132,fused,,0,0x07,"IMU0_OK, IMU1_OK, FUSION_READY",0.975500,0.036900,0.031800,-0.214200,-24.634,-24.634,4.465,3.356,,,,,,,,,,,,,0,,,Not running,,,,,,,,,,,0.975500,0.036900,0.031800,-0.214200,1.000000,0.000000,0.000000,0.000000,0.000,0.000,0.000,b6 00 00 00 00 00 00 1b 26 71 01 3e 01 a2 f7 07 00 20
0.133,fused,,50,0x07,"IMU0_OK, IMU1_OK, FUSION_READY",0.145200,0.002900,-0.014200,-0.989200,-163.294,-163.294,0.092,1.658,,,,,,,,,,,,,0,,,Not running,,,,,,,,,,,0.975500,0.036900,0.031800,-0.214200,0.353244,0.031975,-0.054359,-0.933403,-138.466,1.220,7.129,b6 00 00 00 00 00 00 ac 05 1d 00 72 ff 5c d9 07 32 89
0.135,fused,,40,0x07,"IMU0_OK, IMU1_OK, FUSION_READY",0.998300,0.044100,0.019900,-0.032100,-3.577,-3.577,2.439,4.982,,,,,,,,,,,,,0,,,Not running,,,,,,,,,,,0.975500,0.036900,0.031800,-0.214200,0.983062,0.002941,-0.004072,0.183206,21.112,-0.520,0.246,b6 00 00 00 00 00 00 ff 26 b9 01 c7 00 bf fe 07 28 c8
0.135,fused,,30,0x07,"IMU0_OK, IMU1_OK, FUSION_READY",0.748500,-0.020900,0.002400,0.662700,83.009,83.009,1.793,-1.611,,,,,,,,,,,,,0,,,Not running,,,,,,,,,,,0.975500,0.036900,0.031800,-0.214200,0.587599,-0.069605,-0.001484,0.806152,107.554,6.343,-4.859,b6 00 00 00 00 00 00 3d 1d 2f ff 18 00 e3 19 07 1e 0b
0.136,fused,,0,0x07,"IMU0_OK, IMU1_OK, FUSION_READY",0.975500,0.036900,0.031800,-0.214200,-24.634,-24.634,4.465,3.356,,,,,,,,,,,,,0,,,Not running,,,,,,,,,,,0.975500,0.036900,0.031800,-0.214200,1.000000,0.000000,0.000000,0.000000,0.000,0.000,0.000,b6 00 00 00 00 00 00 1b 26 71 01 3e 01 a2 f7 07 00 20
0.137,fused,,50,0x07,"IMU0_OK, IMU1_OK, FUSION_READY",0.145200,0.002900,-0.014200,-0.989200,-163.294,-163.294,0.092,1.658,,,,,,,,,,,,,0,,,Not running,,,,,,,,,,,0.975500,0.036900,0.031800,-0.214200,0.353244,0.031975,-0.054359,-0.933403,-138.466,1.220,7.129,b6 00 00 00 00 00 00 ac 05 1d 00 72 ff 5c d9 07 32 89
0.140,fused,,40,0x07,"IMU0_OK, IMU1_OK, FUSION_READY",0.998300,0.044000,0.019900,-0.032000,-3.566,-3.566,2.439,4.971,,,,,,,,,,,,,0,,,Not running,,,,,,,,,,,0.975500,0.036900,0.031800,-0.214200,0.983044,0.002840,-0.004090,0.183302,21.123,-0.520,0.234,b6 00 00 00 00 00 00 ff 26 b8 01 c7 00 c0 fe 07 28 b6
0.142,fused,,30,0x07,"IMU0_OK, IMU1_OK, FUSION_READY",0.748500,-0.020900,0.002400,0.662700,83.009,83.009,1.793,-1.611,,,,,,,,,,,,,0,,,Not running,,,,,,,,,,,0.975500,0.036900,0.031800,-0.214200,0.587599,-0.069605,-0.001484,0.806152,107.554,6.343,-4.859,b6 00 00 00 00 00 00 3d 1d 2f ff 18 00 e3 19 07 1e 0b
0.142,fused,,0,0x07,"IMU0_OK, IMU1_OK, FUSION_READY",0.975500,0.036900,0.031800,-0.214200,-24.634,-24.634,4.465,3.356,,,,,,,,,,,,,0,,,Not running,,,,,,,,,,,0.975500,0.036900,0.031800,-0.214200,1.000000,0.000000,0.000000,0.000000,0.000,0.000,0.000,b6 00 00 00 00 00 00 1b 26 71 01 3e 01 a2 f7 07 00 20
0.143,fused,,50,0x07,"IMU0_OK, IMU1_OK, FUSION_READY",0.145200,0.002900,-0.014200,-0.989200,-163.294,-163.294,0.092,1.658,,,,,,,,,,,,,0,,,Not running,,,,,,,,,,,0.975500,0.036900,0.031800,-0.214200,0.353244,0.031975,-0.054359,-0.933403,-138.466,1.220,7.129,b6 00 00 00 00 00 00 ac 05 1d 00 72 ff 5c d9 07 32 89
0.144,fused,,40,0x07,"IMU0_OK, IMU1_OK, FUSION_READY",0.998300,0.044000,0.019900,-0.032000,-3.566,-3.566,2.439,4.971,,,,,,,,,,,,,0,,,Not running,,,,,,,,,,,0.975500,0.036900,0.031800,-0.214200,0.983044,0.002840,-0.004090,0.183302,21.123,-0.520,0.234,b6 00 00 00 00 00 00 ff 26 b8 01 c7 00 c0 fe 07 28 b6
0.145,fused,,30,0x07,"IMU0_OK, IMU1_OK, FUSION_READY",0.748400,-0.020900,0.002400,0.662800,83.024,83.024,1.793,-1.611,,,,,,,,,,,,,0,,,Not running,,,,,,,,,,,0.975500,0.036900,0.031800,-0.214200,0.587485,-0.069605,-0.001478,0.806235,107.571,6.344,-4.858,b6 00 00 00 00 00 00 3c 1d 2f ff 18 00 e4 19 07 1e 0d
0.146,fused,,0,0x07,"IMU0_OK, IMU1_OK, FUSION_READY",0.975500,0.036900,0.031800,-0.214300,-24.647,-24.647,4.465,3.356,,,,,,,,,,,,,0,,,Not running,,,,,,,,,,,0.975500,0.036900,0.031800,-0.214300,1.000000,0.000000,0.000000,0.000000,0.000,0.000,0.000,b6 00 00 00 00 00 00 1b 26 71 01 3e 01 a1 f7 07 00 23
0.147,fused,,50,0x07,"IMU0_OK, IMU1_OK, FUSION_READY",0.145100,0.002900,-0.014200,-0.989300,-163.310,-163.310,0.093,1.658,,,,,,,,,,,,,0,,,Not running,,,,,,,,,,,0.975500,0.036900,0.031800,-0.214300,0.353229,0.031980,-0.054353,-0.933409,-138.468,1.221,7.128,b6 00 00 00 00 00 00 ab 05 1d 00 72 ff 5b d9 07 32 89
0.149,fused,,40,0x07,"IMU0_OK, IMU1_OK, FUSION_READY",0.998300,0.044000,0.019900,-0.032000,-3.566,-3.566,2.439,4.971,,,,,,,,,,,,,0,,,Not running,,,,,,,,,,,0.975500,0.036900,0.031800,-0.214300,0.983026,0.002838,-0.004085,0.183398,21.135,-0.520,0.234,b6 00 00 00 00 00 00 ff 26 b8 01 c7 00 c0 fe 07 28 b6
0.150,fused,,30,0x07,"IMU0_OK, IMU1_OK, FUSION_READY",0.748400,-0.020900,0.002400,0.662800,83.024,83.024,1.793,-1.611,,,,,,,,,,,,,0,,,Not running,,,,,,,,,,,0.975500,0.036900,0.031800,-0.214300,0.587406,-0.069604,-0.001480,0.806293,107.582,6.344,-4.857,b6 00 00 00 00 00 00 3c 1d 2f ff 18 00 e4 19 07 1e 0d
0.151,fused,,0,0x07,"IMU0_OK, IMU1_OK, FUSION_READY",0.975500,0.036900,0.031800,-0.214300,-24.647,-24.647,4.465,3.356,,,,,,,,,,,,,0,,,Not running,,,,,,,,,,,0.975500,0.036900,0.031800,-0.214300,1.000000,0.000000,0.000000,0.000000,0.000,0.000,0.000,b6 00 00 00 00 00 00 1b 26 71 01 3e 01 a1 f7 07 00 23
0.153,fused,,50,0x07,"IMU0_OK, IMU1_OK, FUSION_READY",0.145100,0.002900,-0.014200,-0.989300,-163.310,-163.310,0.093,1.658,,,,,,,,,,,,,0,,,Not running,,,,,,,,,,,0.975500,0.036900,0.031800,-0.214300,0.353229,0.031980,-0.054353,-0.933409,-138.468,1.221,7.128,b6 00 00 00 00 00 00 ab 05 1d 00 72 ff 5b d9 07 32 89
0.154,fused,,40,0x07,"IMU0_OK, IMU1_OK, FUSION_READY",0.998300,0.044000,0.019900,-0.032000,-3.566,-3.566,2.439,4.971,,,,,,,,,,,,,0,,,Not running,,,,,,,,,,,0.975500,0.036900,0.031800,-0.214300,0.983026,0.002838,-0.004085,0.183398,21.135,-0.520,0.234,b6 00 00 00 00 00 00 ff 26 b8 01 c7 00 c0 fe 07 28 b6
0.154,fused,,30,0x07,"IMU0_OK, IMU1_OK, FUSION_READY",0.748400,-0.020900,0.002400,0.662800,83.024,83.024,1.793,-1.611,,,,,,,,,,,,,0,,,Not running,,,,,,,,,,,0.975500,0.036900,0.031800,-0.214300,0.587406,-0.069604,-0.001480,0.806293,107.582,6.344,-4.857,b6 00 00 00 00 00 00 3c 1d 2f ff 18 00 e4 19 07 1e 0d
0.156,fused,,0,0x07,"IMU0_OK, IMU1_OK, FUSION_READY",0.975500,0.036900,0.031800,-0.214300,-24.647,-24.647,4.465,3.356,,,,,,,,,,,,,0,,,Not running,,,,,,,,,,,0.975500,0.036900,0.031800,-0.214300,1.000000,0.000000,0.000000,0.000000,0.000,0.000,0.000,b6 00 00 00 00 00 00 1b 26 71 01 3e 01 a1 f7 07 00 23
0.157,fused,,50,0x07,"IMU0_OK, IMU1_OK, FUSION_READY",0.145100,0.002900,-0.014200,-0.989300,-163.310,-163.310,0.093,1.658,,,,,,,,,,,,,0,,,Not running,,,,,,,,,,,0.975500,0.036900,0.031800,-0.214300,0.353229,0.031980,-0.054353,-0.933409,-138.468,1.221,7.128,b6 00 00 00 00 00 00 ab 05 1d 00 72 ff 5b d9 07 32 89
0.158,fused,,40,0x07,"IMU0_OK, IMU1_OK, FUSION_READY",0.998300,0.044000,0.019900,-0.032000,-3.566,-3.566,2.439,4.971,,,,,,,,,,,,,0,,,Not running,,,,,,,,,,,0.975500,0.036900,0.031800,-0.214300,0.983026,0.002838,-0.004085,0.183398,21.135,-0.520,0.234,b6 00 00 00 00 00 00 ff 26 b8 01 c7 00 c0 fe 07 28 b6
0.158,fused,,30,0x07,"IMU0_OK, IMU1_OK, FUSION_READY",0.748400,-0.020900,0.002400,0.662800,83.024,83.024,1.793,-1.611,,,,,,,,,,,,,0,,,Not running,,,,,,,,,,,0.975500,0.036900,0.031800,-0.214300,0.587406,-0.069604,-0.001480,0.806293,107.582,6.344,-4.857,b6 00 00 00 00 00 00 3c 1d 2f ff 18 00 e4 19 07 1e 0d
0.159,fused,,0,0x07,"IMU0_OK, IMU1_OK, FUSION_READY",0.975500,0.036900,0.031800,-0.214300,-24.647,-24.647,4.465,3.356,,,,,,,,,,,,,0,,,Not running,,,,,,,,,,,0.975500,0.036900,0.031800,-0.214300,1.000000,0.000000,0.000000,0.000000,0.000,0.000,0.000,b6 00 00 00 00 00 00 1b 26 71 01 3e 01 a1 f7 07 00 23
0.160,fused,,50,0x07,"IMU0_OK, IMU1_OK, FUSION_READY",0.145000,0.002900,-0.014200,-0.989300,-163.321,-163.321,0.093,1.658,,,,,,,,,,,,,0,,,Not running,,,,,,,,,,,0.975500,0.036900,0.031800,-0.214300,0.353137,0.031984,-0.054351,-0.933444,-138.479,1.222,7.128,b6 00 00 00 00 00 00 aa 05 1d 00 72 ff 5b d9 07 32 88
0.160,fused,,40,0x07,"IMU0_OK, IMU1_OK, FUSION_READY",0.998300,0.044000,0.019900,-0.031900,-3.554,-3.554,2.438,4.971,,,,,,,,,,,,,0,,,Not running,,,,,,,,,,,0.975500,0.036900,0.031800,-0.214300,0.983008,0.002835,-0.004082,0.183496,21.146,-0.519,0.234,b6 00 00 00 00 00 00 ff 26 b8 01 c7 00 c1 fe 07 28 b7
0.161,fused,,30,0x07,"IMU0_OK, IMU1_OK, FUSION_READY",0.748400,-0.020900,0.002400,0.662800,83.024,83.024,1.793,-1.611,,,,,,,,,,,,,0,,,Not running,,,,,,,,,,,0.975500,0.036900,0.031800,-0.214300,0.587406,-0.069604,-0.001480,0.806293,107.582,6.344,-4.857,b6 00 00 00 00 00 00 3c 1d 2f ff 18 00 e4 19 07 1e 0d
0.162,fused,,0,0x07,"IMU0_OK, IMU1_OK, FUSION_READY",0.975500,0.036900,0.031800,-0.214300,-24.647,-24.647,4.465,3.356,,,,,,,,,,,,,0,,,Not running,,,,,,,,,,,0.975500,0.036900,0.031800,-0.214300,1.000000,0.000000,0.000000,0.000000,0.000,0.000,0.000,b6 00 00 00 00 00 00 1b 26 71 01 3e 01 a1 f7 07 00 23
0.162,fused,,50,0x07,"IMU0_OK, IMU1_OK, FUSION_READY",0.145000,0.002900,-0.014200,-0.989300,-163.321,-163.321,0.093,1.658,,,,,,,,,,,,,0,,,Not running,,,,,,,,,,,0.975500,0.036900,0.031800,-0.214300,0.353137,0.031984,-0.054351,-0.933444,-138.479,1.222,7.128,b6 00 00 00 00 00 00 aa 05 1d 00 72 ff 5b d9 07 32 88
0.163,fused,,40,0x07,"IMU0_OK, IMU1_OK, FUSION_READY",0.998300,0.044000,0.019900,-0.031900,-3.554,-3.554,2.438,4.971,,,,,,,,,,,,,0,,,Not running,,,,,,,,,,,0.975500,0.036900,0.031800,-0.214300,0.983008,0.002835,-0.004082,0.183496,21.146,-0.519,0.234,b6 00 00 00 00 00 00 ff 26 b8 01 c7 00 c1 fe 07 28 b7
0.164,fused,,30,0x07,"IMU0_OK, IMU1_OK, FUSION_READY",0.748400,-0.020900,0.002400,0.662900,83.040,83.040,1.794,-1.611,,,,,,,,,,,,,0,,,Not running,,,,,,,,,,,0.975500,0.036900,0.031800,-0.214300,0.587345,-0.069603,-0.001476,0.806337,107.591,6.345,-4.856,b6 00 00 00 00 00 00 3c 1d 2f ff 18 00 e5 19 07 1e 0c
0.165,fused,,0,0x07,"IMU0_OK, IMU1_OK, FUSION_READY",0.975500,0.036900,0.031800,-0.214400,-24.659,-24.659,4.466,3.356,,,,,,,,,,,,,0,,,Not running,,,,,,,,,,,0.975500,0.036900,0.031800,-0.214400,1.000000,0.000000,0.000000,0.000000,0.000,0.000,0.000,b6 00 00 00 00 00 00 1b 26 71 01 3e 01 a0 f7 07 00 22
0.166,fused,,50,0x07,"IMU0_OK, IMU1_OK, FUSION_READY",0.144900,0.002900,-0.014200,-0.989300,-163.332,-163.332,0.093,1.658,,,,,,,,,,,,,0,,,Not running,,,,,,,,,,,0.975500,0.036900,0.031800,-0.214400,0.353136,0.031989,-0.054347,-0.933444,-138.479,1.223,7.128,b6 00 00 00 00 00 00 a9 05 1d 00 72 ff 5b d9 07 32 8b
0.167,fused,,40,0x07,"IMU0_OK, IMU1_OK, FUSION_READY",0.998300,0.044000,0.019900,-0.031900,-3.554,-3.554,2.438,4.971,,,,,,,,,,,,,0,,,Not running,,,,,,,,,,,0.975500,0.036900,0.031800,-0.214400,0.982990,0.002833,-0.004077,0.183592,21.157,-0.519,0.233,b6 00 00 00 00 00 00 ff 26 b8 01 c7 00 c1 fe 07 28 b7
0.168,fused,,30,0x07,"IMU0_OK, IMU1_OK, FUSION_READY",0.748300,-0.020900,0.002400,0.662900,83.039,83.039,1.794,-1.611,,,,,,,,,,,,,0,,,Not running,,,,,,,,,,,0.975500,0.036900,0.031800,-0.214400,0.587213,-0.069603,-0.001475,0.806433,107.609,6.346,-4.855,b6 00 00 00 00 00 00 3b 1d 2f ff 18 00 e5 19 07 1e 0b
0.169,fused,,0,0x07,"IMU0_OK, IMU1_OK, FUSION_READY",0.975500,0.036900,0.031800,-0.214400,-24.659,-24.659,4.466,3.356,,,,,,,,,,,,,0,,,Not running,,,,,,,,,,,0.975500,0.036900,0.031800,-0.214400,1.000000,0.000000,0.000000,0.000000,0.000,0.000,0.000,b6 00 00 00 00 00 00 1b 26 71 01 3e 01 a0 f7 07 00 22
0.170,fused,,50,0x07,"IMU0_OK, IMU1_OK, FUSION_READY",0.144900,0.002900,-0.014200,-0.989300,-163.332,-163.332,0.093,1.658,,,,,,,,,,,,,0,,,Not running,,,,,,,,,,,0.975500,0.036900,0.031800,-0.214400,0.353136,0.031989,-0.054347,-0.933444,-138.479,1.223,7.128,b6 00 00 00 00 00 00 a9 05 1d 00 72 ff 5b d9 07 32 8b
0.171,fused,,40,0x07,"IMU0_OK, IMU1_OK, FUSION_READY",0.998300,0.044000,0.019900,-0.031900,-3.554,-3.554,2.438,4.971,,,,,,,,,,,,,0,,,Not running,,,,,,,,,,,0.975500,0.036900,0.031800,-0.214400,0.982990,0.002833,-0.004077,0.183592,21.157,-0.519,0.233,b6 00 00 00 00 00 00 ff 26 b8 01 c7 00 c1 fe 07 28 b7
0.172,fused,,30,0x07,"IMU0_OK, IMU1_OK, FUSION_READY",0.748300,-0.020900,0.002400,0.662900,83.039,83.039,1.794,-1.611,,,,,,,,,,,,,0,,,Not running,,,,,,,,,,,0.975500,0.036900,0.031800,-0.214400,0.587213,-0.069603,-0.001475,0.806433,107.609,6.346,-4.855,b6 00 00 00 00 00 00 3b 1d 2f ff 18 00 e5 19 07 1e 0b
0.173,fused,,0,0x07,"IMU0_OK, IMU1_OK, FUSION_READY",0.975500,0.036900,0.031800,-0.214400,-24.659,-24.659,4.466,3.356,,,,,,,,,,,,,0,,,Not running,,,,,,,,,,,0.975500,0.036900,0.031800,-0.214400,1.000000,0.000000,0.000000,0.000000,0.000,0.000,0.000,b6 00 00 00 00 00 00 1b 26 71 01 3e 01 a0 f7 07 00 22
0.174,fused,,50,0x07,"IMU0_OK, IMU1_OK, FUSION_READY",0.144900,0.002900,-0.014200,-0.989300,-163.332,-163.332,0.093,1.658,,,,,,,,,,,,,0,,,Not running,,,,,,,,,,,0.975500,0.036900,0.031800,-0.214400,0.353136,0.031989,-0.054347,-0.933444,-138.479,1.223,7.128,b6 00 00 00 00 00 00 a9 05 1d 00 72 ff 5b d9 07 32 8b
0.174,fused,,40,0x07,"IMU0_OK, IMU1_OK, FUSION_READY",0.998300,0.044000,0.019900,-0.031800,-3.543,-3.543,2.438,4.972,,,,,,,,,,,,,0,,,Not running,,,,,,,,,,,0.975500,0.036900,0.031800,-0.214400,0.982972,0.002830,-0.004074,0.183690,21.169,-0.518,0.233,b6 00 00 00 00 00 00 ff 26 b8 01 c7 00 c2 fe 07 28 b4
0.175,fused,,30,0x07,"IMU0_OK, IMU1_OK, FUSION_READY",0.748300,-0.020900,0.002400,0.662900,83.039,83.039,1.794,-1.611,,,,,,,,,,,,,0,,,Not running,,,,,,,,,,,0.975500,0.036900,0.031800,-0.214400,0.587213,-0.069603,-0.001475,0.806433,107.609,6.346,-4.855,b6 00 00 00 00 00 00 3b 1d 2f ff 18 00 e5 19 07 1e 0b
0.176,fused,,0,0x07,"IMU0_OK, IMU1_OK, FUSION_READY",0.975500,0.036900,0.031800,-0.214400,-24.659,-24.659,4.466,3.356,,,,,,,,,,,,,0,,,Not running,,,,,,,,,,,0.975500,0.036900,0.031800,-0.214400,1.000000,0.000000,0.000000,0.000000,0.000,0.000,0.000,b6 00 00 00 00 00 00 1b 26 71 01 3e 01 a0 f7 07 00 22
0.176,fused,,50,0x07,"IMU0_OK, IMU1_OK, FUSION_READY",0.144800,0.002900,-0.014200,-0.989300,-163.343,-163.343,0.093,1.658,,,,,,,,,,,,,0,,,Not running,,,,,,,,,,,0.975500,0.036900,0.031800,-0.214400,0.353043,0.031993,-0.054345,-0.933479,-138.490,1.224,7.127,b6 00 00 00 00 00 00 a8 05 1d 00 72 ff 5b d9 07 32 8a
0.177,fused,,40,0x07,"IMU0_OK, IMU1_OK, FUSION_READY",0.998300,0.044000,0.019900,-0.031800,-3.543,-3.543,2.438,4.972,,,,,,,,,,,,,0,,,Not running,,,,,,,,,,,0.975500,0.036900,0.031800,-0.214400,0.982972,0.002830,-0.004074,0.183690,21.169,-0.518,0.233,b6 00 00 00 00 00 00 ff 26 b8 01 c7 00 c2 fe 07 28 b4
0.177,fused,,0,0x07,"IMU0_OK, IMU1_OK, FUSION_READY",0.975500,0.036900,0.031800,-0.214500,-24.671,-24.671,4.466,3.355,,,,,,,,,,,,,0,,,Not running,,,,,,,,,,,0.975500,0.036900,0.031800,-0.214500,1.000000,0.000000,0.000000,0.000000,0.000,0.000,0.000,b6 00 00 00 00 00 00 1b 26 71 01 3e 01 9f f7 07 00 1d
0.178,fused,,30,0x07,"IMU0_OK, IMU1_OK, FUSION_READY",0.748300,-0.020900,0.002400,0.662900,83.039,83.039,1.794,-1.611,,,,,,,,,,,,,0,,,Not running,,,,,,,,,,,0.975500,0.036900,0.031800,-0.214500,0.587134,-0.069602,-0.001477,0.806491,107.621,6.346,-4.855,b6 00 00 00 00 00 00 3b 1d 2f ff 18 00 e5 19 07 1e 0b
0.179,fused,,50,0x07,"IMU0_OK, IMU1_OK, FUSION_READY",0.144800,0.002900,-0.014200,-0.989300,-163.343,-163.343,0.093,1.658,,,,,,,,,,,,,0,,,Not running,,,,,,,,,,,0.975500,0.036900,0.031800,-0.214500,0.353135,0.031993,-0.054343,-0.933445,-138.479,1.223,7.127,b6 00 00 00 00 00 00 a8 05 1d 00 72 ff 5b d9 07 32 8a
0.179,fused,,40,0x07,"IMU0_OK, IMU1_OK, FUSION_READY",0.998300,0.044100,0.019900,-0.031800,-3.543,-3.543,2.438,4.983,,,,,,,,,,,,,0,,,Not running,,,,,,,,,,,0.975500,0.036900,0.031800,-0.214500,0.982953,0.002925,-0.004048,0.183788,21.180,-0.518,0.244,b6 00 00 00 00 00 00 ff 26 b9 01 c7 00 c2 fe 07 28 b5
0.180,fused,,0,0x07,"IMU0_OK, IMU1_OK, FUSION_READY",0.975400,0.036900,0.031800,-0.214500,-24.669,-24.669,4.466,3.355,,,,,,,,,,,,,0,,,Not running,,,,,,,,,,,0.975400,0.036900,0.031800,-0.214500,1.000000,0.000000,0.000000,0.000000,0.000,0.000,0.000,b6 00 00 00 00 00 00 1a 26 71 01 3e 01 9f f7 07 00 1c
0.275,fused,,30,0x07,"IMU0_OK, IMU1_OK, FUSION_READY",0.748300,-0.020900,0.002400,0.662900,83.039,83.039,1.794,-1.611,,,,,,,,,,,,,0,,,Not running,,,,,,,,,,,0.975400,0.036900,0.031800,-0.214500,0.587116,-0.069606,-0.001477,0.806503,107.623,6.346,-4.855,b6 00 00 00 00 00 00 3b 1d 2f ff 18 00 e5 19 07 1e 0b
0.276,fused,,50,0x07,"IMU0_OK, IMU1_OK, FUSION_READY",0.144800,0.002900,-0.014200,-0.989300,-163.343,-163.343,0.093,1.658,,,,,,,,,,,,,0,,,Not running,,,,,,,,,,,0.975400,0.036900,0.031800,-0.214500,0.353155,0.031996,-0.054347,-0.933437,-138.477,1.223,7.128,b6 00 00 00 00 00 00 a8 05 1d 00 72 ff 5b d9 07 32 8a
0.277,fused,,40,0x07,"IMU0_OK, IMU1_OK, FUSION_READY",0.998300,0.044100,0.019900,-0.031800,-3.543,-3.543,2.438,4.983,,,,,,,,,,,,,0,,,Not running,,,,,,,,,,,0.975400,0.036900,0.031800,-0.214500,0.982949,0.002921,-0.004050,0.183809,21.183,-0.518,0.244,b6 00 00 00 00 00 00 ff 26 b9 01 c7 00 c2 fe 07 28 b5
0.278,fused,,0,0x07,"IMU0_OK, IMU1_OK, FUSION_READY",0.975400,0.036900,0.031800,-0.214500,-24.669,-24.669,4.466,3.355,,,,,,,,,,,,,0,,,Not running,,,,,,,,,,,0.975400,0.036900,0.031800,-0.214500,1.000000,0.000000,0.000000,0.000000,0.000,0.000,0.000,b6 00 00 00 00 00 00 1a 26 71 01 3e 01 9f f7 07 00 1c
0.278,fused,,30,0x07,"IMU0_OK, IMU1_OK, FUSION_READY",0.748300,-0.020900,0.002400,0.663000,83.055,83.055,1.794,-1.611,,,,,,,,,,,,,0,,,Not running,,,,,,,,,,,0.975400,0.036900,0.031800,-0.214500,0.587056,-0.069605,-0.001474,0.806547,107.632,6.347,-4.854,b6 00 00 00 00 00 00 3b 1d 2f ff 18 00 e6 19 07 1e 08
0.279,fused,,50,0x07,"IMU0_OK, IMU1_OK, FUSION_READY",0.144700,0.002900,-0.014200,-0.989300,-163.354,-163.354,0.093,1.658,,,,,,,,,,,,,0,,,Not running,,,,,,,,,,,0.975400,0.036900,0.031800,-0.214500,0.353062,0.032000,-0.054345,-0.933472,-138.488,1.224,7.128,b6 00 00 00 00 00 00 a7 05 1d 00 72 ff 5b d9 07 32 85
0.280,fused,,40,0x07,"IMU0_OK, IMU1_OK, FUSION_READY",0.998300,0.044100,0.019900,-0.031800,-3.543,-3.543,2.438,4.983,,,,,,,,,,,,,0,,,Not running,,,,,,,,,,,0.975400,0.036900,0.031800,-0.214500,0.982949,0.002921,-0.004050,0.183809,21.183,-0.518,0.244,b6 00 00 00 00 00 00 ff 26 b9 01 c7 00 c2 fe 07 28 b5
0.280,fused,,0,0x07,"IMU0_OK, IMU1_OK, FUSION_READY",0.975400,0.036900,0.031800,-0.214500,-24.669,-24.669,4.466,3.355,,,,,,,,,,,,,0,,,Not running,,,,,,,,,,,0.975400,0.036900,0.031800,-0.214500,1.000000,0.000000,0.000000,0.000000,0.000,0.000,0.000,b6 00 00 00 00 00 00 1a 26 71 01 3e 01 9f f7 07 00 1c
0.281,fused,,30,0x07,"IMU0_OK, IMU1_OK, FUSION_READY",0.748200,-0.020900,0.002400,0.663000,83.054,83.054,1.794,-1.611,,,,,,,,,,,,,0,,,Not running,,,,,,,,,,,0.975400,0.036900,0.031800,-0.214500,0.587002,-0.069606,-0.001470,0.806586,107.639,6.348,-4.854,b6 00 00 00 00 00 00 3a 1d 2f ff 18 00 e6 19 07 1e 09
0.282,fused,,50,0x07,"IMU0_OK, IMU1_OK, FUSION_READY",0.144700,0.002900,-0.014200,-0.989300,-163.354,-163.354,0.093,1.658,,,,,,,,,,,,,0,,,Not running,,,,,,,,,,,0.975400,0.036900,0.031800,-0.214500,0.353062,0.032000,-0.054345,-0.933472,-138.488,1.224,7.128,b6 00 00 00 00 00 00 a7 05 1d 00 72 ff 5b d9 07 32 85
0.284,fused,,40,0x07,"IMU0_OK, IMU1_OK, FUSION_READY",0.998300,0.044100,0.020000,-0.031700,-3.531,-3.531,2.449,4.983,,,,,,,,,,,,,0,,,Not running,,,,,,,,,,,0.975400,0.036900,0.031800,-0.214500,0.982932,0.002896,-0.003949,0.183903,21.194,-0.506,0.243,b6 00 00 00 00 00 00 ff 26 b9 01 c8 00 c3 fe 07 28 bb
0.285,fused,,0,0x07,"IMU0_OK, IMU1_OK, FUSION_READY",0.975400,0.036900,0.031800,-0.214500,-24.669,-24.669,4.466,3.355,,,,,,,,,,,,,0,,,Not running,,,,,,,,,,,0.975400,0.036900,0.031800,-0.214500,1.000000,0.000000,0.000000,0.000000,0.000,0.000,0.000,b6 00 00 00 00 00 00 1a 26 71 01 3e 01 9f f7 07 00 1c
0.286,fused,,30,0x07,"IMU0_OK, IMU1_OK, FUSION_READY",0.748200,-0.020900,0.002400,0.663000,83.054,83.054,1.794,-1.611,,,,,,,,,,,,,0,,,Not running,,,,,,,,,,,0.975400,0.036900,0.031800,-0.214500,0.587002,-0.069606,-0.001470,0.806586,107.639,6.348,-4.854,b6 00 00 00 00 00 00 3a 1d 2f ff 18 00 e6 19 07 1e 09
0.287,fused,,50,0x07,"IMU0_OK, IMU1_OK, FUSION_READY",0.144700,0.002900,-0.014200,-0.989300,-163.354,-163.354,0.093,1.658,,,,,,,,,,,,,0,,,Not running,,,,,,,,,,,0.975400,0.036900,0.031800,-0.214500,0.353062,0.032000,-0.054345,-0.933472,-138.488,1.224,7.128,b6 00 00 00 00 00 00 a7 05 1d 00 72 ff 5b d9 07 32 85
0.288,fused,,40,0x07,"IMU0_OK, IMU1_OK, FUSION_READY",0.998300,0.044100,0.020000,-0.031700,-3.531,-3.531,2.449,4.983,,,,,,,,,,,,,0,,,Not running,,,,,,,,,,,0.975400,0.036900,0.031800,-0.214500,0.982932,0.002896,-0.003949,0.183903,21.194,-0.506,0.243,b6 00 00 00 00 00 00 ff 26 b9 01 c8 00 c3 fe 07 28 bb
0.289,fused,,0,0x07,"IMU0_OK, IMU1_OK, FUSION_READY",0.975400,0.036900,0.031800,-0.214600,-24.681,-24.681,4.466,3.355,,,,,,,,,,,,,0,,,Not running,,,,,,,,,,,0.975400,0.036900,0.031800,-0.214600,1.000000,0.000000,0.000000,0.000000,0.000,0.000,0.000,b6 00 00 00 00 00 00 1a 26 71 01 3e 01 9e f7 07 00 1d
0.290,fused,,30,0x07,"IMU0_OK, IMU1_OK, FUSION_READY",0.748200,-0.020900,0.002400,0.663000,83.054,83.054,1.794,-1.611,,,,,,,,,,,,,0,,,Not running,,,,,,,,,,,0.975400,0.036900,0.031800,-0.214600,0.586923,-0.069605,-0.001473,0.806644,107.651,6.348,-4.853,b6 00 00 00 00 00 00 3a 1d 2f ff 18 00 e6 19 07 1e 09
0.291,fused,,50,0x07,"IMU0_OK, IMU1_OK, FUSION_READY",0.144600,0.002900,-0.014200,-0.989300,-163.365,-163.365,0.093,1.658,,,,,,,,,,,,,0,,,Not running,,,,,,,,,,,0.975400,0.036900,0.031800,-0.214600,0.353061,0.032005,-0.054341,-0.933472,-138.488,1.225,7.128,b6 00 00 00 00 00 00 a6 05 1d 00 72 ff 5b d9 07 32 84
0.292,fused,,40,0x07,"IMU0_OK, IMU1_OK, FUSION_READY",0.998300,0.044100,0.019900,-0.031700,-3.531,-3.531,2.437,4.983,,,,,,,,,,,,,0,,,Not running,,,,,,,,,,,0.975400,0.036900,0.031800,-0.214600,0.982913,0.002916,-0.004042,0.184003,21.205,-0.517,0.243,b6 00 00 00 00 00 00 ff 26 b9 01 c7 00 c3 fe 07 28 b4
0.294,fused,,0,0x07,"IMU0_OK, IMU1_OK, FUSION_READY",0.975400,0.036900,0.031800,-0.214600,-24.681,-24.681,4.466,3.355,,,,,,,,,,,,,0,,,Not running,,,,,,,,,,,0.975400,0.036900,0.031800,-0.214600,1.000000,0.000000,0.000000,0.000000,0.000,0.000,0.000,b6 00 00 00 00 00 00 1a 26 71 01 3e 01 9e f7 07 00 1d
0.294,fused,,30,0x07,"IMU0_OK, IMU1_OK, FUSION_READY",0.748200,-0.020900,0.002400,0.663000,83.054,83.054,1.794,-1.611,,,,,,,,,,,,,0,,,Not running,,,,,,,,,,,0.975400,0.036900,0.031800,-0.214600,0.586923,-0.069605,-0.001473,0.806644,107.651,6.348,-4.853,b6 00 00 00 00 00 00 3a 1d 2f ff 18 00 e6 19 07 1e 09
0.295,fused,,50,0x07,"IMU0_OK, IMU1_OK, FUSION_READY",0.144600,0.002900,-0.014200,-0.989300,-163.365,-163.365,0.093,1.658,,,,,,,,,,,,,0,,,Not running,,,,,,,,,,,0.975400,0.036900,0.031800,-0.214600,0.353061,0.032005,-0.054341,-0.933472,-138.488,1.225,7.128,b6 00 00 00 00 00 00 a6 05 1d 00 72 ff 5b d9 07 32 84
0.295,fused,,40,0x07,"IMU0_OK, IMU1_OK, FUSION_READY",0.998300,0.044100,0.019900,-0.031700,-3.531,-3.531,2.437,4.983,,,,,,,,,,,,,0,,,Not running,,,,,,,,,,,0.975400,0.036900,0.031800,-0.214600,0.982913,0.002916,-0.004042,0.184003,21.205,-0.517,0.243,b6 00 00 00 00 00 00 ff 26 b9 01 c7 00 c3 fe 07 28 b4
0.296,fused,,0,0x07,"IMU0_OK, IMU1_OK, FUSION_READY",0.975400,0.036900,0.031800,-0.214600,-24.681,-24.681,4.466,3.355,,,,,,,,,,,,,0,,,Not running,,,,,,,,,,,0.975400,0.036900,0.031800,-0.214600,1.000000,0.000000,0.000000,0.000000,0.000,0.000,0.000,b6 00 00 00 00 00 00 1a 26 71 01 3e 01 9e f7 07 00 1d
0.297,fused,,30,0x07,"IMU0_OK, IMU1_OK, FUSION_READY",0.748200,-0.020900,0.002400,0.663100,83.070,83.070,1.794,-1.611,,,,,,,,,,,,,0,,,Not running,,,,,,,,,,,0.975400,0.036900,0.031800,-0.214600,0.586863,-0.069604,-0.001469,0.806688,107.659,6.348,-4.852,b6 00 00 00 00 00 00 3a 1d 2f ff 18 00 e7 19 07 1e 08
0.297,fused,,50,0x07,"IMU0_OK, IMU1_OK, FUSION_READY",0.144500,0.002900,-0.014200,-0.989300,-163.375,-163.375,0.094,1.658,,,,,,,,,,,,,0,,,Not running,,,,,,,,,,,0.975400,0.036900,0.031800,-0.214600,0.352969,0.032009,-0.054339,-0.933507,-138.499,1.226,7.127,b6 00 00 00 00 00 00 a5 05 1d 00 72 ff 5b d9 07 32 87
0.298,fused,,40,0x07,"IMU0_OK, IMU1_OK, FUSION_READY",0.998300,0.044100,0.019900,-0.031700,-3.531,-3.531,2.437,4.983,,,,,,,,,,,,,0,,,Not running,,,,,,,,,,,0.975400,0.036900,0.031800,-0.214600,0.982913,0.002916,-0.004042,0.184003,21.205,-0.517,0.243,b6 00 00 00 00 00 00 ff 26 b9 01 c7 00 c3 fe 07 28 b4
0.299,fused,,0,0x07,"IMU0_OK, IMU1_OK, FUSION_READY",0.975400,0.036900,0.031800,-0.214600,-24.681,-24.681,4.466,3.355,,,,,,,,,,,,,0,,,Not running,,,,,,,,,,,0.975400,0.036900,0.031800,-0.214600,1.000000,0.000000,0.000000,0.000000,0.000,0.000,0.000,b6 00 00 00 00 00 00 1a 26 71 01 3e 01 9e f7 07 00 1d
0.300,fused,,30,0x07,"IMU0_OK, IMU1_OK, FUSION_READY",0.748200,-0.020900,0.002400,0.663100,83.070,83.070,1.794,-1.611,,,,,,,,,,,,,0,,,Not running,,,,,,,,,,,0.975400,0.036900,0.031800,-0.214600,0.586863,-0.069604,-0.001469,0.806688,107.659,6.348,-4.852,b6 00 00 00 00 00 00 3a 1d 2f ff 18 00 e7 19 07 1e 08
0.302,fused,,50,0x07,"IMU0_OK, IMU1_OK, FUSION_READY",0.144500,0.002900,-0.014200,-0.989300,-163.375,-163.375,0.094,1.658,,,,,,,,,,,,,0,,,Not running,,,,,,,,,,,0.975400,0.036900,0.031800,-0.214600,0.352969,0.032009,-0.054339,-0.933507,-138.499,1.226,7.127,b6 00 00 00 00 00 00 a5 05 1d 00 72 ff 5b d9 07 32 87
0.303,fused,,40,0x07,"IMU0_OK, IMU1_OK, FUSION_READY",0.998300,0.044100,0.019900,-0.031600,-3.520,-3.520,2.437,4.984,,,,,,,,,,,,,0,,,Not running,,,,,,,,,,,0.975400,0.036900,0.031800,-0.214600,0.982895,0.002913,-0.004038,0.184101,21.217,-0.516,0.243,b6 00 00 00 00 00 00 ff 26 b9 01 c7 00 c4 fe 07 28 b3
0.304,fused,,0,0x07,"IMU0_OK, IMU1_OK, FUSION_READY",0.975400,0.036900,0.031800,-0.214700,-24.693,-24.693,4.467,3.354,,,,,,,,,,,,,0,,,Not running,,,,,,,,,,,0.975400,0.036900,0.031800,-0.214700,1.000000,0.000000,0.000000,0.000000,0.000,0.000,0.000,b6 00 00 00 00 00 00 1a 26 71 01 3e 01 9d f7 07 00 1e
0.305,fused,,30,0x07,"IMU0_OK, IMU1_OK, FUSION_READY",0.748200,-0.020900,0.002400,0.663100,83.070,83.070,1.794,-1.611,,,,,,,,,,,,,0,,,Not running,,,,,,,,,,,0.975400,0.036900,0.031800,-0.214700,0.586784,-0.069603,-0.001471,0.806745,107.670,6.349,-4.852,b6 00 00 00 00 00 00 3a 1d 2f ff 18 00 e7 19 07 1e 08
0.306,fused,,50,0x07,"IMU0_OK, IMU1_OK, FUSION_READY",0.144500,0.002900,-0.014200,-0.989300,-163.375,-163.375,0.094,1.658,,,,,,,,,,,,,0,,,Not running,,,,,,,,,,,0.975400,0.036900,0.031800,-0.214700,0.353060,0.032010,-0.054337,-0.933473,-138.488,1.226,7.127,b6 00 00 00 00 00 00 a5 05 1d 00 72 ff 5b d9 07 32 87
0.308,fused,,40,0x07,"IMU0_OK, IMU1_OK, FUSION_READY",0.998300,0.044100,0.019900,-0.031600,-3.520,-3.520,2.437,4.984,,,,,,,,,,,,,0,,,Not running,,,,,,,,,,,0.975400,0.036900,0.031800,-0.214700,0.982877,0.002910,-0.004034,0.184197,21.228,-0.516,0.243,b6 00 00 00 00 00 00 ff 26 b9 01 c7 00 c4 fe 07 28 b3
0.309,fused,,0,0x07,"IMU0_OK, IMU1_OK, FUSION_READY",0.975400,0.036900,0.031800,-0.214700,-24.693,-24.693,4.467,3.354,,,,,,,,,,,,,0,,,Not running,,,,,,,,,,,0.975400,0.036900,0.031800,-0.214700,1.000000,0.000000,0.000000,0.000000,0.000,0.000,0.000,b6 00 00 00 00 00 00 1a 26 71 01 3e 01 9d f7 07 00 1e
0.310,fused,,30,0x07,"IMU0_OK, IMU1_OK, FUSION_READY",0.748100,-0.020900,0.002400,0.663100,83.069,83.069,1.794,-1.610,,,,,,,,,,,,,0,,,Not running,,,,,,,,,,,0.975400,0.036900,0.031800,-0.214700,0.586731,-0.069604,-0.001468,0.806784,107.678,6.349,-4.851,b6 00 00 00 00 00 00 39 1d 2f ff 18 00 e7 19 07 1e 0b
0.311,fused,,50,0x07,"IMU0_OK, IMU1_OK, FUSION_READY",0.144400,0.002900,-0.014200,-0.989400,-163.391,-163.391,0.094,1.658,,,,,,,,,,,,,0,,,Not running,,,,,,,,,,,0.975400,0.036900,0.031800,-0.214700,0.352954,0.032014,-0.054333,-0.933513,-138.501,1.227,7.127,b6 00 00 00 00 00 00 a4 05 1d 00 72 ff 5a d9 07 32 87
0.312,fused,,40,0x07,"IMU0_OK, IMU1_OK, FUSION_READY",0.998300,0.044100,0.019900,-0.031600,-3.520,-3.520,2.437,4.984,,,,,,,,,,,,,0,,,Not running,,,,,,,,,,,0.975400,0.036900,0.031800,-0.214700,0.982877,0.002910,-0.004034,0.184197,21.228,-0.516,0.243,b6 00 00 00 00 00 00 ff 26 b9 01 c7 00 c4 fe 07 28 b3
0.313,fused,,0,0x07,"IMU0_OK, IMU1_OK, FUSION_READY",0.975400,0.036900,0.031800,-0.214700,-24.693,-24.693,4.467,3.354,,,,,,,,,,,,,0,,,Not running,,,,,,,,,,,0.975400,0.036900,0.031800,-0.214700,1.000000,0.000000,0.000000,0.000000,0.000,0.000,0.000,b6 00 00 00 00 00 00 1a 26 71 01 3e 01 9d f7 07 00 1e
0.314,fused,,30,0x07,"IMU0_OK, IMU1_OK, FUSION_READY",0.748100,-0.020900,0.002300,0.663100,83.069,83.069,1.786,-1.618,,,,,,,,,,,,,0,,,Not running,,,,,,,,,,,0.975400,0.036900,0.031800,-0.214700,0.586727,-0.069583,-0.001565,0.806788,107.679,6.341,-4.859,b6 00 00 00 00 00 00 39 1d 2f ff 17 00 e7 19 07 1e 04
0.316,fused,,50,0x07,"IMU0_OK, IMU1_OK, FUSION_READY",0.144400,0.002900,-0.014200,-0.989400,-163.391,-163.391,0.094,1.658,,,,,,,,,,,,,0,,,Not running,,,,,,,,,,,0.975400,0.036900,0.031800,-0.214700,0.352954,0.032014,-0.054333,-0.933513,-138.501,1.227,7.127,b6 00 00 00 00 00 00 a4 05 1d 00 72 ff 5a d9 07 32 87
0.317,fused,,40,0x07,"IMU0_OK, IMU1_OK, FUSION_READY",0.998300,0.044100,0.019900,-0.031600,-3.520,-3.520,2.437,4.984,,,,,,,,,,,,,0,,,Not running,,,,,,,,,,,0.975400,0.036900,0.031800,-0.214700,0.982877,0.002910,-0.004034,0.184197,21.228,-0.516,0.243,b6 00 00 00 00 00 00 ff 26 b9 01 c7 00 c4 fe 07 28 b3
0.318,fused,,0,0x07,"IMU0_OK, IMU1_OK, FUSION_READY",0.975400,0.036900,0.031800,-0.214700,-24.693,-24.693,4.467,3.354,,,,,,,,,,,,,0,,,Not running,,,,,,,,,,,0.975400,0.036900,0.031800,-0.214700,1.000000,0.000000,0.000000,0.000000,0.000,0.000,0.000,b6 00 00 00 00 00 00 1a 26 71 01 3e 01 9d f7 07 00 1e
0.319,fused,,30,0x07,"IMU0_OK, IMU1_OK, FUSION_READY",0.748100,-0.020900,0.002300,0.663100,83.069,83.069,1.786,-1.618,,,,,,,,,,,,,0,,,Not running,,,,,,,,,,,0.975400,0.036900,0.031800,-0.214700,0.586727,-0.069583,-0.001565,0.806788,107.679,6.341,-4.859,b6 00 00 00 00 00 00 39 1d 2f ff 17 00 e7 19 07 1e 04
0.320,fused,,50,0x07,"IMU0_OK, IMU1_OK, FUSION_READY",0.144400,0.002900,-0.014200,-0.989400,-163.391,-163.391,0.094,1.658,,,,,,,,,,,,,0,,,Not running,,,,,,,,,,,0.975400,0.036900,0.031800,-0.214700,0.352954,0.032014,-0.054333,-0.933513,-138.501,1.227,7.127,b6 00 00 00 00 00 00 a4 05 1d 00 72 ff 5a d9 07 32 87
0.320,fused,,40,0x07,"IMU0_OK, IMU1_OK, FUSION_READY",0.998300,0.044100,0.020000,-0.031500,-3.508,-3.508,2.448,4.984,,,,,,,,,,,,,0,,,Not running,,,,,,,,,,,0.975400,0.036900,0.031800,-0.214700,0.982860,0.002886,-0.003932,0.184291,21.239,-0.504,0.242,b6 00 00 00 00 00 00 ff 26 b9 01 c8 00 c5 fe 07 28 bd
0.321,fused,,0,0x07,"IMU0_OK, IMU1_OK, FUSION_READY",0.975400,0.036900,0.031800,-0.214800,-24.706,-24.706,4.467,3.354,,,,,,,,,,,,,0,,,Not running,,,,,,,,,,,0.975400,0.036900,0.031800,-0.214800,1.000000,0.000000,0.000000,0.000000,0.000,0.000,0.000,b6 00 00 00 00 00 00 1a 26 71 01 3e 01 9c f7 07 00 1f
0.322,fused,,30,0x07,"IMU0_OK, IMU1_OK, FUSION_READY",0.748100,-0.020900,0.002400,0.663200,83.086,83.086,1.794,-1.610,,,,,,,,,,,,,0,,,Not running,,,,,,,,,,,0.975400,0.036900,0.031800,-0.214800,0.586591,-0.069601,-0.001466,0.806886,107.698,6.350,-4.850,b6 00 00 00 00 00 00 39 1d 2f ff 18 00 e8 19 07 1e 04
0.324,fused,,50,0x07,"IMU0_OK, IMU1_OK, FUSION_READY",0.144300,0.002900,-0.014200,-0.989400,-163.402,-163.402,0.094,1.658,,,,,,,,,,,,,0,,,Not running,,,,,,,,,,,0.975400,0.036900,0.031800,-0.214800,0.352953,0.032019,-0.054329,-0.933513,-138.501,1.228,7.127,b6 00 00 00 00 00 00 a3 05 1d 00 72 ff 5a d9 07 32 80
0.326,fused,,40,0x07,"IMU0_OK, IMU1_OK, FUSION_READY",0.998300,0.044100,0.019900,-0.031500,-3.508,-3.508,2.436,4.984,,,,,,,,,,,,,0,,,Not running,,,,,,,,,,,0.975400,0.036900,0.031800,-0.214800,0.982840,0.002905,-0.004025,0.184391,21.250,-0.515,0.242,b6 00 00 00 00 00 00 ff 26 b9 01 c7 00 c5 fe 07 28 b2
0.326,fused,,0,0x07,"IMU0_OK, IMU1_OK, FUSION_READY",0.975400,0.036900,0.031800,-0.214800,-24.706,-24.706,4.467,3.354,,,,,,,,,,,,,0,,,Not running,,,,,,,,,,,0.975400,0.036900,0.031800,-0.214800,1.000000,0.000000,0.000000,0.000000,0.000,0.000,0.000,b6 00 00 00 00 00 00 1a 26 71 01 3e 01 9c f7 07 00 1f
0.327,fused,,30,0x07,"IMU0_OK, IMU1_OK, FUSION_READY",0.748100,-0.020900,0.002300,0.663200,83.086,83.086,1.786,-1.618,,,,,,,,,,,,,0,,,Not running,,,,,,,,,,,0.975400,0.036900,0.031800,-0.214800,0.586588,-0.069580,-0.001564,0.806889,107.698,6.341,-4.857,b6 00 00 00 00 00 00 39 1d 2f ff 17 00 e8 19 07 1e 0b
0.328,fused,,50,0x07,"IMU0_OK, IMU1_OK, FUSION_READY",0.144300,0.002900,-0.014200,-0.989400,-163.402,-163.402,0.094,1.658,,,,,,,,,,,,,0,,,Not running,,,,,,,,,,,0.975400,0.036900,0.031800,-0.214800,0.352953,0.032019,-0.054329,-0.933513,-138.501,1.228,7.127,b6 00 00 00 00 00 00 a3 05 1d 00 72 ff 5a d9 07 32 80
0.328,fused,,40,0x07,"IMU0_OK, IMU1_OK, FUSION_READY",0.998300,0.044100,0.020000,-0.031500,-3.508,-3.508,2.448,4.984,,,,,,,,,,,,,0,,,Not running,,,,,,,,,,,0.975400,0.036900,0.031800,-0.214800,0.982842,0.002884,-0.003928,0.184387,21.250,-0.503,0.242,b6 00 00 00 00 00 00 ff 26 b9 01 c8 00 c5 fe 07 28 bd
0.329,fused,,0,0x07,"IMU0_OK, IMU1_OK, FUSION_READY",0.975400,0.036900,0.031700,-0.214800,-24.706,-24.706,4.456,3.356,,,,,,,,,,,,,0,,,Not running,,,,,,,,,,,0.975400,0.036900,0.031700,-0.214800,1.000000,0.000000,0.000000,0.000000,0.000,0.000,0.000,b6 00 00 00 00 00 00 1a 26 71 01 3d 01 9c f7 07 00 1c
0.329,fused,,30,0x07,"IMU0_OK, IMU1_OK, FUSION_READY",0.748100,-0.020900,0.002300,0.663200,83.086,83.086,1.786,-1.618,,,,,,,,,,,,,0,,,Not running,,,,,,,,,,,0.975400,0.036900,0.031700,-0.214800,0.586590,-0.069514,-0.001489,0.806894,107.699,6.340,-4.846,b6 00 00 00 00 00 00 39 1d 2f ff 17 00 e8 19 07 1e 0b
0.388,fused,,50,0x07,"IMU0_OK, IMU1_OK, FUSION_READY",0.144200,0.002900,-0.014200,-0.989400,-163.413,-163.413,0.094,1.658,,,,,,,,,,,,,0,,,Not running,,,,,,,,,,,0.975400,0.036900,0.031700,-0.214800,0.352863,0.031925,-0.054312,-0.933552,-138.513,1.219,7.121,b6 00 00 00 00 00 00 a2 05 1d 00 72 ff 5a d9 07 32 81
0.389,fused,,40,0x07,"IMU0_OK, IMU1_OK, FUSION_READY",0.998300,0.044100,0.020000,-0.031500,-3.508,-3.508,2.448,4.984,,,,,,,,,,,,,0,,,Not running,,,,,,,,,,,0.975400,0.036900,0.031700,-0.214800,0.982843,0.002881,-0.003828,0.184383,21.250,-0.492,0.244,b6 00 00 00 00 00 00 ff 26 b9 01 c8 00 c5 fe 07 28 bd
0.390,fused,,0,0x07,"IMU0_OK, IMU1_OK, FUSION_READY",0.975400,0.036900,0.031700,-0.214800,-24.706,-24.706,4.456,3.356,,,,,,,,,,,,,0,,,Not running,,,,,,,,,,,0.975400,0.036900,0.031700,-0.214800,1.000000,0.000000,0.000000,0.000000,0.000,0.000,0.000,b6 00 00 00 00 00 00 1a 26 71 01 3d 01 9c f7 07 00 1c
0.391,fused,,30,0x07,"IMU0_OK, IMU1_OK, FUSION_READY",0.748000,-0.020900,0.002300,0.663200,83.085,83.085,1.786,-1.618,,,,,,,,,,,,,0,,,Not running,,,,,,,,,,,0.975400,0.036900,0.031700,-0.214800,0.586536,-0.069515,-0.001486,0.806933,107.707,6.341,-4.845,b6 00 00 00 00 00 00 38 1d 2f ff 17 00 e8 19 07 1e 0a
0.392,fused,,50,0x07,"IMU0_OK, IMU1_OK, FUSION_READY",0.144200,0.002900,-0.014200,-0.989400,-163.413,-163.413,0.094,1.658,,,,,,,,,,,,,0,,,Not running,,,,,,,,,,,0.975400,0.036900,0.031700,-0.214800,0.352863,0.031925,-0.054312,-0.933552,-138.513,1.219,7.121,b6 00 00 00 00 00 00 a2 05 1d 00 72 ff 5a d9 07 32 81
0.392,fused,,40,0x07,"IMU0_OK, IMU1_OK, FUSION_READY",0.998300,0.044100,0.020000,-0.031500,-3.508,-3.508,2.448,4.984,,,,,,,,,,,,,0,,,Not running,,,,,,,,,,,0.975400,0.036900,0.031700,-0.214800,0.982843,0.002881,-0.003828,0.184383,21.250,-0.492,0.244,b6 00 00 00 00 00 00 ff 26 b9 01 c8 00 c5 fe 07 28 bd
0.393,fused,,0,0x07,"IMU0_OK, IMU1_OK, FUSION_READY",0.975400,0.036900,0.031700,-0.214800,-24.706,-24.706,4.456,3.356,,,,,,,,,,,,,0,,,Not running,,,,,,,,,,,0.975400,0.036900,0.031700,-0.214800,1.000000,0.000000,0.000000,0.000000,0.000,0.000,0.000,b6 00 00 00 00 00 00 1a 26 71 01 3d 01 9c f7 07 00 1c
0.394,fused,,30,0x07,"IMU0_OK, IMU1_OK, FUSION_READY",0.748000,-0.020900,0.002300,0.663200,83.085,83.085,1.786,-1.618,,,,,,,,,,,,,0,,,Not running,,,,,,,,,,,0.975400,0.036900,0.031700,-0.214800,0.586536,-0.069515,-0.001486,0.806933,107.707,6.341,-4.845,b6 00 00 00 00 00 00 38 1d 2f ff 17 00 e8 19 07 1e 0a
0.395,fused,,50,0x07,"IMU0_OK, IMU1_OK, FUSION_READY",0.144200,0.002900,-0.014200,-0.989400,-163.413,-163.413,0.094,1.658,,,,,,,,,,,,,0,,,Not running,,,,,,,,,,,0.975400,0.036900,0.031700,-0.214800,0.352863,0.031925,-0.054312,-0.933552,-138.513,1.219,7.121,b6 00 00 00 00 00 00 a2 05 1d 00 72 ff 5a d9 07 32 81
0.396,fused,,40,0x07,"IMU0_OK, IMU1_OK, FUSION_READY",0.998300,0.044100,0.020000,-0.031400,-3.496,-3.496,2.447,4.984,,,,,,,,,,,,,0,,,Not running,,,,,,,,,,,0.975400,0.036900,0.031700,-0.214800,0.982824,0.002877,-0.003824,0.184482,21.261,-0.492,0.243,b6 00 00 00 00 00 00 ff 26 b9 01 c8 00 c6 fe 07 28 be
0.396,fused,,0,0x07,"IMU0_OK, IMU1_OK, FUSION_READY",0.975400,0.036900,0.031700,-0.214900,-24.718,-24.718,4.456,3.356,,,,,,,,,,,,,0,,,Not running,,,,,,,,,,,0.975400,0.036900,0.031700,-0.214900,1.000000,0.000000,0.000000,0.000000,0.000,0.000,0.000,b6 00 00 00 00 00 00 1a 26 71 01 3d 01 9b f7 07 00 1b
0.397,fused,,30,0x07,"IMU0_OK, IMU1_OK, FUSION_READY",0.748000,-0.020900,0.002300,0.663200,83.085,83.085,1.786,-1.618,,,,,,,,,,,,,0,,,Not running,,,,,,,,,,,0.975400,0.036900,0.031700,-0.214900,0.586457,-0.069514,-0.001488,0.806990,107.718,6.341,-4.845,b6 00 00 00 00 00 00 38 1d 2f ff 17 00 e8 19 07 1e 0a
0.397,fused,,50,0x07,"IMU0_OK, IMU1_OK, FUSION_READY",0.144100,0.002900,-0.014200,-0.989400,-163.424,-163.424,0.094,1.658,,,,,,,,,,,,,0,,,Not running,,,,,,,,,,,0.975400,0.036900,0.031700,-0.214900,0.352862,0.031929,-0.054309,-0.933552,-138.513,1.220,7.121,b6 00 00 00 00 00 00 a1 05 1d 00 72 ff 5a d9 07 32 82
0.398,fused,,40,0x07,"IMU0_OK, IMU1_OK, FUSION_READY",0.998300,0.044100,0.020000,-0.031400,-3.496,-3.496,2.447,4.984,,,,,,,,,,,,,0,,,Not running,,,,,,,,,,,0.975400,0.036900,0.031700,-0.214900,0.982806,0.002875,-0.003820,0.184577,21.272,-0.491,0.243,b6 00 00 00 00 00 00 ff 26 b9 01 c8 00 c6 fe 07 28 be
0.399,fused,,0,0x07,"IMU0_OK, IMU1_OK, FUSION_READY",0.975400,0.036900,0.031700,-0.214900,-24.718,-24.718,4.456,3.356,,,,,,,,,,,,,0,,,Not running,,,,,,,,,,,0.975400,0.036900,0.031700,-0.214900,1.000000,0.000000,0.000000,0.000000,0.000,0.000,0.000,b6 00 00 00 00 00 00 1a 26 71 01 3d 01 9b f7 07 00 1b
0.400,fused,,30,0x07,"IMU0_OK, IMU1_OK, FUSION_READY",0.748000,-0.020900,0.002300,0.663300,83.101,83.101,1.786,-1.618,,,,,,,,,,,,,0,,,Not running,,,,,,,,,,,0.975400,0.036900,0.031700,-0.214900,0.586397,-0.069513,-0.001484,0.807034,107.727,6.342,-4.844,b6 00 00 00 00 00 00 38 1d 2f ff 17 00 e9 19 07 1e 0b
0.401,fused,,50,0x07,"IMU0_OK, IMU1_OK, FUSION_READY",0.144100,0.002900,-0.014200,-0.989400,-163.424,-163.424,0.094,1.658,,,,,,,,,,,,,0,,,Not running,,,,,,,,,,,0.975400,0.036900,0.031700,-0.214900,0.352862,0.031929,-0.054309,-0.933552,-138.513,1.220,7.121,b6 00 00 00 00 00 00 a1 05 1d 00 72 ff 5a d9 07 32 82
0.401,fused,,40,0x07,"IMU0_OK, IMU1_OK, FUSION_READY",0.998300,0.044100,0.020000,-0.031400,-3.496,-3.496,2.447,4.984,,,,,,,,,,,,,0,,,Not running,,,,,,,,,,,0.975400,0.036900,0.031700,-0.214900,0.982806,0.002875,-0.003820,0.184577,21.272,-0.491,0.243,b6 00 00 00 00 00 00 ff 26 b9 01 c8 00 c6 fe 07 28 be
0.402,fused,,0,0x07,"IMU0_OK, IMU1_OK, FUSION_READY",0.975400,0.036900,0.031700,-0.214900,-24.718,-24.718,4.456,3.356,,,,,,,,,,,,,0,,,Not running,,,,,,,,,,,0.975400,0.036900,0.031700,-0.214900,1.000000,0.000000,0.000000,0.000000,0.000,0.000,0.000,b6 00 00 00 00 00 00 1a 26 71 01 3d 01 9b f7 07 00 1b
0.403,fused,,30,0x07,"IMU0_OK, IMU1_OK, FUSION_READY",0.748000,-0.020900,0.002300,0.663300,83.101,83.101,1.786,-1.618,,,,,,,,,,,,,0,,,Not running,,,,,,,,,,,0.975400,0.036900,0.031700,-0.214900,0.586397,-0.069513,-0.001484,0.807034,107.727,6.342,-4.844,b6 00 00 00 00 00 00 38 1d 2f ff 17 00 e9 19 07 1e 0b
0.404,fused,,50,0x07,"IMU0_OK, IMU1_OK, FUSION_READY",0.144100,0.002900,-0.014200,-0.989400,-163.424,-163.424,0.094,1.658,,,,,,,,,,,,,0,,,Not running,,,,,,,,,,,0.975400,0.036900,0.031700,-0.214900,0.352862,0.031929,-0.054309,-0.933552,-138.513,1.220,7.121,b6 00 00 00 00 00 00 a1 05 1d 00 72 ff 5a d9 07 32 82
0.404,fused,,40,0x07,"IMU0_OK, IMU1_OK, FUSION_READY",0.998300,0.044100,0.020000,-0.031400,-3.496,-3.496,2.447,4.984,,,,,,,,,,,,,0,,,Not running,,,,,,,,,,,0.975400,0.036900,0.031700,-0.214900,0.982806,0.002875,-0.003820,0.184577,21.272,-0.491,0.243,b6 00 00 00 00 00 00 ff 26 b9 01 c8 00 c6 fe 07 28 be
0.405,fused,,0,0x07,"IMU0_OK, IMU1_OK, FUSION_READY",0.975400,0.036900,0.031700,-0.214900,-24.718,-24.718,4.456,3.356,,,,,,,,,,,,,0,,,Not running,,,,,,,,,,,0.975400,0.036900,0.031700,-0.214900,1.000000,0.000000,0.000000,0.000000,0.000,0.000,0.000,b6 00 00 00 00 00 00 1a 26 71 01 3d 01 9b f7 07 00 1b
0.406,fused,,30,0x07,"IMU0_OK, IMU1_OK, FUSION_READY",0.748000,-0.020900,0.002300,0.663300,83.101,83.101,1.786,-1.618,,,,,,,,,,,,,0,,,Not running,,,,,,,,,,,0.975400,0.036900,0.031700,-0.214900,0.586397,-0.069513,-0.001484,0.807034,107.727,6.342,-4.844,b6 00 00 00 00 00 00 38 1d 2f ff 17 00 e9 19 07 1e 0b
0.406,fused,,50,0x07,"IMU0_OK, IMU1_OK, FUSION_READY",0.144000,0.002900,-0.014200,-0.989400,-163.435,-163.435,0.094,1.658,,,,,,,,,,,,,0,,,Not running,,,,,,,,,,,0.975400,0.036900,0.031700,-0.214900,0.352770,0.031934,-0.054306,-0.933587,-138.524,1.221,7.121,b6 00 00 00 00 00 00 a0 05 1d 00 72 ff 5a d9 07 32 83
0.407,fused,,40,0x07,"IMU0_OK, IMU1_OK, FUSION_READY",0.998300,0.044100,0.020000,-0.031400,-3.496,-3.496,2.447,4.984,,,,,,,,,,,,,0,,,Not running,,,,,,,,,,,0.975400,0.036900,0.031700,-0.214900,0.982806,0.002875,-0.003820,0.184577,21.272,-0.491,0.243,b6 00 00 00 00 00 00 ff 26 b9 01 c8 00 c6 fe 07 28 be
0.408,fused,,0,0x07,"IMU0_OK, IMU1_OK, FUSION_READY",0.975300,0.036900,0.031700,-0.215000,-24.728,-24.728,4.456,3.355,,,,,,,,,,,,,0,,,Not running,,,,,,,,,,,0.975300,0.036900,0.031700,-0.215000,1.000000,0.000000,0.000000,0.000000,0.000,0.000,0.000,b6 00 00 00 00 00 00 19 26 71 01 3d 01 9a f7 07 00 19
0.409,fused,,30,0x07,"IMU0_OK, IMU1_OK, FUSION_READY",0.747900,-0.020900,0.002400,0.663300,83.100,83.100,1.795,-1.610,,,,,,,,,,,,,0,,,Not running,,,,,,,,,,,0.975300,0.036900,0.031700,-0.215000,0.586250,-0.069539,-0.001386,0.807139,107.747,6.352,-4.835,b6 00 00 00 00 00 00 37 1d 2f ff 18 00 e9 19 07 1e 0b
0.464,fused,,50,0x07,"IMU0_OK, IMU1_OK, FUSION_READY",0.144000,0.002900,-0.014200,-0.989400,-163.435,-163.435,0.094,1.658,,,,,,,,,,,,,0,,,Not running,,,,,,,,,,,0.975300,0.036900,0.031700,-0.215000,0.352881,0.031937,-0.054309,-0.933545,-138.511,1.221,7.121,b6 00 00 00 00 00 00 a0 05 1d 00 72 ff 5a d9 07 32 83
0.465,fused,,40,0x07,"IMU0_OK, IMU1_OK, FUSION_READY",0.998300,0.044100,0.020000,-0.031300,-3.485,-3.485,2.447,4.984,,,,,,,,,,,,,0,,,Not running,,,,,,,,,,,0.975300,0.036900,0.031700,-0.215000,0.982766,0.002866,-0.003814,0.184793,21.297,-0.490,0.242,b6 00 00 00 00 00 00 ff 26 b9 01 c8 00 c7 fe 07 28 bf
0.466,fused,,0,0x07,"IMU0_OK, IMU1_OK, FUSION_READY",0.975300,0.036900,0.031700,-0.215000,-24.728,-24.728,4.456,3.355,,,,,,,,,,,,,0,,,Not running,,,,,,,,,,,0.975300,0.036900,0.031700,-0.215000,1.000000,0.000000,0.000000,0.000000,0.000,0.000,0.000,b6 00 00 00 00 00 00 19 26 71 01 3d 01 9a f7 07 00 19
0.467,fused,,30,0x07,"IMU0_OK, IMU1_OK, FUSION_READY",0.747900,-0.020900,0.002400,0.663300,83.100,83.100,1.795,-1.610,,,,,,,,,,,,,0,,,Not running,,,,,,,,,,,0.975300,0.036900,0.031700,-0.215000,0.586250,-0.069539,-0.001386,0.807139,107.747,6.352,-4.835,b6 00 00 00 00 00 00 37 1d 2f ff 18 00 e9 19 07 1e 0b
0.468,fused,,50,0x07,"IMU0_OK, IMU1_OK, FUSION_READY",0.143900,0.002800,-0.014200,-0.989400,-163.446,-163.446,0.083,1.656,,,,,,,,,,,,,0,,,Not running,,,,,,,,,,,0.975300,0.036900,0.031700,-0.215000,0.352785,0.031844,-0.054328,-0.933583,-138.523,1.210,7.119,b6 00 00 00 00 00 00 9f 05 1c 00 72 ff 5a d9 07 32 bd
0.468,fused,,40,0x07,"IMU0_OK, IMU1_OK, FUSION_READY",0.998300,0.044100,0.019900,-0.031300,-3.485,-3.485,2.435,4.984,,,,,,,,,,,,,0,,,Not running,,,,,,,,,,,0.975300,0.036900,0.031700,-0.215000,0.982765,0.002888,-0.003912,0.184797,21.298,-0.502,0.242,b6 00 00 00 00 00 00 ff 26 b9 01 c7 00 c7 fe 07 28 b0
0.469,fused,,0,0x07,"IMU0_OK, IMU1_OK, FUSION_READY",0.975300,0.036900,0.031700,-0.215000,-24.728,-24.728,4.456,3.355,,,,,,,,,,,,,0,,,Not running,,,,,,,,,,,0.975300,0.036900,0.031700,-0.215000,1.000000,0.000000,0.000000,0.000000,0.000,0.000,0.000,b6 00 00 00 00 00 00 19 26 71 01 3d 01 9a f7 07 00 19
0.470,fused,,30,0x07,"IMU0_OK, IMU1_OK, FUSION_READY",0.747900,-0.020900,0.002400,0.663400,83.116,83.116,1.795,-1.610,,,,,,,,,,,,,0,,,Not running,,,,,,,,,,,0.975300,0.036900,0.031700,-0.215000,0.586189,-0.069538,-0.001382,0.807183,107.756,6.352,-4.834,b6 00 00 00 00 00 00 37 1d 2f ff 18 00 ea 19 07 1e 08
