time_s,protocol,sequence,node_id,status_hex,status_bits,quat_w,quat_x,quat_y,quat_z,yaw_deg,yaw_unwrapped_deg,pitch_deg,roll_deg,imu0_accel_x_mg,imu0_accel_y_mg,imu0_accel_z_mg,imu0_gyro_x_dps,imu0_gyro_y_dps,imu0_gyro_z_dps,imu1_accel_x_mg,imu1_accel_y_mg,imu1_accel_z_mg,imu1_gyro_x_dps,imu1_gyro_y_dps,imu1_gyro_z_dps,guided_test_active,guided_test_step,guided_test_step_label,guided_test_step_status,guided_test_elapsed_s,guided_test_target_node,guided_test_target_label,guided_test_error_deg,guided_test_reference_node,guided_test_reference_label,palm_ref_quat_w,palm_ref_quat_x,palm_ref_quat_y,palm_ref_quat_z,palm_live_quat_w,palm_live_quat_x,palm_live_quat_y,palm_live_quat_z,relative_to_palm_quat_w,relative_to_palm_quat_x,relative_to_palm_quat_y,relative_to_palm_quat_z,relative_to_palm_yaw_deg,relative_to_palm_pitch_deg,relative_to_palm_roll_deg,raw_frame_hex
0.000,fused,,20,0x07,"IMU0_OK, IMU1_OK, FUSION_READY",0.035000,-0.850800,-0.524200,0.002800,63.213,63.213,-1.830,-176.414,,,,,,,,,,,,,0,,,Not running,,,,,,,,,,,0.998400,0.020300,0.050600,-0.005600,0.008869,0.847489,0.529923,0.029422,64.088,-2.319,177.349,b6 00 00 00 00 00 00 5e 01 c4 de 86 eb 1c 00 07 14 27
0.001,fused,,0,0x07,"IMU0_OK, IMU1_OK, FUSION_READY",0.998400,0.020300,0.050600,-0.005600,-0.526,-0.526,5.812,2.302,,,,,,,,,,,,,0,,,Not running,,,,,,,,,,,0.998400,0.020300,0.050600,-0.005600,1.000000,0.000000,-0.000000,0.000000,0.000,-0.000,0.000,b6 00 00 00 00 00 00 00 27 cb 00 fa 01 c8 ff 07 00 27
0.001,fused,,20,0x07,"IMU0_OK, IMU1_OK, FUSION_READY",0.035200,-0.850800,-0.524200,0.002800,63.213,63.213,-1.842,-176.395,,,,,,,,,,,,,0,,,Not running,,,,,,,,,,,0.998400,0.020300,0.050600,-0.005600,0.008669,0.847487,0.529930,0.029421,64.089,-2.331,177.368,b6 00 00 00 00 00 00 60 01 c4 de 86 eb 1c 00 07 14 19
0.002,fused,,0,0x07,"IMU0_OK, IMU1_OK, FUSION_READY",0.998400,0.020300,0.050600,-0.005600,-0.526,-0.526,5.812,2.302,,,,,,,,,,,,,0,,,Not running,,,,,,,,,,,0.998400,0.020300,0.050600,-0.005600,1.000000,0.000000,-0.000000,0.000000,0.000,-0.000,0.000,b6 00 00 00 00 00 00 00 27 cb 00 fa 01 c8 ff 07 00 27
0.002,fused,,20,0x07,"IMU0_OK, IMU1_OK, FUSION_READY",0.035200,-0.850800,-0.524200,0.002800,63.213,63.213,-1.842,-176.395,,,,,,,,,,,,,0,,,Not running,,,,,,,,,,,0.998400,0.020300,0.050600,-0.005600,0.008669,0.847487,0.529930,0.029421,64.089,-2.331,177.368,b6 00 00 00 00 00 00 60 01 c4 de 86 eb 1c 00 07 14 19
0.002,fused,,0,0x07,"IMU0_OK, IMU1_OK, FUSION_READY",0.998400,0.020300,0.050600,-0.005600,-0.526,-0.526,5.812,2.302,,,,,,,,,,,,,0,,,Not running,,,,,,,,,,,0.998400,0.020300,0.050600,-0.005600,1.000000,0.000000,-0.000000,0.000000,0.000,-0.000,0.000,b6 00 00 00 00 00 00 00 27 cb 00 fa 01 c8 ff 07 00 27
0.003,fused,,20,0x07,"IMU0_OK, IMU1_OK, FUSION_READY",0.035200,-0.850800,-0.524200,0.002700,63.213,63.213,-1.852,-176.401,,,,,,,,,,,,,0,,,Not running,,,,,,,,,,,0.998400,0.020300,0.050600,-0.005600,0.008669,0.847482,0.529932,0.029521,64.090,-2.341,177.362,b6 00 00 00 00 00 00 60 01 c4 de 86 eb 1b 00 07 14 1e
0.004,fused,,0,0x07,"IMU0_OK, IMU1_OK, FUSION_READY",0.998400,0.020300,0.050600,-0.005600,-0.526,-0.526,5.812,2.302,,,,,,,,,,,,,0,,,Not running,,,,,,,,,,,0.998400,0.020300,0.050600,-0.005600,1.000000,0.000000,-0.000000,0.000000,0.000,-0.000,0.000,b6 00 00 00 00 00 00 00 27 cb 00 fa 01 c8 ff 07 00 27
0.004,fused,,20,0x07,"IMU0_OK, IMU1_OK, FUSION_READY",0.035200,-0.850800,-0.524200,0.002700,63.213,63.213,-1.852,-176.401,,,,,,,,,,,,,0,,,Not running,,,,,,,,,,,0.998400,0.020300,0.050600,-0.005600,0.008669,0.847482,0.529932,0.029521,64.090,-2.341,177.362,b6 00 00 00 00 00 00 60 01 c4 de 86 eb 1b 00 07 14 1e
0.004,fused,,0,0x07,"IMU0_OK, IMU1_OK, FUSION_READY",0.998400,0.020300,0.050600,-0.005700,-0.537,-0.537,5.812,2.302,,,,,,,,,,,,,0,,,Not running,,,,,,,,,,,0.998400,0.020300,0.050600,-0.005700,1.000000,0.000000,-0.000000,0.000000,0.000,-0.000,0.000,b6 00 00 00 00 00 00 00 27 cb 00 fa 01 c7 ff 07 00 28
0.005,fused,,20,0x07,"IMU0_OK, IMU1_OK, FUSION_READY",0.035200,-0.850800,-0.524200,0.002700,63.213,63.213,-1.852,-176.401,,,,,,,,,,,,,0,,,Not running,,,,,,,,,,,0.998400,0.020300,0.050600,-0.005700,0.008669,0.847429,0.530017,0.029517,64.101,-2.341,177.362,b6 00 00 00 00 00 00 60 01 c4 de 86 eb 1b 00 07 14 1e
0.005,fused,,0,0x07,"IMU0_OK, IMU1_OK, FUSION_READY",0.998400,0.020300,0.050600,-0.005700,-0.537,-0.537,5.812,2.302,,,,,,,,,,,,,0,,,Not running,,,,,,,,,,,0.998400,0.020300,0.050600,-0.005700,1.000000,0.000000,-0.000000,0.000000,0.000,-0.000,0.000,b6 00 00 00 00 00 00 00 27 cb 00 fa 01 c7 ff 07 00 28
0.006,fused,,20,0x07,"IMU0_OK, IMU1_OK, FUSION_READY",0.035100,-0.850800,-0.524200,0.002700,63.213,63.213,-1.846,-176.411,,,,,,,,,,,,,0,,,Not running,,,,,,,,,,,0.998400,0.020300,0.050600,-0.005700,0.008769,0.847430,0.530013,0.029518,64.101,-2.335,177.353,b6 00 00 00 00 00 00 5f 01 c4 de 86 eb 1b 00 07 14 21
0.006,fused,,0,0x07,"IMU0_OK, IMU1_OK, FUSION_READY",0.998400,0.020300,0.050600,-0.005700,-0.537,-0.537,5.812,2.302,,,,,,,,,,,,,0,,,Not running,,,,,,,,,,,0.998400,0.020300,0.050600,-0.005700,1.000000,0.000000,-0.000000,0.000000,0.000,-0.000,0.000,b6 00 00 00 00 00 00 00 27 cb 00 fa 01 c7 ff 07 00 28
0.007,fused,,20,0x07,"IMU0_OK, IMU1_OK, FUSION_READY",0.035200,-0.850800,-0.524200,0.002800,63.213,63.213,-1.842,-176.395,,,,,,,,,,,,,0,,,Not running,,,,,,,,,,,0.998400,0.020300,0.050600,-0.005700,0.008669,0.847434,0.530014,0.029417,64.100,-2.331,177.368,b6 00 00 00 00 00 00 60 01 c4 de 86 eb 1c 00 07 14 19
0.007,fused,,0,0x07,"IMU0_OK, IMU1_OK, FUSION_READY",0.998400,0.020300,0.050600,-0.005700,-0.537,-0.537,5.812,2.302,,,,,,,,,,,,,0,,,Not running,,,,,,,,,,,0.998400,0.020300,0.050600,-0.005700,1.000000,0.000000,-0.000000,0.000000,0.000,-0.000,0.000,b6 00 00 00 00 00 00 00 27 cb 00 fa 01 c7 ff 07 00 28
0.008,fused,,20,0x07,"IMU0_OK, IMU1_OK, FUSION_READY",0.035300,-0.850800,-0.524100,0.002800,63.198,63.198,-1.847,-176.385,,,,,,,,,,,,,0,,,Not running,,,,,,,,,,,0.998400,0.020300,0.050600,-0.005700,0.008565,0.847478,0.529946,0.029420,64.091,-2.338,177.379,b6 00 00 00 00 00 00 61 01 c4 de 87 eb 1c 00 07 14 19
0.008,fused,,0,0x07,"IMU0_OK, IMU1_OK, FUSION_READY",0.998400,0.020300,0.050600,-0.005700,-0.537,-0.537,5.812,2.302,,,,,,,,,,,,,0,,,Not running,,,,,,,,,,,0.998400,0.020300,0.050600,-0.005700,1.000000,0.000000,-0.000000,0.000000,0.000,-0.000,0.000,b6 00 00 00 00 00 00 00 27 cb 00 fa 01 c7 ff 07 00 28
0.009,fused,,20,0x07,"IMU0_OK, IMU1_OK, FUSION_READY",0.035300,-0.850800,-0.524100,0.002800,63.198,63.198,-1.847,-176.385,,,,,,,,,,,,,0,,,Not running,,,,,,,,,,,0.998400,0.020300,0.050600,-0.005700,0.008565,0.847478,0.529946,0.029420,64.091,-2.338,177.379,b6 00 00 00 00 00 00 61 01 c4 de 87 eb 1c 00 07 14 19
0.010,fused,,0,0x07,"IMU0_OK, IMU1_OK, FUSION_READY",0.998400,0.020300,0.050600,-0.005700,-0.537,-0.537,5.812,2.302,,,,,,,,,,,,,0,,,Not running,,,,,,,,,,,0.998400,0.020300,0.050600,-0.005700,1.000000,0.000000,-0.000000,0.000000,0.000,-0.000,0.000,b6 00 00 00 00 00 00 00 27 cb 00 fa 01 c7 ff 07 00 28
0.010,fused,,20,0x07,"IMU0_OK, IMU1_OK, FUSION_READY",0.035300,-0.850800,-0.524100,0.002700,63.198,63.198,-1.857,-176.391,,,,,,,,,,,,,0,,,Not running,,,,,,,,,,,0.998400,0.020300,0.050600,-0.005700,0.008564,0.847473,0.529948,0.029520,64.092,-2.347,177.372,b6 00 00 00 00 00 00 61 01 c4 de 87 eb 1b 00 07 14 1e
0.011,fused,,0,0x07,"IMU0_OK, IMU1_OK, FUSION_READY",0.998400,0.020300,0.050600,-0.005700,-0.537,-0.537,5.812,2.302,,,,,,,,,,,,,0,,,Not running,,,,,,,,,,,0.998400,0.020300,0.050600,-0.005700,1.000000,0.000000,-0.000000,0.000000,0.000,-0.000,0.000,b6 00 00 00 00 00 00 00 27 cb 00 fa 01 c7 ff 07 00 28
0.011,fused,,20,0x07,"IMU0_OK, IMU1_OK, FUSION_READY",0.035500,-0.850800,-0.524100,0.002700,63.198,63.198,-1.869,-176.371,,,,,,,,,,,,,0,,,Not running,,,,,,,,,,,0.998400,0.020300,0.050600,-0.005700,0.008364,0.847471,0.529954,0.029519,64.092,-2.359,177.392,b6 00 00 00 00 00 00 63 01 c4 de 87 eb 1b 00 07 14 1c
0.011,fused,,0,0x07,"IMU0_OK, IMU1_OK, FUSION_READY",0.998400,0.020300,0.050600,-0.005700,-0.537,-0.537,5.812,2.302,,,,,,,,,,,,,0,,,Not running,,,,,,,,,,,0.998400,0.020300,0.050600,-0.005700,1.000000,0.000000,-0.000000,0.000000,0.000,-0.000,0.000,b6 00 00 00 00 00 00 00 27 cb 00 fa 01 c7 ff 07 00 28
0.012,fused,,20,0x07,"IMU0_OK, IMU1_OK, FUSION_READY",0.035600,-0.850800,-0.524100,0.002600,63.198,63.198,-1.885,-176.367,,,,,,,,,,,,,0,,,Not running,,,,,,,,,,,0.998400,0.020300,0.050600,-0.005700,0.008264,0.847465,0.529959,0.029618,64.093,-2.375,177.396,b6 00 00 00 00 00 00 64 01 c4 de 87 eb 1a 00 07 14 1a
0.012,fused,,0,0x07,"IMU0_OK, IMU1_OK, FUSION_READY",0.998400,0.020300,0.050600,-0.005700,-0.537,-0.537,5.812,2.302,,,,,,,,,,,,,0,,,Not running,,,,,,,,,,,0.998400,0.020300,0.050600,-0.005700,1.000000,0.000000,-0.000000,0.000000,0.000,-0.000,0.000,b6 00 00 00 00 00 00 00 27 cb 00 fa 01 c7 ff 07 00 28
0.013,fused,,20,0x07,"IMU0_OK, IMU1_OK, FUSION_READY",0.035500,-0.850800,-0.524100,0.002600,63.198,63.198,-1.879,-176.377,,,,,,,,,,,,,0,,,Not running,,,,,,,,,,,0.998400,0.020300,0.050600,-0.005700,0.008364,0.847466,0.529956,0.029619,64.093,-2.369,177.386,b6 00 00 00 00 00 00 63 01 c4 de 87 eb 1a 00 07 14 1d
0.013,fused,,0,0x07,"IMU0_OK, IMU1_OK, FUSION_READY",0.998400,0.020300,0.050600,-0.005700,-0.537,-0.537,5.812,2.302,,,,,,,,,,,,,0,,,Not running,,,,,,,,,,,0.998400,0.020300,0.050600,-0.005700,1.000000,0.000000,-0.000000,0.000000,0.000,-0.000,0.000,b6 00 00 00 00 00 00 00 27 cb 00 fa 01 c7 ff 07 00 28
0.014,fused,,20,0x07,"IMU0_OK, IMU1_OK, FUSION_READY",0.035400,-0.850800,-0.524100,0.002500,63.197,63.197,-1.883,-176.393,,,,,,,,,,,,,0,,,Not running,,,,,,,,,,,0.998400,0.020300,0.050600,-0.005700,0.008463,0.847462,0.529955,0.029719,64.094,-2.373,177.370,b6 00 00 00 00 00 00 62 01 c4 de 87 eb 19 00 07 14 1f
0.080,fused,,0,0x07,"IMU0_OK, IMU1_OK, FUSION_READY",0.998400,0.020300,0.050600,-0.005700,-0.537,-0.537,5.812,2.302,,,,,,,,,,,,,0,,,Not running,,,,,,,,,,,0.998400,0.020300,0.050600,-0.005700,1.000000,0.000000,-0.000000,0.000000,0.000,-0.000,0.000,b6 00 00 00 00 00 00 00 27 cb 00 fa 01 c7 ff 07 00 28
0.080,fused,,20,0x07,"IMU0_OK, IMU1_OK, FUSION_READY",0.035500,-0.850800,-0.524100,0.002600,63.198,63.198,-1.879,-176.377,,,,,,,,,,,,,0,,,Not running,,,,,,,,,,,0.998400,0.020300,0.050600,-0.005700,0.008364,0.847466,0.529956,0.029619,64.093,-2.369,177.386,b6 00 00 00 00 00 00 63 01 c4 de 87 eb 1a 00 07 14 1d
0.081,fused,,0,0x07,"IMU0_OK, IMU1_OK, FUSION_READY",0.998400,0.020300,0.050600,-0.005700,-0.537,-0.537,5.812,2.302,,,,,,,,,,,,,0,,,Not running,,,,,,,,,,,0.998400,0.020300,0.050600,-0.005700,1.000000,0.000000,-0.000000,0.000000,0.000,-0.000,0.000,b6 00 00 00 00 00 00 00 27 cb 00 fa 01 c7 ff 07 00 28
0.081,fused,,20,0x07,"IMU0_OK, IMU1_OK, FUSION_READY",0.035600,-0.850800,-0.524100,0.002600,63.198,63.198,-1.885,-176.367,,,,,,,,,,,,,0,,,Not running,,,,,,,,,,,0.998400,0.020300,0.050600,-0.005700,0.008264,0.847465,0.529959,0.029618,64.093,-2.375,177.396,b6 00 00 00 00 00 00 64 01 c4 de 87 eb 1a 00 07 14 1a
0.082,fused,,0,0x07,"IMU0_OK, IMU1_OK, FUSION_READY",0.998400,0.020300,0.050600,-0.005700,-0.537,-0.537,5.812,2.302,,,,,,,,,,,,,0,,,Not running,,,,,,,,,,,0.998400,0.020300,0.050600,-0.005700,1.000000,0.000000,-0.000000,0.000000,0.000,-0.000,0.000,b6 00 00 00 00 00 00 00 27 cb 00 fa 01 c7 ff 07 00 28
0.082,fused,,20,0x07,"IMU0_OK, IMU1_OK, FUSION_READY",0.035600,-0.850800,-0.524100,0.002600,63.198,63.198,-1.885,-176.367,,,,,,,,,,,,,0,,,Not running,,,,,,,,,,,0.998400,0.020300,0.050600,-0.005700,0.008264,0.847465,0.529959,0.029618,64.093,-2.375,177.396,b6 00 00 00 00 00 00 64 01 c4 de 87 eb 1a 00 07 14 1a
0.083,fused,,0,0x07,"IMU0_OK, IMU1_OK, FUSION_READY",0.998400,0.020300,0.050600,-0.005700,-0.537,-0.537,5.812,2.302,,,,,,,,,,,,,0,,,Not running,,,,,,,,,,,0.998400,0.020300,0.050600,-0.005700,1.000000,0.000000,-0.000000,0.000000,0.000,-0.000,0.000,b6 00 00 00 00 00 00 00 27 cb 00 fa 01 c7 ff 07 00 28
0.083,fused,,20,0x07,"IMU0_OK, IMU1_OK, FUSION_READY",0.035700,-0.850800,-0.524100,0.002600,63.198,63.198,-1.891,-176.358,,,,,,,,,,,,,0,,,Not running,,,,,,,,,,,0.998400,0.020300,0.050600,-0.005700,0.008164,0.847464,0.529963,0.029617,64.094,-2.381,177.405,b6 00 00 00 00 00 00 65 01 c4 de 87 eb 1a 00 07 14 1b
0.084,fused,,0,0x07,"IMU0_OK, IMU1_OK, FUSION_READY",0.998400,0.020300,0.050600,-0.005700,-0.537,-0.537,5.812,2.302,,,,,,,,,,,,,0,,,Not running,,,,,,,,,,,0.998400,0.020300,0.050600,-0.005700,1.000000,0.000000,-0.000000,0.000000,0.000,-0.000,0.000,b6 00 00 00 00 00 00 00 27 cb 00 fa 01 c7 ff 07 00 28
0.084,fused,,20,0x07,"IMU0_OK, IMU1_OK, FUSION_READY",0.035800,-0.850900,-0.524000,0.002600,63.185,63.185,-1.896,-176.348,,,,,,,,,,,,,0,,,Not running,,,,,,,,,,,0.998400,0.020300,0.050600,-0.005700,0.008061,0.847536,0.529849,0.029623,64.078,-2.388,177.415,b6 00 00 00 00 00 00 66 01 c3 de 88 eb 1a 00 07 14 10
0.085,fused,,0,0x07,"IMU0_OK, IMU1_OK, FUSION_READY",0.998400,0.020300,0.050600,-0.005700,-0.537,-0.537,5.812,2.302,,,,,,,,,,,,,0,,,Not running,,,,,,,,,,,0.998400,0.020300,0.050600,-0.005700,1.000000,0.000000,-0.000000,0.000000,0.000,-0.000,0.000,b6 00 00 00 00 00 00 00 27 cb 00 fa 01 c7 ff 07 00 28
0.085,fused,,20,0x07,"IMU0_OK, IMU1_OK, FUSION_READY",0.035800,-0.850800,-0.524100,0.002500,63.197,63.197,-1.907,-176.354,,,,,,,,,,,,,0,,,Not running,,,,,,,,,,,0.998400,0.020300,0.050600,-0.005700,0.008064,0.847458,0.529968,0.029717,64.095,-2.397,177.409,b6 00 00 00 00 00 00 66 01 c4 de 87 eb 19 00 07 14 1b
0.085,fused,,0,0x07,"IMU0_OK, IMU1_OK, FUSION_READY",0.998400,0.020300,0.050600,-0.005700,-0.537,-0.537,5.812,2.302,,,,,,,,,,,,,0,,,Not running,,,,,,,,,,,0.998400,0.020300,0.050600,-0.005700,1.000000,0.000000,-0.000000,0.000000,0.000,-0.000,0.000,b6 00 00 00 00 00 00 00 27 cb 00 fa 01 c7 ff 07 00 28
0.086,fused,,20,0x07,"IMU0_OK, IMU1_OK, FUSION_READY",0.035700,-0.850800,-0.524100,0.002500,63.197,63.197,-1.901,-176.364,,,,,,,,,,,,,0,,,Not running,,,,,,,,,,,0.998400,0.020300,0.050600,-0.005700,0.008164,0.847459,0.529965,0.029717,64.094,-2.391,177.399,b6 00 00 00 00 00 00 65 01 c4 de 87 eb 19 00 07 14 18
0.143,fused,,0,0x07,"IMU0_OK, IMU1_OK, FUSION_READY",0.998400,0.020300,0.050700,-0.005700,-0.537,-0.537,5.824,2.302,,,,,,,,,,,,,0,,,Not running,,,,,,,,,,,0.998400,0.020300,0.050700,-0.005700,1.000000,0.000000,0.000000,0.000000,0.000,0.000,0.000,b6 00 00 00 00 00 00 00 27 cb 00 fb 01 c7 ff 07 00 29
0.144,fused,,20,0x07,"IMU0_OK, IMU1_OK, FUSION_READY",0.035600,-0.850800,-0.524100,0.002500,63.197,63.197,-1.895,-176.373,,,,,,,,,,,,,0,,,Not running,,,,,,,,,,,0.998400,0.020300,0.050700,-0.005700,0.008316,0.847456,0.529963,0.029803,64.095,-2.390,177.379,b6 00 00 00 00 00 00 64 01 c4 de 87 eb 19 00 07 14 19
0.145,fused,,0,0x07,"IMU0_OK, IMU1_OK, FUSION_READY",0.998400,0.020300,0.050700,-0.005800,-0.548,-0.548,5.824,2.301,,,,,,,,,,,,,0,,,Not running,,,,,,,,,,,0.998400,0.020300,0.050700,-0.005800,1.000000,0.000000,0.000000,0.000000,0.000,0.000,0.000,b6 00 00 00 00 00 00 00 27 cb 00 fb 01 c6 ff 07 00 28
0.145,fused,,20,0x07,"IMU0_OK, IMU1_OK, FUSION_READY",0.035700,-0.850800,-0.524100,0.002600,63.198,63.198,-1.891,-176.358,,,,,,,,,,,,,0,,,Not running,,,,,,,,,,,0.998400,0.020300,0.050700,-0.005800,0.008217,0.847407,0.530048,0.029699,64.106,-2.386,177.395,b6 00 00 00 00 00 00 65 01 c4 de 87 eb 1a 00 07 14 1b
0.146,fused,,0,0x07,"IMU0_OK, IMU1_OK, FUSION_READY",0.998400,0.020300,0.050700,-0.005800,-0.548,-0.548,5.824,2.301,,,,,,,,,,,,,0,,,Not running,,,,,,,,,,,0.998400,0.020300,0.050700,-0.005800,1.000000,0.000000,0.000000,0.000000,0.000,0.000,0.000,b6 00 00 00 00 00 00 00 27 cb 00 fb 01 c6 ff 07 00 28
0.146,fused,,20,0x07,"IMU0_OK, IMU1_OK, FUSION_READY",0.035700,-0.850800,-0.524100,0.002600,63.198,63.198,-1.891,-176.358,,,,,,,,,,,,,0,,,Not running,,,,,,,,,,,0.998400,0.020300,0.050700,-0.005800,0.008217,0.847407,0.530048,0.029699,64.106,-2.386,177.395,b6 00 00 00 00 00 00 65 01 c4 de 87 eb 1a 00 07 14 1b
0.147,fused,,0,0x07,"IMU0_OK, IMU1_OK, FUSION_READY",0.998400,0.020300,0.050700,-0.005800,-0.548,-0.548,5.824,2.301,,,,,,,,,,,,,0,,,Not running,,,,,,,,,,,0.998400,0.020300,0.050700,-0.005800,1.000000,0.000000,0.000000,0.000000,0.000,0.000,0.000,b6 00 00 00 00 00 00 00 27 cb 00 fb 01 c6 ff 07 00 28
0.147,fused,,20,0x07,"IMU0_OK, IMU1_OK, FUSION_READY",0.035700,-0.850800,-0.524100,0.002700,63.198,63.198,-1.881,-176.352,,,,,,,,,,,,,0,,,Not running,,,,,,,,,,,0.998400,0.020300,0.050700,-0.005800,0.008217,0.847412,0.530046,0.029599,64.105,-2.376,177.401,b6 00 00 00 00 00 00 65 01 c4 de 87 eb 1b 00 07 14 1a
0.148,fused,,0,0x07,"IMU0_OK, IMU1_OK, FUSION_READY",0.998400,0.020200,0.050700,-0.005800,-0.549,-0.549,5.824,2.290,,,,,,,,,,,,,0,,,Not running,,,,,,,,,,,0.998400,0.020200,0.050700,-0.005800,1.000000,0.000000,-0.000000,0.000000,0.000,-0.000,0.000,b6 00 00 00 00 00 00 00 27 ca 00 fb 01 c6 ff 07 00 29
0.150,fused,,20,0x07,"IMU0_OK, IMU1_OK, FUSION_READY",0.035700,-0.850800,-0.524100,0.002700,63.198,63.198,-1.881,-176.352,,,,,,,,,,,,,0,,,Not running,,,,,,,,,,,0.998400,0.020200,0.050700,-0.005800,0.008132,0.847410,0.530047,0.029651,64.105,-2.386,177.406,b6 00 00 00 00 00 00 65 01 c4 de 87 eb 1b 00 07 14 1a
0.152,fused,,0,0x07,"IMU0_OK, IMU1_OK, FUSION_READY",0.998400,0.020200,0.050700,-0.005800,-0.549,-0.549,5.824,2.290,,,,,,,,,,,,,0,,,Not running,,,,,,,,,,,0.998400,0.020200,0.050700,-0.005800,1.000000,0.000000,-0.000000,0.000000,0.000,-0.000,0.000,b6 00 00 00 00 00 00 00 27 ca 00 fb 01 c6 ff 07 00 29
0.153,fused,,20,0x07,"IMU0_OK, IMU1_OK, FUSION_READY",0.035800,-0.850800,-0.524100,0.002700,63.198,63.198,-1.887,-176.342,,,,,,,,,,,,,0,,,Not running,,,,,,,,,,,0.998400,0.020200,0.050700,-0.005800,0.008032,0.847409,0.530051,0.029651,64.106,-2.392,177.416,b6 00 00 00 00 00 00 66 01 c4 de 87 eb 1b 00 07 14 19
0.153,fused,,0,0x07,"IMU0_OK, IMU1_OK, FUSION_READY",0.998400,0.020200,0.050700,-0.005800,-0.549,-0.549,5.824,2.290,,,,,,,,,,,,,0,,,Not running,,,,,,,,,,,0.998400,0.020200,0.050700,-0.005800,1.000000,0.000000,-0.000000,0.000000,0.000,-0.000,0.000,b6 00 00 00 00 00 00 00 27 ca 00 fb 01 c6 ff 07 00 29
0.154,fused,,20,0x07,"IMU0_OK, IMU1_OK, FUSION_READY",0.035700,-0.850800,-0.524100,0.002600,63.198,63.198,-1.891,-176.358,,,,,,,,,,,,,0,,,Not running,,,,,,,,,,,0.998400,0.020200,0.050700,-0.005800,0.008132,0.847406,0.530050,0.029751,64.106,-2.396,177.400,b6 00 00 00 00 00 00 65 01 c4 de 87 eb 1a 00 07 14 1b
0.209,fused,,0,0x07,"IMU0_OK, IMU1_OK, FUSION_READY",0.998400,0.020200,0.050700,-0.005800,-0.549,-0.549,5.824,2.290,,,,,,,,,,,,,0,,,Not running,,,,,,,,,,,0.998400,0.020200,0.050700,-0.005800,1.000000,0.000000,-0.000000,0.000000,0.000,-0.000,0.000,b6 00 00 00 00 00 00 00 27 ca 00 fb 01 c6 ff 07 00 29
0.210,fused,,20,0x07,"IMU0_OK, IMU1_OK, FUSION_READY",0.035700,-0.850800,-0.524100,0.002500,63.197,63.197,-1.901,-176.364,,,,,,,,,,,,,0,,,Not running,,,,,,,,,,,0.998400,0.020200,0.050700,-0.005800,0.008131,0.847401,0.530052,0.029851,64.107,-2.406,177.394,b6 00 00 00 00 00 00 65 01 c4 de 87 eb 19 00 07 14 18
0.211,fused,,0,0x07,"IMU0_OK, IMU1_OK, FUSION_READY",0.998400,0.020200,0.050700,-0.005800,-0.549,-0.549,5.824,2.290,,,,,,,,,,,,,0,,,Not running,,,,,,,,,,,0.998400,0.020200,0.050700,-0.005800,1.000000,0.000000,-0.000000,0.000000,0.000,-0.000,0.000,b6 00 00 00 00 00 00 00 27 ca 00 fb 01 c6 ff 07 00 29
0.212,fused,,20,0x07,"IMU0_OK, IMU1_OK, FUSION_READY",0.035700,-0.850800,-0.524100,0.002500,63.197,63.197,-1.901,-176.364,,,,,,,,,,,,,0,,,Not running,,,,,,,,,,,0.998400,0.020200,0.050700,-0.005800,0.008131,0.847401,0.530052,0.029851,64.107,-2.406,177.394,b6 00 00 00 00 00 00 65 01 c4 de 87 eb 19 00 07 14 18
0.212,fused,,0,0x07,"IMU0_OK, IMU1_OK, FUSION_READY",0.998400,0.020200,0.050700,-0.005800,-0.549,-0.549,5.824,2.290,,,,,,,,,,,,,0,,,Not running,,,,,,,,,,,0.998400,0.020200,0.050700,-0.005800,1.000000,0.000000,-0.000000,0.000000,0.000,-0.000,0.000,b6 00 00 00 00 00 00 00 27 ca 00 fb 01 c6 ff 07 00 29
0.213,fused,,20,0x07,"IMU0_OK, IMU1_OK, FUSION_READY",0.035700,-0.850800,-0.524100,0.002500,63.197,63.197,-1.901,-176.364,,,,,,,,,,,,,0,,,Not running,,,,,,,,,,,0.998400,0.020200,0.050700,-0.005800,0.008131,0.847401,0.530052,0.029851,64.107,-2.406,177.394,b6 00 00 00 00 00 00 65 01 c4 de 87 eb 19 00 07 14 18
0.213,fused,,0,0x07,"IMU0_OK, IMU1_OK, FUSION_READY",0.998400,0.020200,0.050700,-0.005800,-0.549,-0.549,5.824,2.290,,,,,,,,,,,,,0,,,Not running,,,,,,,,,,,0.998400,0.020200,0.050700,-0.005800,1.000000,0.000000,-0.000000,0.000000,0.000,-0.000,0.000,b6 00 00 00 00 00 00 00 27 ca 00 fb 01 c6 ff 07 00 29
0.214,fused,,20,0x07,"IMU0_OK, IMU1_OK, FUSION_READY",0.035800,-0.850900,-0.524000,0.002600,63.185,63.185,-1.896,-176.348,,,,,,,,,,,,,0,,,Not running,,,,,,,,,,,0.998400,0.020200,0.050700,-0.005800,0.008029,0.847477,0.529936,0.029757,64.091,-2.403,177.410,b6 00 00 00 00 00 00 66 01 c3 de 88 eb 1a 00 07 14 10
0.214,fused,,0,0x07,"IMU0_OK, IMU1_OK, FUSION_READY",0.998400,0.020200,0.050700,-0.005800,-0.549,-0.549,5.824,2.290,,,,,,,,,,,,,0,,,Not running,,,,,,,,,,,0.998400,0.020200,0.050700,-0.005800,1.000000,0.000000,-0.000000,0.000000,0.000,-0.000,0.000,b6 00 00 00 00 00 00 00 27 ca 00 fb 01 c6 ff 07 00 29
0.215,fused,,20,0x07,"IMU0_OK, IMU1_OK, FUSION_READY",0.035900,-0.850900,-0.524000,0.002600,63.185,63.185,-1.902,-176.338,,,,,,,,,,,,,0,,,Not running,,,,,,,,,,,0.998400,0.020200,0.050700,-0.005800,0.007929,0.847476,0.529939,0.029756,64.091,-2.409,177.420,b6 00 00 00 00 00 00 67 01 c3 de 88 eb 1a 00 07 14 11
0.215,fused,,0,0x07,"IMU0_OK, IMU1_OK, FUSION_READY",0.998400,0.020200,0.050700,-0.005800,-0.549,-0.549,5.824,2.290,,,,,,,,,,,,,0,,,Not running,,,,,,,,,,,0.998400,0.020200,0.050700,-0.005800,1.000000,0.000000,-0.000000,0.000000,0.000,-0.000,0.000,b6 00 00 00 00 00 00 00 27 ca 00 fb 01 c6 ff 07 00 29
0.216,fused,,20,0x07,"IMU0_OK, IMU1_OK, FUSION_READY",0.036000,-0.850900,-0.524000,0.002600,63.185,63.185,-1.908,-176.328,,,,,,,,,,,,,0,,,Not running,,,,,,,,,,,0.998400,0.020200,0.050700,-0.005800,0.007829,0.847475,0.529943,0.029755,64.091,-2.415,177.430,b6 00 00 00 00 00 00 68 01 c3 de 88 eb 1a 00 07 14 1e
0.216,fused,,0,0x07,"IMU0_OK, IMU1_OK, FUSION_READY",0.998400,0.020200,0.050700,-0.005800,-0.549,-0.549,5.824,2.290,,,,,,,,,,,,,0,,,Not running,,,,,,,,,,,0.998400,0.020200,0.050700,-0.005800,1.000000,0.000000,-0.000000,0.000000,0.000,-0.000,0.000,b6 00 00 00 00 00 00 00 27 ca 00 fb 01 c6 ff 07 00 29
0.217,fused,,20,0x07,"IMU0_OK, IMU1_OK, FUSION_READY",0.036000,-0.850900,-0.524000,0.002600,63.185,63.185,-1.908,-176.328,,,,,,,,,,,,,0,,,Not running,,,,,,,,,,,0.998400,0.020200,0.050700,-0.005800,0.007829,0.847475,0.529943,0.029755,64.091,-2.415,177.430,b6 00 00 00 00 00 00 68 01 c3 de 88 eb 1a 00 07 14 1e
0.269,fused,,0,0x07,"IMU0_OK, IMU1_OK, FUSION_READY",0.998400,0.020200,0.050700,-0.005800,-0.549,-0.549,5.824,2.290,,,,,,,,,,,,,0,,,Not running,,,,,,,,,,,0.998400,0.020200,0.050700,-0.005800,1.000000,0.000000,-0.000000,0.000000,0.000,-0.000,0.000,b6 00 00 00 00 00 00 00 27 ca 00 fb 01 c6 ff 07 00 29
0.270,fused,,20,0x07,"IMU0_OK, IMU1_OK, FUSION_READY",0.036100,-0.850900,-0.524000,0.002500,63.185,63.185,-1.924,-176.325,,,,,,,,,,,,,0,,,Not running,,,,,,,,,,,0.998400,0.020200,0.050700,-0.005800,0.007728,0.847469,0.529948,0.029854,64.092,-2.431,177.433,b6 00 00 00 00 00 00 69 01 c3 de 88 eb 19 00 07 14 1c
0.271,fused,,0,0x07,"IMU0_OK, IMU1_OK, FUSION_READY",0.998400,0.020200,0.050700,-0.005800,-0.549,-0.549,5.824,2.290,,,,,,,,,,,,,0,,,Not running,,,,,,,,,,,0.998400,0.020200,0.050700,-0.005800,1.000000,0.000000,-0.000000,0.000000,0.000,-0.000,0.000,b6 00 00 00 00 00 00 00 27 ca 00 fb 01 c6 ff 07 00 29
0.271,fused,,20,0x07,"IMU0_OK, IMU1_OK, FUSION_READY",0.036100,-0.850900,-0.524000,0.002500,63.185,63.185,-1.924,-176.325,,,,,,,,,,,,,0,,,Not running,,,,,,,,,,,0.998400,0.020200,0.050700,-0.005800,0.007728,0.847469,0.529948,0.029854,64.092,-2.431,177.433,b6 00 00 00 00 00 00 69 01 c3 de 88 eb 19 00 07 14 1c
0.272,fused,,0,0x07,"IMU0_OK, IMU1_OK, FUSION_READY",0.998400,0.020200,0.050700,-0.005800,-0.549,-0.549,5.824,2.290,,,,,,,,,,,,,0,,,Not running,,,,,,,,,,,0.998400,0.020200,0.050700,-0.005800,1.000000,0.000000,-0.000000,0.000000,0.000,-0.000,0.000,b6 00 00 00 00 00 00 00 27 ca 00 fb 01 c6 ff 07 00 29
0.272,fused,,20,0x07,"IMU0_OK, IMU1_OK, FUSION_READY",0.036200,-0.850900,-0.524000,0.002400,63.185,63.185,-1.940,-176.321,,,,,,,,,,,,,0,,,Not running,,,,,,,,,,,0.998400,0.020200,0.050700,-0.005800,0.007628,0.847463,0.529953,0.029954,64.094,-2.446,177.437,b6 00 00 00 00 00 00 6a 01 c3 de 88 eb 18 00 07 14 1e
0.273,fused,,0,0x07,"IMU0_OK, IMU1_OK, FUSION_READY",0.998400,0.020200,0.050700,-0.005800,-0.549,-0.549,5.824,2.290,,,,,,,,,,,,,0,,,Not running,,,,,,,,,,,0.998400,0.020200,0.050700,-0.005800,1.000000,0.000000,-0.000000,0.000000,0.000,-0.000,0.000,b6 00 00 00 00 00 00 00 27 ca 00 fb 01 c6 ff 07 00 29
0.273,fused,,20,0x07,"IMU0_OK, IMU1_OK, FUSION_READY",0.036200,-0.850900,-0.524000,0.002500,63.185,63.185,-1.930,-176.315,,,,,,,,,,,,,0,,,Not running,,,,,,,,,,,0.998400,0.020200,0.050700,-0.005800,0.007628,0.847468,0.529951,0.029854,64.093,-2.437,177.443,b6 00 00 00 00 00 00 6a 01 c3 de 88 eb 19 00 07 14 1f
0.273,fused,,0,0x07,"IMU0_OK, IMU1_OK, FUSION_READY",0.998400,0.020200,0.050700,-0.005900,-0.561,-0.561,5.824,2.289,,,,,,,,,,,,,0,,,Not running,,,,,,,,,,,0.998400,0.020200,0.050700,-0.005900,1.000000,0.000000,-0.000000,-0.000000,-0.000,-0.000,0.000,b6 00 00 00 00 00 00 00 27 ca 00 fb 01 c5 ff 07 00 2a
0.274,fused,,20,0x07,"IMU0_OK, IMU1_OK, FUSION_READY",0.036200,-0.850900,-0.524000,0.002500,63.185,63.185,-1.930,-176.315,,,,,,,,,,,,,0,,,Not running,,,,,,,,,,,0.998400,0.020200,0.050700,-0.005900,0.007629,0.847415,0.530036,0.029850,64.104,-2.436,177.443,b6 00 00 00 00 00 00 6a 01 c3 de 88 eb 19 00 07 14 1f
0.275,fused,,0,0x07,"IMU0_OK, IMU1_OK, FUSION_READY",0.998400,0.020200,0.050800,-0.005900,-0.560,-0.560,5.836,2.289,,,,,,,,,,,,,0,,,Not running,,,,,,,,,,,0.998400,0.020200,0.050800,-0.005900,1.000000,0.000000,-0.000000,0.000000,0.000,-0.000,0.000,b6 00 00 00 00 00 00 00 27 ca 00 fc 01 c5 ff 07 00 2d
0.276,fused,,20,0x07,"IMU0_OK, IMU1_OK, FUSION_READY",0.036200,-0.850900,-0.524000,0.002500,63.185,63.185,-1.930,-176.315,,,,,,,,,,,,,0,,,Not running,,,,,,,,,,,0.998400,0.020200,0.050800,-0.005900,0.007681,0.847411,0.530037,0.029935,64.105,-2.441,177.433,b6 00 00 00 00 00 00 6a 01 c3 de 88 eb 19 00 07 14 1f
0.276,fused,,0,0x07,"IMU0_OK, IMU1_OK, FUSION_READY",0.998400,0.020200,0.050800,-0.005900,-0.560,-0.560,5.836,2.289,,,,,,,,,,,,,0,,,Not running,,,,,,,,,,,0.998400,0.020200,0.050800,-0.005900,1.000000,0.000000,-0.000000,0.000000,0.000,-0.000,0.000,b6 00 00 00 00 00 00 00 27 ca 00 fc 01 c5 ff 07 00 2d
0.277,fused,,20,0x07,"IMU0_OK, IMU1_OK, FUSION_READY",0.036200,-0.850900,-0.524000,0.002500,63.185,63.185,-1.930,-176.315,,,,,,,,,,,,,0,,,Not running,,,,,,,,,,,0.998400,0.020200,0.050800,-0.005900,0.007681,0.847411,0.530037,0.029935,64.105,-2.441,177.433,b6 00 00 00 00 00 00 6a 01 c3 de 88 eb 19 00 07 14 1f
0.349,fused,,0,0x07,"IMU0_OK, IMU1_OK, FUSION_READY",0.998400,0.020200,0.050800,-0.005900,-0.560,-0.560,5.836,2.289,,,,,,,,,,,,,0,,,Not running,,,,,,,,,,,0.998400,0.020200,0.050800,-0.005900,1.000000,0.000000,-0.000000,0.000000,0.000,-0.000,0.000,b6 00 00 00 00 00 00 00 27 ca 00 fc 01 c5 ff 07 00 2d
0.350,fused,,20,0x07,"IMU0_OK, IMU1_OK, FUSION_READY",0.036100,-0.850800,-0.524100,0.002500,63.197,63.197,-1.925,-176.325,,,,,,,,,,,,,0,,,Not running,,,,,,,,,,,0.998400,0.020200,0.050800,-0.005900,0.007784,0.847340,0.530150,0.029930,64.120,-2.434,177.423,b6 00 00 00 00 00 00 69 01 c4 de 87 eb 19 00 07 14 14
0.350,fused,,0,0x07,"IMU0_OK, IMU1_OK, FUSION_READY",0.998400,0.020200,0.050800,-0.005900,-0.560,-0.560,5.836,2.289,,,,,,,,,,,,,0,,,Not running,,,,,,,,,,,0.998400,0.020200,0.050800,-0.005900,1.000000,0.000000,-0.000000,0.000000,0.000,-0.000,0.000,b6 00 00 00 00 00 00 00 27 ca 00 fc 01 c5 ff 07 00 2d
0.351,fused,,20,0x07,"IMU0_OK, IMU1_OK, FUSION_READY",0.036100,-0.850800,-0.524100,0.002500,63.197,63.197,-1.925,-176.325,,,,,,,,,,,,,0,,,Not running,,,,,,,,,,,0.998400,0.020200,0.050800,-0.005900,0.007784,0.847340,0.530150,0.029930,64.120,-2.434,177.423,b6 00 00 00 00 00 00 69 01 c4 de 87 eb 19 00 07 14 14
0.352,fused,,0,0x07,"IMU0_OK, IMU1_OK, FUSION_READY",0.998400,0.020200,0.050800,-0.005900,-0.560,-0.560,5.836,2.289,,,,,,,,,,,,,0,,,Not running,,,,,,,,,,,0.998400,0.020200,0.050800,-0.005900,1.000000,0.000000,-0.000000,0.000000,0.000,-0.000,0.000,b6 00 00 00 00 00 00 00 27 ca 00 fc 01 c5 ff 07 00 2d
0.352,fused,,20,0x07,"IMU0_OK, IMU1_OK, FUSION_READY",0.036200,-0.850800,-0.524100,0.002500,63.197,63.197,-1.931,-176.315,,,,,,,,,,,,,0,,,Not running,,,,,,,,,,,0.998400,0.020200,0.050800,-0.005900,0.007684,0.847339,0.530153,0.029929,64.121,-2.440,177.432,b6 00 00 00 00 00 00 6a 01 c4 de 87 eb 19 00 07 14 17
0.353,fused,,0,0x07,"IMU0_OK, IMU1_OK, FUSION_READY",0.998400,0.020200,0.050800,-0.005900,-0.560,-0.560,5.836,2.289,,,,,,,,,,,,,0,,,Not running,,,,,,,,,,,0.998400,0.020200,0.050800,-0.005900,1.000000,0.000000,-0.000000,0.000000,0.000,-0.000,0.000,b6 00 00 00 00 00 00 00 27 ca 00 fc 01 c5 ff 07 00 2d
0.353,fused,,20,0x07,"IMU0_OK, IMU1_OK, FUSION_READY",0.036300,-0.850800,-0.524100,0.002500,63.197,63.197,-1.937,-176.305,,,,,,,,,,,,,0,,,Not running,,,,,,,,,,,0.998400,0.020200,0.050800,-0.005900,0.007584,0.847338,0.530156,0.029928,64.121,-2.446,177.442,b6 00 00 00 00 00 00 6b 01 c4 de 87 eb 19 00 07 14 16
0.353,fused,,0,0x07,"IMU0_OK, IMU1_OK, FUSION_READY",0.998400,0.020200,0.050800,-0.005900,-0.560,-0.560,5.836,2.289,,,,,,,,,,,,,0,,,Not running,,,,,,,,,,,0.998400,0.020200,0.050800,-0.005900,1.000000,0.000000,-0.000000,0.000000,0.000,-0.000,0.000,b6 00 00 00 00 00 00 00 27 ca 00 fc 01 c5 ff 07 00 2d
0.354,fused,,20,0x07,"IMU0_OK, IMU1_OK, FUSION_READY",0.036400,-0.850800,-0.524000,0.002400,63.182,63.182,-1.952,-176.301,,,,,,,,,,,,,0,,,Not running,,,,,,,,,,,0.998400,0.020200,0.050800,-0.005900,0.007479,0.847377,0.530090,0.030031,64.112,-2.463,177.446,b6 00 00 00 00 00 00 6c 01 c4 de 88 eb 18 00 07 14 1f
0.354,fused,,0,0x07,"IMU0_OK, IMU1_OK, FUSION_READY",0.998400,0.020200,0.050800,-0.005900,-0.560,-0.560,5.836,2.289,,,,,,,,,,,,,0,,,Not running,,,,,,,,,,,0.998400,0.020200,0.050800,-0.005900,1.000000,0.000000,-0.000000,0.000000,0.000,-0.000,0.000,b6 00 00 00 00 00 00 00 27 ca 00 fc 01 c5 ff 07 00 2d
0.355,fused,,20,0x07,"IMU0_OK, IMU1_OK, FUSION_READY",0.036300,-0.850800,-0.524100,0.002400,63.197,63.197,-1.946,-176.311,,,,,,,,,,,,,0,,,Not running,,,,,,,,,,,0.998400,0.020200,0.050800,-0.005900,0.007584,0.847333,0.530159,0.030028,64.122,-2.456,177.436,b6 00 00 00 00 00 00 6b 01 c4 de 87 eb 18 00 07 14 17
0.355,fused,,0,0x07,"IMU0_OK, IMU1_OK, FUSION_READY",0.998400,0.020100,0.050800,-0.005900,-0.561,-0.561,5.836,2.278,,,,,,,,,,,,,0,,,Not running,,,,,,,,,,,0.998400,0.020100,0.050800,-0.005900,1.000000,0.000000,-0.000000,0.000000,0.000,-0.000,0.000,b6 00 00 00 00 00 00 00 27 c9 00 fc 01 c5 ff 07 00 2e
0.356,fused,,20,0x07,"IMU0_OK, IMU1_OK, FUSION_READY",0.036300,-0.850800,-0.524100,0.002400,63.197,63.197,-1.946,-176.311,,,,,,,,,,,,,0,,,Not running,,,,,,,,,,,0.998400,0.020100,0.050800,-0.005900,0.007499,0.847331,0.530160,0.030081,64.122,-2.466,177.441,b6 00 00 00 00 00 00 6b 01 c4 de 87 eb 18 00 07 14 17
0.356,fused,,0,0x07,"IMU0_OK, IMU1_OK, FUSION_READY",0.998400,0.020100,0.050800,-0.005900,-0.561,-0.561,5.836,2.278,,,,,,,,,,,,,0,,,Not running,,,,,,,,,,,0.998400,0.020100,0.050800,-0.005900,1.000000,0.000000,-0.000000,0.000000,0.000,-0.000,0.000,b6 00 00 00 00 00 00 00 27 c9 00 fc 01 c5 ff 07 00 2e
0.474,fused,,20,0x07,"IMU0_OK, IMU1_OK, FUSION_READY",0.036300,-0.850800,-0.524100,0.002400,63.197,63.197,-1.946,-176.311,,,,,,,,,,,,,0,,,Not running,,,,,,,,,,,0.998400,0.020100,0.050800,-0.005900,0.007499,0.847331,0.530160,0.030081,64.122,-2.466,177.441,b6 00 00 00 00 00 00 6b 01 c4 de 87 eb 18 00 07 14 17
0.476,fused,,0,0x07,"IMU0_OK, IMU1_OK, FUSION_READY",0.998400,0.020100,0.050800,-0.005900,-0.561,-0.561,5.836,2.278,,,,,,,,,,,,,0,,,Not running,,,,,,,,,,,0.998400,0.020100,0.050800,-0.005900,1.000000,0.000000,-0.000000,0.000000,0.000,-0.000,0.000,b6 00 00 00 00 00 00 00 27 c9 00 fc 01 c5 ff 07 00 2e
0.478,fused,,20,0x07,"IMU0_OK, IMU1_OK, FUSION_READY",0.036200,-0.850800,-0.524100,0.002400,63.197,63.197,-1.940,-176.321,,,,,,,,,,,,,0,,,Not running,,,,,,,,,,,0.998400,0.020100,0.050800,-0.005900,0.007599,0.847332,0.530157,0.030081,64.122,-2.460,177.431,b6 00 00 00 00 00 00 6a 01 c4 de 87 eb 18 00 07 14 16
0.479,fused,,0,0x07,"IMU0_OK, IMU1_OK, FUSION_READY",0.998400,0.020100,0.050800,-0.005900,-0.561,-0.561,5.836,2.278,,,,,,,,,,,,,0,,,Not running,,,,,,,,,,,0.998400,0.020100,0.050800,-0.005900,1.000000,0.000000,-0.000000,0.000000,0.000,-0.000,0.000,b6 00 00 00 00 00 00 00 27 c9 00 fc 01 c5 ff 07 00 2e
0.480,fused,,20,0x07,"IMU0_OK, IMU1_OK, FUSION_READY",0.036100,-0.850800,-0.524100,0.002500,63.197,63.197,-1.925,-176.325,,,,,,,,,,,,,0,,,Not running,,,,,,,,,,,0.998400,0.020100,0.050800,-0.005900,0.007699,0.847338,0.530151,0.029982,64.121,-2.444,177.428,b6 00 00 00 00 00 00 69 01 c4 de 87 eb 19 00 07 14 14
0.480,fused,,0,0x07,"IMU0_OK, IMU1_OK, FUSION_READY",0.998400,0.020100,0.050800,-0.005900,-0.561,-0.561,5.836,2.278,,,,,,,,,,,,,0,,,Not running,,,,,,,,,,,0.998400,0.020100,0.050800,-0.005900,1.000000,0.000000,-0.000000,0.000000,0.000,-0.000,0.000,b6 00 00 00 00 00 00 00 27 c9 00 fc 01 c5 ff 07 00 2e
0.481,fused,,20,0x07,"IMU0_OK, IMU1_OK, FUSION_READY",0.036100,-0.850800,-0.524100,0.002500,63.197,63.197,-1.925,-176.325,,,,,,,,,,,,,0,,,Not running,,,,,,,,,,,0.998400,0.020100,0.050800,-0.005900,0.007699,0.847338,0.530151,0.029982,64.121,-2.444,177.428,b6 00 00 00 00 00 00 69 01 c4 de 87 eb 19 00 07 14 14
0.481,fused,,0,0x07,"IMU0_OK, IMU1_OK, FUSION_READY",0.998400,0.020100,0.050800,-0.005900,-0.561,-0.561,5.836,2.278,,,,,,,,,,,,,0,,,Not running,,,,,,,,,,,0.998400,0.020100,0.050800,-0.005900,1.000000,0.000000,-0.000000,0.000000,0.000,-0.000,0.000,b6 00 00 00 00 00 00 00 27 c9 00 fc 01 c5 ff 07 00 2e
0.482,fused,,20,0x07,"IMU0_OK, IMU1_OK, FUSION_READY",0.036000,-0.850800,-0.524100,0.002600,63.198,63.198,-1.909,-176.328,,,,,,,,,,,,,0,,,Not running,,,,,,,,,,,0.998400,0.020100,0.050800,-0.005900,0.007800,0.847344,0.530146,0.029883,64.119,-2.428,177.424,b6 00 00 00 00 00 00 68 01 c4 de 87 eb 1a 00 07 14 16
0.482,fused,,0,0x07,"IMU0_OK, IMU1_OK, FUSION_READY",0.998400,0.020100,0.050800,-0.005900,-0.561,-0.561,5.836,2.278,,,,,,,,,,,,,0,,,Not running,,,,,,,,,,,0.998400,0.020100,0.050800,-0.005900,1.000000,0.000000,-0.000000,0.000000,0.000,-0.000,0.000,b6 00 00 00 00 00 00 00 27 c9 00 fc 01 c5 ff 07 00 2e
0.483,fused,,20,0x07,"IMU0_OK, IMU1_OK, FUSION_READY",0.036000,-0.850800,-0.524100,0.002600,63.198,63.198,-1.909,-176.328,,,,,,,,,,,,,0,,,Not running,,,,,,,,,,,0.998400,0.020100,0.050800,-0.005900,0.007800,0.847344,0.530146,0.029883,64.119,-2.428,177.424,b6 00 00 00 00 00 00 68 01 c4 de 87 eb 1a 00 07 14 16
0.483,fused,,0,0x07,"IMU0_OK, IMU1_OK, FUSION_READY",0.998400,0.020100,0.050800,-0.005900,-0.561,-0.561,5.836,2.278,,,,,,,,,,,,,0,,,Not running,,,,,,,,,,,0.998400,0.020100,0.050800,-0.005900,1.000000,0.000000,-0.000000,0.000000,0.000,-0.000,0.000,b6 00 00 00 00 00 00 00 27 c9 00 fc 01 c5 ff 07 00 2e
0.484,fused,,20,0x07,"IMU0_OK, IMU1_OK, FUSION_READY",0.036000,-0.850800,-0.524100,0.002600,63.198,63.198,-1.909,-176.328,,,,,,,,,,,,,0,,,Not running,,,,,,,,,,,0.998400,0.020100,0.050800,-0.005900,0.007800,0.847344,0.530146,0.029883,64.119,-2.428,177.424,b6 00 00 00 00 00 00 68 01 c4 de 87 eb 1a 00 07 14 16
0.484,fused,,0,0x07,"IMU0_OK, IMU1_OK, FUSION_READY",0.998400,0.020100,0.050800,-0.005900,-0.561,-0.561,5.836,2.278,,,,,,,,,,,,,0,,,Not running,,,,,,,,,,,0.998400,0.020100,0.050800,-0.005900,1.000000,0.000000,-0.000000,0.000000,0.000,-0.000,0.000,b6 00 00 00 00 00 00 00 27 c9 00 fc 01 c5 ff 07 00 2e
0.485,fused,,20,0x07,"IMU0_OK, IMU1_OK, FUSION_READY",0.036100,-0.850800,-0.524100,0.002600,63.198,63.198,-1.915,-176.319,,,,,,,,,,,,,0,,,Not running,,,,,,,,,,,0.998400,0.020100,0.050800,-0.005900,0.007700,0.847343,0.530149,0.029882,64.120,-2.434,177.434,b6 00 00 00 00 00 00 69 01 c4 de 87 eb 1a 00 07 14 17
0.485,fused,,0,0x07,"IMU0_OK, IMU1_OK, FUSION_READY",0.998400,0.020100,0.050800,-0.005900,-0.561,-0.561,5.836,2.278,,,,,,,,,,,,,0,,,Not running,,,,,,,,,,,0.998400,0.020100,0.050800,-0.005900,1.000000,0.000000,-0.000000,0.000000,0.000,-0.000,0.000,b6 00 00 00 00 00 00 00 27 c9 00 fc 01 c5 ff 07 00 2e
0.486,fused,,20,0x07,"IMU0_OK, IMU1_OK, FUSION_READY",0.036200,-0.850900,-0.524000,0.002500,63.185,63.185,-1.930,-176.315,,,,,,,,,,,,,0,,,Not running,,,,,,,,,,,0.998400,0.020100,0.050800,-0.005900,0.007596,0.847409,0.530038,0.029988,64.105,-2.451,177.438,b6 00 00 00 00 00 00 6a 01 c3 de 88 eb 19 00 07 14 1f
0.486,fused,,0,0x07,"IMU0_OK, IMU1_OK, FUSION_READY",0.998400,0.020100,0.050800,-0.006000,-0.572,-0.572,5.836,2.277,,,,,,,,,,,,,0,,,Not running,,,,,,,,,,,0.998400,0.020100,0.050800,-0.006000,1.000000,0.000000,-0.000000,0.000000,0.000,-0.000,0.000,b6 00 00 00 00 00 00 00 27 c9 00 fc 01 c4 ff 07 00 2f
0.487,fused,,20,0x07,"IMU0_OK, IMU1_OK, FUSION_READY",0.036300,-0.850900,-0.524000,0.002500,63.185,63.185,-1.936,-176.305,,,,,,,,,,,,,0,,,Not running,,,,,,,,,,,0.998400,0.020100,0.050800,-0.006000,0.007496,0.847355,0.530126,0.029983,64.117,-2.457,177.448,b6 00 00 00 00 00 00 6b 01 c3 de 88 eb 19 00 07 14 1e
0.487,fused,,0,0x07,"IMU0_OK, IMU1_OK, FUSION_READY",0.998400,0.020100,0.050800,-0.006000,-0.572,-0.572,5.836,2.277,,,,,,,,,,,,,0,,,Not running,,,,,,,,,,,0.998400,0.020100,0.050800,-0.006000,1.000000,0.000000,-0.000000,0.000000,0.000,-0.000,0.000,b6 00 00 00 00 00 00 00 27 c9 00 fc 01 c4 ff 07 00 2f
0.488,fused,,20,0x07,"IMU0_OK, IMU1_OK, FUSION_READY",0.036300,-0.850900,-0.524000,0.002500,63.185,63.185,-1.936,-176.305,,,,,,,,,,,,,0,,,Not running,,,,,,,,,,,0.998400,0.020100,0.050800,-0.006000,0.007496,0.847355,0.530126,0.029983,64.117,-2.457,177.448,b6 00 00 00 00 00 00 6b 01 c3 de 88 eb 19 00 07 14 1e
0.488,fused,,0,0x07,"IMU0_OK, IMU1_OK, FUSION_READY",0.998400,0.020100,0.050800,-0.006000,-0.572,-0.572,5.836,2.277,,,,,,,,,,,,,0,,,Not running,,,,,,,,,,,0.998400,0.020100,0.050800,-0.006000,1.000000,0.000000,-0.000000,0.000000,0.000,-0.000,0.000,b6 00 00 00 00 00 00 00 27 c9 00 fc 01 c4 ff 07 00 2f
0.488,fused,,20,0x07,"IMU0_OK, IMU1_OK, FUSION_READY",0.036200,-0.850900,-0.524000,0.002500,63.185,63.185,-1.930,-176.315,,,,,,,,,,,,,0,,,Not running,,,,,,,,,,,0.998400,0.020100,0.050800,-0.006000,0.007596,0.847356,0.530123,0.029984,64.117,-2.451,177.438,b6 00 00 00 00 00 00 6a 01 c3 de 88 eb 19 00 07 14 1f
0.489,fused,,0,0x07,"IMU0_OK, IMU1_OK, FUSION_READY",0.998400,0.020100,0.050900,-0.006000,-0.572,-0.572,5.847,2.277,,,,,,,,,,,,,0,,,Not running,,,,,,,,,,,0.998400,0.020100,0.050900,-0.006000,1.000000,0.000000,0.000000,0.000000,0.000,0.000,0.000,b6 00 00 00 00 00 00 00 27 c9 00 fd 01 c4 ff 07 00 2e
0.490,fused,,20,0x07,"IMU0_OK, IMU1_OK, FUSION_READY",0.036200,-0.850900,-0.524000,0.002500,63.185,63.185,-1.930,-176.315,,,,,,,,,,,,,0,,,Not running,,,,,,,,,,,0.998400,0.020100,0.050900,-0.006000,0.007649,0.847352,0.530124,0.030069,64.117,-2.456,177.427,b6 00 00 00 00 00 00 6a 01 c3 de 88 eb 19 00 07 14 1f
0.490,fused,,0,0x07,"IMU0_OK, IMU1_OK, FUSION_READY",0.998400,0.020100,0.050900,-0.006000,-0.572,-0.572,5.847,2.277,,,,,,,,,,,,,0,,,Not running,,,,,,,,,,,0.998400,0.020100,0.050900,-0.006000,1.000000,0.000000,0.000000,0.000000,0.000,0.000,0.000,b6 00 00 00 00 00 00 00 27 c9 00 fd 01 c4 ff 07 00 2e
0.491,fused,,20,0x07,"IMU0_OK, IMU1_OK, FUSION_READY",0.036400,-0.850900,-0.523900,0.002400,63.170,63.170,-1.952,-176.301,,,,,,,,,,,,,0,,,Not running,,,,,,,,,,,0.998400,0.020100,0.050900,-0.006000,0.007443,0.847390,0.530060,0.030171,64.109,-2.478,177.441,b6 00 00 00 00 00 00 6c 01 c3 de 89 eb 18 00 07 14 19
0.491,fused,,0,0x07,"IMU0_OK, IMU1_OK, FUSION_READY",0.998400,0.020100,0.050900,-0.006000,-0.572,-0.572,5.847,2.277,,,,,,,,,,,,,0,,,Not running,,,,,,,,,,,0.998400,0.020100,0.050900,-0.006000,1.000000,0.000000,0.000000,0.000000,0.000,0.000,0.000,b6 00 00 00 00 00 00 00 27 c9 00 fd 01 c4 ff 07 00 2e
0.553,fused,,20,0x07,"IMU0_OK, IMU1_OK, FUSION_READY",0.036400,-0.850900,-0.524000,0.002400,63.185,63.185,-1.952,-176.301,,,,,,,,,,,,,0,,,Not running,,,,,,,,,,,0.998400,0.020100,0.050900,-0.006000,0.007448,0.847345,0.530132,0.030167,64.119,-2.478,177.441,b6 00 00 00 00 00 00 6c 01 c3 de 88 eb 18 00 07 14 18
0.555,fused,,0,0x07,"IMU0_OK, IMU1_OK, FUSION_READY",0.998400,0.020100,0.050900,-0.006000,-0.572,-0.572,5.847,2.277,,,,,,,,,,,,,0,,,Not running,,,,,,,,,,,0.998400,0.020100,0.050900,-0.006000,1.000000,0.000000,0.000000,0.000000,0.000,0.000,0.000,b6 00 00 00 00 00 00 00 27 c9 00 fd 01 c4 ff 07 00 2e
0.556,fused,,20,0x07,"IMU0_OK, IMU1_OK, FUSION_READY",0.036400,-0.850900,-0.524000,0.002500,63.185,63.185,-1.942,-176.296,,,,,,,,,,,,,0,,,Not running,,,,,,,,,,,0.998400,0.020100,0.050900,-0.006000,0.007449,0.847350,0.530130,0.030067,64.118,-2.468,177.447,b6 00 00 00 00 00 00 6c 01 c3 de 88 eb 19 00 07 14 19
0.557,fused,,0,0x07,"IMU0_OK, IMU1_OK, FUSION_READY",0.998400,0.020100,0.050900,-0.006000,-0.572,-0.572,5.847,2.277,,,,,,,,,,,,,0,,,Not running,,,,,,,,,,,0.998400,0.020100,0.050900,-0.006000,1.000000,0.000000,0.000000,0.000000,0.000,0.000,0.000,b6 00 00 00 00 00 00 00 27 c9 00 fd 01 c4 ff 07 00 2e
0.557,fused,,20,0x07,"IMU0_OK, IMU1_OK, FUSION_READY",0.036400,-0.850900,-0.524000,0.002500,63.185,63.185,-1.942,-176.296,,,,,,,,,,,,,0,,,Not running,,,,,,,,,,,0.998400,0.020100,0.050900,-0.006000,0.007449,0.847350,0.530130,0.030067,64.118,-2.468,177.447,b6 00 00 00 00 00 00 6c 01 c3 de 88 eb 19 00 07 14 19
0.558,fused,,0,0x07,"IMU0_OK, IMU1_OK, FUSION_READY",0.998400,0.020100,0.050900,-0.006000,-0.572,-0.572,5.847,2.277,,,,,,,,,,,,,0,,,Not running,,,,,,,,,,,0.998400,0.020100,0.050900,-0.006000,1.000000,0.000000,0.000000,0.000000,0.000,0.000,0.000,b6 00 00 00 00 00 00 00 27 c9 00 fd 01 c4 ff 07 00 2e
0.558,fused,,20,0x07,"IMU0_OK, IMU1_OK, FUSION_READY",0.036500,-0.850900,-0.524000,0.002500,63.185,63.185,-1.948,-176.286,,,,,,,,,,,,,0,,,Not running,,,,,,,,,,,0.998400,0.020100,0.050900,-0.006000,0.007349,0.847349,0.530133,0.030067,64.118,-2.474,177.457,b6 00 00 00 00 00 00 6d 01 c3 de 88 eb 19 00 07 14 18
0.559,fused,,0,0x07,"IMU0_OK, IMU1_OK, FUSION_READY",0.998400,0.020100,0.050900,-0.006000,-0.572,-0.572,5.847,2.277,,,,,,,,,,,,,0,,,Not running,,,,,,,,,,,0.998400,0.020100,0.050900,-0.006000,1.000000,0.000000,0.000000,0.000000,0.000,0.000,0.000,b6 00 00 00 00 00 00 00 27 c9 00 fd 01 c4 ff 07 00 2e
0.559,fused,,20,0x07,"IMU0_OK, IMU1_OK, FUSION_READY",0.036500,-0.850900,-0.524000,0.002600,63.185,63.185,-1.939,-176.280,,,,,,,,,,,,,0,,,Not running,,,,,,,,,,,0.998400,0.020100,0.050900,-0.006000,0.007350,0.847354,0.530131,0.029967,64.117,-2.464,177.463,b6 00 00 00 00 00 00 6d 01 c3 de 88 eb 1a 00 07 14 1b
0.560,fused,,0,0x07,"IMU0_OK, IMU1_OK, FUSION_READY",0.998400,0.020100,0.050900,-0.006000,-0.572,-0.572,5.847,2.277,,,,,,,,,,,,,0,,,Not running,,,,,,,,,,,0.998400,0.020100,0.050900,-0.006000,1.000000,0.000000,0.000000,0.000000,0.000,0.000,0.000,b6 00 00 00 00 00 00 00 27 c9 00 fd 01 c4 ff 07 00 2e
0.560,fused,,20,0x07,"IMU0_OK, IMU1_OK, FUSION_READY",0.036500,-0.850900,-0.524000,0.002600,63.185,63.185,-1.939,-176.280,,,,,,,,,,,,,0,,,Not running,,,,,,,,,,,0.998400,0.020100,0.050900,-0.006000,0.007350,0.847354,0.530131,0.029967,64.117,-2.464,177.463,b6 00 00 00 00 00 00 6d 01 c3 de 88 eb 1a 00 07 14 1b
0.561,fused,,0,0x07,"IMU0_OK, IMU1_OK, FUSION_READY",0.998400,0.020100,0.050900,-0.006000,-0.572,-0.572,5.847,2.277,,,,,,,,,,,,,0,,,Not running,,,,,,,,,,,0.998400,0.020100,0.050900,-0.006000,1.000000,0.000000,0.000000,0.000000,0.000,0.000,0.000,b6 00 00 00 00 00 00 00 27 c9 00 fd 01 c4 ff 07 00 2e
0.561,fused,,20,0x07,"IMU0_OK, IMU1_OK, FUSION_READY",0.036500,-0.850900,-0.524000,0.002600,63.185,63.185,-1.939,-176.280,,,,,,,,,,,,,0,,,Not running,,,,,,,,,,,0.998400,0.020100,0.050900,-0.006000,0.007350,0.847354,0.530131,0.029967,64.117,-2.464,177.463,b6 00 00 00 00 00 00 6d 01 c3 de 88 eb 1a 00 07 14 1b
0.562,fused,,0,0x07,"IMU0_OK, IMU1_OK, FUSION_READY",0.998400,0.020100,0.050900,-0.006000,-0.572,-0.572,5.847,2.277,,,,,,,,,,,,,0,,,Not running,,,,,,,,,,,0.998400,0.020100,0.050900,-0.006000,1.000000,0.000000,0.000000,0.000000,0.000,0.000,0.000,b6 00 00 00 00 00 00 00 27 c9 00 fd 01 c4 ff 07 00 2e
0.678,fused,,20,0x07,"IMU0_OK, IMU1_OK, FUSION_READY",0.036500,-0.850900,-0.523900,0.002600,63.170,63.170,-1.938,-176.279,,,,,,,,,,,,,0,,,Not running,,,,,,,,,,,0.998400,0.020100,0.050900,-0.006000,0.007345,0.847399,0.530059,0.029970,64.108,-2.465,177.463,b6 00 00 00 00 00 00 6d 01 c3 de 89 eb 1a 00 07 14 1a
0.680,fused,,0,0x07,"IMU0_OK, IMU1_OK, FUSION_READY",0.998400,0.020100,0.050900,-0.006000,-0.572,-0.572,5.847,2.277,,,,,,,,,,,,,0,,,Not running,,,,,,,,,,,0.998400,0.020100,0.050900,-0.006000,1.000000,0.000000,0.000000,0.000000,0.000,0.000,0.000,b6 00 00 00 00 00 00 00 27 c9 00 fd 01 c4 ff 07 00 2e
0.680,fused,,20,0x07,"IMU0_OK, IMU1_OK, FUSION_READY",0.036500,-0.850900,-0.523900,0.002600,63.170,63.170,-1.938,-176.279,,,,,,,,,,,,,0,,,Not running,,,,,,,,,,,0.998400,0.020100,0.050900,-0.006000,0.007345,0.847399,0.530059,0.029970,64.108,-2.465,177.463,b6 00 00 00 00 00 00 6d 01 c3 de 89 eb 1a 00 07 14 1a
0.681,fused,,0,0x07,"IMU0_OK, IMU1_OK, FUSION_READY",0.998400,0.020100,0.050900,-0.006000,-0.572,-0.572,5.847,2.277,,,,,,,,,,,,,0,,,Not running,,,,,,,,,,,0.998400,0.020100,0.050900,-0.006000,1.000000,0.000000,0.000000,0.000000,0.000,0.000,0.000,b6 00 00 00 00 00 00 00 27 c9 00 fd 01 c4 ff 07 00 2e
0.682,fused,,20,0x07,"IMU0_OK, IMU1_OK, FUSION_READY",0.036500,-0.850900,-0.523900,0.002600,63.170,63.170,-1.938,-176.279,,,,,,,,,,,,,0,,,Not running,,,,,,,,,,,0.998400,0.020100,0.050900,-0.006000,0.007345,0.847399,0.530059,0.029970,64.108,-2.465,177.463,b6 00 00 00 00 00 00 6d 01 c3 de 89 eb 1a 00 07 14 1a
0.682,fused,,0,0x07,"IMU0_OK, IMU1_OK, FUSION_READY",0.998400,0.020100,0.050900,-0.006000,-0.572,-0.572,5.847,2.277,,,,,,,,,,,,,0,,,Not running,,,,,,,,,,,0.998400,0.020100,0.050900,-0.006000,1.000000,0.000000,0.000000,0.000000,0.000,0.000,0.000,b6 00 00 00 00 00 00 00 27 c9 00 fd 01 c4 ff 07 00 2e
0.683,fused,,20,0x07,"IMU0_OK, IMU1_OK, FUSION_READY",0.036500,-0.850900,-0.523900,0.002500,63.170,63.170,-1.948,-176.285,,,,,,,,,,,,,0,,,Not running,,,,,,,,,,,0.998400,0.020100,0.050900,-0.006000,0.007344,0.847394,0.530061,0.030070,64.108,-2.475,177.457,b6 00 00 00 00 00 00 6d 01 c3 de 89 eb 19 00 07 14 19
0.684,fused,,0,0x07,"IMU0_OK, IMU1_OK, FUSION_READY",0.998400,0.020100,0.050900,-0.006000,-0.572,-0.572,5.847,2.277,,,,,,,,,,,,,0,,,Not running,,,,,,,,,,,0.998400,0.020100,0.050900,-0.006000,1.000000,0.000000,0.000000,0.000000,0.000,0.000,0.000,b6 00 00 00 00 00 00 00 27 c9 00 fd 01 c4 ff 07 00 2e
0.684,fused,,20,0x07,"IMU0_OK, IMU1_OK, FUSION_READY",0.036600,-0.850900,-0.523900,0.002500,63.170,63.170,-1.954,-176.275,,,,,,,,,,,,,0,,,Not running,,,,,,,,,,,0.998400,0.020100,0.050900,-0.006000,0.007244,0.847393,0.530064,0.030070,64.109,-2.481,177.467,b6 00 00 00 00 00 00 6e 01 c3 de 89 eb 19 00 07 14 1a
0.685,fused,,0,0x07,"IMU0_OK, IMU1_OK, FUSION_READY",0.998400,0.020100,0.050900,-0.006000,-0.572,-0.572,5.847,2.277,,,,,,,,,,,,,0,,,Not running,,,,,,,,,,,0.998400,0.020100,0.050900,-0.006000,1.000000,0.000000,0.000000,0.000000,0.000,0.000,0.000,b6 00 00 00 00 00 00 00 27 c9 00 fd 01 c4 ff 07 00 2e
0.685,fused,,20,0x07,"IMU0_OK, IMU1_OK, FUSION_READY",0.036600,-0.850900,-0.523900,0.002500,63.170,63.170,-1.954,-176.275,,,,,,,,,,,,,0,,,Not running,,,,,,,,,,,0.998400,0.020100,0.050900,-0.006000,0.007244,0.847393,0.530064,0.030070,64.109,-2.481,177.467,b6 00 00 00 00 00 00 6e 01 c3 de 89 eb 19 00 07 14 1a
0.686,fused,,0,0x07,"IMU0_OK, IMU1_OK, FUSION_READY",0.998400,0.020100,0.051000,-0.006000,-0.572,-0.572,5.859,2.277,,,,,,,,,,,,,0,,,Not running,,,,,,,,,,,0.998400,0.020100,0.051000,-0.006000,1.000000,0.000000,0.000000,0.000000,0.000,0.000,0.000,b6 00 00 00 00 00 00 00 27 c9 00 fe 01 c4 ff 07 00 2d
0.686,fused,,20,0x07,"IMU0_OK, IMU1_OK, FUSION_READY",0.036500,-0.850900,-0.523900,0.002500,63.170,63.170,-1.948,-176.285,,,,,,,,,,,,,0,,,Not running,,,,,,,,,,,0.998400,0.020100,0.051000,-0.006000,0.007397,0.847390,0.530062,0.030155,64.109,-2.480,177.447,b6 00 00 00 00 00 00 6d 01 c3 de 89 eb 19 00 07 14 19
0.686,fused,,0,0x07,"IMU0_OK, IMU1_OK, FUSION_READY",0.998400,0.020100,0.051000,-0.006100,-0.583,-0.583,5.859,2.276,,,,,,,,,,,,,0,,,Not running,,,,,,,,,,,0.998400,0.020100,0.051000,-0.006100,1.000000,0.000000,0.000000,0.000000,0.000,0.000,0.000,b6 00 00 00 00 00 00 00 27 c9 00 fe 01 c3 ff 07 00 2a
0.687,fused,,20,0x07,"IMU0_OK, IMU1_OK, FUSION_READY",0.036400,-0.850900,-0.523900,0.002500,63.170,63.170,-1.942,-176.295,,,,,,,,,,,,,0,,,Not running,,,,,,,,,,,0.998400,0.020100,0.051000,-0.006100,0.007497,0.847338,0.530144,0.030152,64.120,-2.473,177.437,b6 00 00 00 00 00 00 6c 01 c3 de 89 eb 19 00 07 14 18
0.741,fused,,0,0x07,"IMU0_OK, IMU1_OK, FUSION_READY",0.998400,0.020100,0.051000,-0.006100,-0.583,-0.583,5.859,2.276,,,,,,,,,,,,,0,,,Not running,,,,,,,,,,,0.998400,0.020100,0.051000,-0.006100,1.000000,0.000000,0.000000,0.000000,0.000,0.000,0.000,b6 00 00 00 00 00 00 00 27 c9 00 fe 01 c3 ff 07 00 2a
0.743,fused,,20,0x07,"IMU0_OK, IMU1_OK, FUSION_READY",0.036400,-0.850900,-0.523900,0.002500,63.170,63.170,-1.942,-176.295,,,,,,,,,,,,,0,,,Not running,,,,,,,,,,,0.998400,0.020100,0.051000,-0.006100,0.007497,0.847338,0.530144,0.030152,64.120,-2.473,177.437,b6 00 00 00 00 00 00 6c 01 c3 de 89 eb 19 00 07 14 18
0.743,fused,,0,0x07,"IMU0_OK, IMU1_OK, FUSION_READY",0.998400,0.020100,0.051000,-0.006100,-0.583,-0.583,5.859,2.276,,,,,,,,,,,,,0,,,Not running,,,,,,,,,,,0.998400,0.020100,0.051000,-0.006100,1.000000,0.000000,0.000000,0.000000,0.000,0.000,0.000,b6 00 00 00 00 00 00 00 27 c9 00 fe 01 c3 ff 07 00 2a
0.744,fused,,20,0x07,"IMU0_OK, IMU1_OK, FUSION_READY",0.036400,-0.850900,-0.523900,0.002500,63.170,63.170,-1.942,-176.295,,,,,,,,,,,,,0,,,Not running,,,,,,,,,,,0.998400,0.020100,0.051000,-0.006100,0.007497,0.847338,0.530144,0.030152,64.120,-2.473,177.437,b6 00 00 00 00 00 00 6c 01 c3 de 89 eb 19 00 07 14 18
0.744,fused,,0,0x07,"IMU0_OK, IMU1_OK, FUSION_READY",0.998400,0.020100,0.051000,-0.006100,-0.583,-0.583,5.859,2.276,,,,,,,,,,,,,0,,,Not running,,,,,,,,,,,0.998400,0.020100,0.051000,-0.006100,1.000000,0.000000,0.000000,0.000000,0.000,0.000,0.000,b6 00 00 00 00 00 00 00 27 c9 00 fe 01 c3 ff 07 00 2a
0.745,fused,,20,0x07,"IMU0_OK, IMU1_OK, FUSION_READY",0.036500,-0.850900,-0.523900,0.002500,63.170,63.170,-1.948,-176.285,,,,,,,,,,,,,0,,,Not running,,,,,,,,,,,0.998400,0.020100,0.051000,-0.006100,0.007397,0.847337,0.530147,0.030152,64.121,-2.479,177.447,b6 00 00 00 00 00 00 6d 01 c3 de 89 eb 19 00 07 14 19
0.745,fused,,0,0x07,"IMU0_OK, IMU1_OK, FUSION_READY",0.998400,0.020100,0.051000,-0.006100,-0.583,-0.583,5.859,2.276,,,,,,,,,,,,,0,,,Not running,,,,,,,,,,,0.998400,0.020100,0.051000,-0.006100,1.000000,0.000000,0.000000,0.000000,0.000,0.000,0.000,b6 00 00 00 00 00 00 00 27 c9 00 fe 01 c3 ff 07 00 2a
0.746,fused,,20,0x07,"IMU0_OK, IMU1_OK, FUSION_READY",0.036500,-0.851000,-0.523800,0.002500,63.158,63.158,-1.947,-176.285,,,,,,,,,,,,,0,,,Not running,,,,,,,,,,,0.998400,0.020100,0.051000,-0.006100,0.007393,0.847410,0.530030,0.030158,64.105,-2.480,177.447,b6 00 00 00 00 00 00 6d 01 c2 de 8a eb 19 00 07 14 1b
0.746,fused,,0,0x07,"IMU0_OK, IMU1_OK, FUSION_READY",0.998400,0.020100,0.051000,-0.006100,-0.583,-0.583,5.859,2.276,,,,,,,,,,,,,0,,,Not running,,,,,,,,,,,0.998400,0.020100,0.051000,-0.006100,1.000000,0.000000,0.000000,0.000000,0.000,0.000,0.000,b6 00 00 00 00 00 00 00 27 c9 00 fe 01 c3 ff 07 00 2a
0.747,fused,,20,0x07,"IMU0_OK, IMU1_OK, FUSION_READY",0.036600,-0.851000,-0.523800,0.002400,63.157,63.157,-1.963,-176.281,,,,,,,,,,,,,0,,,Not running,,,,,,,,,,,0.998400,0.020100,0.051000,-0.006100,0.007293,0.847404,0.530036,0.030257,64.106,-2.496,177.451,b6 00 00 00 00 00 00 6e 01 c2 de 8a eb 18 00 07 14 19
0.747,fused,,0,0x07,"IMU0_OK, IMU1_OK, FUSION_READY",0.998400,0.020000,0.051000,-0.006100,-0.584,-0.584,5.859,2.265,,,,,,,,,,,,,0,,,Not running,,,,,,,,,,,0.998400,0.020000,0.051000,-0.006100,1.000000,0.000000,-0.000000,0.000000,0.000,-0.000,0.000,b6 00 00 00 00 00 00 00 27 c8 00 fe 01 c3 ff 07 00 2b
0.748,fused,,20,0x07,"IMU0_OK, IMU1_OK, FUSION_READY",0.036600,-0.851000,-0.523800,0.002400,63.157,63.157,-1.963,-176.281,,,,,,,,,,,,,0,,,Not running,,,,,,,,,,,0.998400,0.020000,0.051000,-0.006100,0.007208,0.847402,0.530037,0.030309,64.106,-2.506,177.456,b6 00 00 00 00 00 00 6e 01 c2 de 8a eb 18 00 07 14 19
0.748,fused,,0,0x07,"IMU0_OK, IMU1_OK, FUSION_READY",0.998400,0.020000,0.051000,-0.006100,-0.584,-0.584,5.859,2.265,,,,,,,,,,,,,0,,,Not running,,,,,,,,,,,0.998400,0.020000,0.051000,-0.006100,1.000000,0.000000,-0.000000,0.000000,0.000,-0.000,0.000,b6 00 00 00 00 00 00 00 27 c8 00 fe 01 c3 ff 07 00 2b
0.749,fused,,20,0x07,"IMU0_OK, IMU1_OK, FUSION_READY",0.036500,-0.850900,-0.523900,0.002400,63.170,63.170,-1.958,-176.291,,,,,,,,,,,,,0,,,Not running,,,,,,,,,,,0.998400,0.020000,0.051000,-0.006100,0.007311,0.847330,0.530150,0.030304,64.122,-2.499,177.446,b6 00 00 00 00 00 00 6d 01 c3 de 89 eb 18 00 07 14 18
0.805,fused,,0,0x07,"IMU0_OK, IMU1_OK, FUSION_READY",0.998400,0.020000,0.051000,-0.006100,-0.584,-0.584,5.859,2.265,,,,,,,,,,,,,0,,,Not running,,,,,,,,,,,0.998400,0.020000,0.051000,-0.006100,1.000000,0.000000,-0.000000,0.000000,0.000,-0.000,0.000,b6 00 00 00 00 00 00 00 27 c8 00 fe 01 c3 ff 07 00 2b
0.807,fused,,20,0x07,"IMU0_OK, IMU1_OK, FUSION_READY",0.036500,-0.850900,-0.523900,0.002400,63.170,63.170,-1.958,-176.291,,,,,,,,,,,,,0,,,Not running,,,,,,,,,,,0.998400,0.020000,0.051000,-0.006100,0.007311,0.847330,0.530150,0.030304,64.122,-2.499,177.446,b6 00 00 00 00 00 00 6d 01 c3 de 89 eb 18 00 07 14 18
0.807,fused,,0,0x07,"IMU0_OK, IMU1_OK, FUSION_READY",0.998400,0.020000,0.051000,-0.006100,-0.584,-0.584,5.859,2.265,,,,,,,,,,,,,0,,,Not running,,,,,,,,,,,0.998400,0.020000,0.051000,-0.006100,1.000000,0.000000,-0.000000,0.000000,0.000,-0.000,0.000,b6 00 00 00 00 00 00 00 27 c8 00 fe 01 c3 ff 07 00 2b
0.808,fused,,20,0x07,"IMU0_OK, IMU1_OK, FUSION_READY",0.036400,-0.850900,-0.523900,0.002400,63.170,63.170,-1.952,-176.301,,,,,,,,,,,,,0,,,Not running,,,,,,,,,,,0.998400,0.020000,0.051000,-0.006100,0.007411,0.847331,0.530147,0.030305,64.121,-2.493,177.436,b6 00 00 00 00 00 00 6c 01 c3 de 89 eb 18 00 07 14 19
0.809,fused,,0,0x07,"IMU0_OK, IMU1_OK, FUSION_READY",0.998400,0.020000,0.051000,-0.006100,-0.584,-0.584,5.859,2.265,,,,,,,,,,,,,0,,,Not running,,,,,,,,,,,0.998400,0.020000,0.051000,-0.006100,1.000000,0.000000,-0.000000,0.000000,0.000,-0.000,0.000,b6 00 00 00 00 00 00 00 27 c8 00 fe 01 c3 ff 07 00 2b
0.810,fused,,20,0x07,"IMU0_OK, IMU1_OK, FUSION_READY",0.036400,-0.850900,-0.523900,0.002400,63.170,63.170,-1.952,-176.301,,,,,,,,,,,,,0,,,Not running,,,,,,,,,,,0.998400,0.020000,0.051000,-0.006100,0.007411,0.847331,0.530147,0.030305,64.121,-2.493,177.436,b6 00 00 00 00 00 00 6c 01 c3 de 89 eb 18 00 07 14 19
0.810,fused,,0,0x07,"IMU0_OK, IMU1_OK, FUSION_READY",0.998400,0.020000,0.051000,-0.006100,-0.584,-0.584,5.859,2.265,,,,,,,,,,,,,0,,,Not running,,,,,,,,,,,0.998400,0.020000,0.051000,-0.006100,1.000000,0.000000,-0.000000,0.000000,0.000,-0.000,0.000,b6 00 00 00 00 00 00 00 27 c8 00 fe 01 c3 ff 07 00 2b
0.811,fused,,20,0x07,"IMU0_OK, IMU1_OK, FUSION_READY",0.036500,-0.851000,-0.523800,0.002400,63.157,63.157,-1.957,-176.291,,,,,,,,,,,,,0,,,Not running,,,,,,,,,,,0.998400,0.020000,0.051000,-0.006100,0.007308,0.847403,0.530034,0.030310,64.106,-2.500,177.446,b6 00 00 00 00 00 00 6d 01 c2 de 8a eb 18 00 07 14 1a
0.811,fused,,0,0x07,"IMU0_OK, IMU1_OK, FUSION_READY",0.998400,0.020000,0.051100,-0.006100,-0.584,-0.584,5.871,2.265,,,,,,,,,,,,,0,,,Not running,,,,,,,,,,,0.998400,0.020000,0.051100,-0.006100,1.000000,0.000000,0.000000,0.000000,0.000,0.000,0.000,b6 00 00 00 00 00 00 00 27 c8 00 ff 01 c3 ff 07 00 2a
0.811,fused,,20,0x07,"IMU0_OK, IMU1_OK, FUSION_READY",0.036500,-0.851000,-0.523800,0.002500,63.158,63.158,-1.947,-176.285,,,,,,,,,,,,,0,,,Not running,,,,,,,,,,,0.998400,0.020000,0.051100,-0.006100,0.007361,0.847404,0.530033,0.030295,64.106,-2.496,177.442,b6 00 00 00 00 00 00 6d 01 c2 de 8a eb 19 00 07 14 1b
0.812,fused,,0,0x07,"IMU0_OK, IMU1_OK, FUSION_READY",0.998400,0.020000,0.051100,-0.006100,-0.584,-0.584,5.871,2.265,,,,,,,,,,,,,0,,,Not running,,,,,,,,,,,0.998400,0.020000,0.051100,-0.006100,1.000000,0.000000,0.000000,0.000000,0.000,0.000,0.000,b6 00 00 00 00 00 00 00 27 c8 00 ff 01 c3 ff 07 00 2a
0.812,fused,,20,0x07,"IMU0_OK, IMU1_OK, FUSION_READY",0.036400,-0.850900,-0.523900,0.002500,63.170,63.170,-1.942,-176.295,,,,,,,,,,,,,0,,,Not running,,,,,,,,,,,0.998400,0.020000,0.051100,-0.006100,0.007464,0.847332,0.530146,0.030290,64.121,-2.488,177.432,b6 00 00 00 00 00 00 6c 01 c3 de 89 eb 19 00 07 14 18
0.813,fused,,0,0x07,"IMU0_OK, IMU1_OK, FUSION_READY",0.998400,0.020000,0.051100,-0.006100,-0.584,-0.584,5.871,2.265,,,,,,,,,,,,,0,,,Not running,,,,,,,,,,,0.998400,0.020000,0.051100,-0.006100,1.000000,0.000000,0.000000,0.000000,0.000,0.000,0.000,b6 00 00 00 00 00 00 00 27 c8 00 ff 01 c3 ff 07 00 2a
0.813,fused,,20,0x07,"IMU0_OK, IMU1_OK, FUSION_READY",0.036400,-0.850900,-0.523900,0.002500,63.170,63.170,-1.942,-176.295,,,,,,,,,,,,,0,,,Not running,,,,,,,,,,,0.998400,0.020000,0.051100,-0.006100,0.007464,0.847332,0.530146,0.030290,64.121,-2.488,177.432,b6 00 00 00 00 00 00 6c 01 c3 de 89 eb 19 00 07 14 18
0.881,fused,,0,0x07,"IMU0_OK, IMU1_OK, FUSION_READY",0.998400,0.020000,0.051100,-0.006100,-0.584,-0.584,5.871,2.265,,,,,,,,,,,,,0,,,Not running,,,,,,,,,,,0.998400,0.020000,0.051100,-0.006100,1.000000,0.000000,0.000000,0.000000,0.000,0.000,0.000,b6 00 00 00 00 00 00 00 27 c8 00 ff 01 c3 ff 07 00 2a
0.882,fused,,20,0x07,"IMU0_OK, IMU1_OK, FUSION_READY",0.036300,-0.850900,-0.523900,0.002500,63.170,63.170,-1.936,-176.304,,,,,,,,,,,,,0,,,Not running,,,,,,,,,,,0.998400,0.020000,0.051100,-0.006100,0.007564,0.847333,0.530143,0.030290,64.121,-2.482,177.422,b6 00 00 00 00 00 00 6b 01 c3 de 89 eb 19 00 07 14 1f
0.882,fused,,0,0x07,"IMU0_OK, IMU1_OK, FUSION_READY",0.998400,0.020000,0.051100,-0.006100,-0.584,-0.584,5.871,2.265,,,,,,,,,,,,,0,,,Not running,,,,,,,,,,,0.998400,0.020000,0.051100,-0.006100,1.000000,0.000000,0.000000,0.000000,0.000,0.000,0.000,b6 00 00 00 00 00 00 00 27 c8 00 ff 01 c3 ff 07 00 2a
0.883,fused,,20,0x07,"IMU0_OK, IMU1_OK, FUSION_READY",0.036200,-0.850900,-0.523900,0.002500,63.170,63.170,-1.930,-176.314,,,,,,,,,,,,,0,,,Not running,,,,,,,,,,,0.998400,0.020000,0.051100,-0.006100,0.007664,0.847334,0.530140,0.030291,64.121,-2.476,177.412,b6 00 00 00 00 00 00 6a 01 c3 de 89 eb 19 00 07 14 1e
0.883,fused,,0,0x07,"IMU0_OK, IMU1_OK, FUSION_READY",0.998400,0.020000,0.051100,-0.006200,-0.595,-0.595,5.871,2.264,,,,,,,,,,,,,0,,,Not running,,,,,,,,,,,0.998400,0.020000,0.051100,-0.006200,1.000000,0.000000,-0.000000,0.000000,0.000,-0.000,0.000,b6 00 00 00 00 00 00 00 27 c8 00 ff 01 c2 ff 07 00 2b
0.884,fused,,20,0x07,"IMU0_OK, IMU1_OK, FUSION_READY",0.036100,-0.850900,-0.523900,0.002400,63.170,63.170,-1.934,-176.330,,,,,,,,,,,,,0,,,Not running,,,,,,,,,,,0.998400,0.020000,0.051100,-0.006200,0.007763,0.847278,0.530223,0.030388,64.133,-2.479,177.397,b6 00 00 00 00 00 00 69 01 c3 de 89 eb 18 00 07 14 1c
0.884,fused,,0,0x07,"IMU0_OK, IMU1_OK, FUSION_READY",0.998400,0.020000,0.051100,-0.006200,-0.595,-0.595,5.871,2.264,,,,,,,,,,,,,0,,,Not running,,,,,,,,,,,0.998400,0.020000,0.051100,-0.006200,1.000000,0.000000,-0.000000,0.000000,0.000,-0.000,0.000,b6 00 00 00 00 00 00 00 27 c8 00 ff 01 c2 ff 07 00 2b
0.884,fused,,20,0x07,"IMU0_OK, IMU1_OK, FUSION_READY",0.036000,-0.850900,-0.523900,0.002300,63.169,63.169,-1.937,-176.346,,,,,,,,,,,,,0,,,Not running,,,,,,,,,,,0.998400,0.020000,0.051100,-0.006200,0.007863,0.847274,0.530222,0.030489,64.133,-2.483,177.381,b6 00 00 00 00 00 00 68 01 c3 de 89 eb 17 00 07 14 12
0.885,fused,,0,0x07,"IMU0_OK, IMU1_OK, FUSION_READY",0.998400,0.020000,0.051100,-0.006200,-0.595,-0.595,5.871,2.264,,,,,,,,,,,,,0,,,Not running,,,,,,,,,,,0.998400,0.020000,0.051100,-0.006200,1.000000,0.000000,-0.000000,0.000000,0.000,-0.000,0.000,b6 00 00 00 00 00 00 00 27 c8 00 ff 01 c2 ff 07 00 2b
