time_s,protocol,sequence,node_id,status_hex,status_bits,quat_w,quat_x,quat_y,quat_z,yaw_deg,yaw_unwrapped_deg,pitch_deg,roll_deg,imu0_accel_x_mg,imu0_accel_y_mg,imu0_accel_z_mg,imu0_gyro_x_dps,imu0_gyro_y_dps,imu0_gyro_z_dps,imu1_accel_x_mg,imu1_accel_y_mg,imu1_accel_z_mg,imu1_gyro_x_dps,imu1_gyro_y_dps,imu1_gyro_z_dps,guided_test_active,guided_test_step,guided_test_step_label,guided_test_step_status,guided_test_elapsed_s,guided_test_target_node,guided_test_target_label,guided_test_error_deg,guided_test_reference_node,guided_test_reference_label,palm_ref_quat_w,palm_ref_quat_x,palm_ref_quat_y,palm_ref_quat_z,palm_live_quat_w,palm_live_quat_x,palm_live_quat_y,palm_live_quat_z,relative_to_palm_quat_w,relative_to_palm_quat_x,relative_to_palm_quat_y,relative_to_palm_quat_z,relative_to_palm_yaw_deg,relative_to_palm_pitch_deg,relative_to_palm_roll_deg,raw_frame_hex
0.000,fused,,0,0x07,"IMU0_OK, IMU1_OK, FUSION_READY",0.999800,0.009800,0.010200,0.000900,0.115,0.115,1.168,1.124,,,,,,,,,,,,,0,,,Not running,,,,,,,,,,,0.999800,0.009800,0.010200,0.000900,1.000000,0.000000,0.000000,0.000000,0.000,0.000,0.000,b6 00 00 00 00 00 00 0e 27 62 00 66 00 09 00 07 00 23
0.001,fused,,50,0x07,"IMU0_OK, IMU1_OK, FUSION_READY",0.079800,-0.006900,0.020300,0.996500,170.861,170.861,0.974,2.256,,,,,,,,,,,,,0,,,Not running,,,,,,,,,,,0.999800,0.009800,0.010200,0.000900,0.080835,-0.017830,0.029259,0.996138,170.785,2.307,3.179,b6 00 00 00 00 00 00 1e 03 bb ff cb 00 ed 26 07 32 6c
0.001,fused,,0,0x07,"IMU0_OK, IMU1_OK, FUSION_READY",0.999800,0.009800,0.010200,0.000900,0.115,0.115,1.168,1.124,,,,,,,,,,,,,0,,,Not running,,,,,,,,,,,0.999800,0.009800,0.010200,0.000900,1.000000,0.000000,0.000000,0.000000,0.000,0.000,0.000,b6 00 00 00 00 00 00 0e 27 62 00 66 00 09 00 07 00 23
0.002,fused,,50,0x07,"IMU0_OK, IMU1_OK, FUSION_READY",0.079800,-0.006900,0.020300,0.996500,170.861,170.861,0.974,2.256,,,,,,,,,,,,,0,,,Not running,,,,,,,,,,,0.999800,0.009800,0.010200,0.000900,0.080835,-0.017830,0.029259,0.996138,170.785,2.307,3.179,b6 00 00 00 00 00 00 1e 03 bb ff cb 00 ed 26 07 32 6c
0.002,fused,,0,0x07,"IMU0_OK, IMU1_OK, FUSION_READY",0.999800,0.009800,0.010200,0.000900,0.115,0.115,1.168,1.124,,,,,,,,,,,,,0,,,Not running,,,,,,,,,,,0.999800,0.009800,0.010200,0.000900,1.000000,0.000000,0.000000,0.000000,0.000,0.000,0.000,b6 00 00 00 00 00 00 0e 27 62 00 66 00 09 00 07 00 23
0.003,fused,,50,0x07,"IMU0_OK, IMU1_OK, FUSION_READY",0.079800,-0.006900,0.020300,0.996500,170.861,170.861,0.974,2.256,,,,,,,,,,,,,0,,,Not running,,,,,,,,,,,0.999800,0.009800,0.010200,0.000900,0.080835,-0.017830,0.029259,0.996138,170.785,2.307,3.179,b6 00 00 00 00 00 00 1e 03 bb ff cb 00 ed 26 07 32 6c
0.004,fused,,0,0x07,"IMU0_OK, IMU1_OK, FUSION_READY",0.999800,0.009800,0.010200,0.000900,0.115,0.115,1.168,1.124,,,,,,,,,,,,,0,,,Not running,,,,,,,,,,,0.999800,0.009800,0.010200,0.000900,1.000000,0.000000,0.000000,0.000000,0.000,0.000,0.000,b6 00 00 00 00 00 00 0e 27 62 00 66 00 09 00 07 00 23
0.004,fused,,50,0x07,"IMU0_OK, IMU1_OK, FUSION_READY",0.079800,-0.006900,0.020300,0.996500,170.861,170.861,0.974,2.256,,,,,,,,,,,,,0,,,Not running,,,,,,,,,,,0.999800,0.009800,0.010200,0.000900,0.080835,-0.017830,0.029259,0.996138,170.785,2.307,3.179,b6 00 00 00 00 00 00 1e 03 bb ff cb 00 ed 26 07 32 6c
0.006,fused,,0,0x07,"IMU0_OK, IMU1_OK, FUSION_READY",0.999800,0.009800,0.010200,0.000900,0.115,0.115,1.168,1.124,,,,,,,,,,,,,0,,,Not running,,,,,,,,,,,0.999800,0.009800,0.010200,0.000900,1.000000,0.000000,0.000000,0.000000,0.000,0.000,0.000,b6 00 00 00 00 00 00 0e 27 62 00 66 00 09 00 07 00 23
0.007,fused,,50,0x07,"IMU0_OK, IMU1_OK, FUSION_READY",0.079800,-0.006900,0.020300,0.996500,170.861,170.861,0.974,2.256,,,,,,,,,,,,,0,,,Not running,,,,,,,,,,,0.999800,0.009800,0.010200,0.000900,0.080835,-0.017830,0.029259,0.996138,170.785,2.307,3.179,b6 00 00 00 00 00 00 1e 03 bb ff cb 00 ed 26 07 32 6c
0.008,fused,,0,0x07,"IMU0_OK, IMU1_OK, FUSION_READY",0.999800,0.009800,0.010200,0.000900,0.115,0.115,1.168,1.124,,,,,,,,,,,,,0,,,Not running,,,,,,,,,,,0.999800,0.009800,0.010200,0.000900,1.000000,0.000000,0.000000,0.000000,0.000,0.000,0.000,b6 00 00 00 00 00 00 0e 27 62 00 66 00 09 00 07 00 23
0.009,fused,,50,0x07,"IMU0_OK, IMU1_OK, FUSION_READY",0.079800,-0.007000,0.020300,0.996500,170.861,170.861,0.985,2.255,,,,,,,,,,,,,0,,,Not running,,,,,,,,,,,0.999800,0.009800,0.010200,0.000900,0.080834,-0.017930,0.029259,0.996137,170.786,2.318,3.178,b6 00 00 00 00 00 00 1e 03 ba ff cb 00 ed 26 07 32 6d
0.009,fused,,0,0x07,"IMU0_OK, IMU1_OK, FUSION_READY",0.999800,0.009800,0.010200,0.000900,0.115,0.115,1.168,1.124,,,,,,,,,,,,,0,,,Not running,,,,,,,,,,,0.999800,0.009800,0.010200,0.000900,1.000000,0.000000,0.000000,0.000000,0.000,0.000,0.000,b6 00 00 00 00 00 00 0e 27 62 00 66 00 09 00 07 00 23
0.010,fused,,50,0x07,"IMU0_OK, IMU1_OK, FUSION_READY",0.079800,-0.007000,0.020300,0.996500,170.861,170.861,0.985,2.255,,,,,,,,,,,,,0,,,Not running,,,,,,,,,,,0.999800,0.009800,0.010200,0.000900,0.080834,-0.017930,0.029259,0.996137,170.786,2.318,3.178,b6 00 00 00 00 00 00 1e 03 ba ff cb 00 ed 26 07 32 6d
0.068,fused,,0,0x07,"IMU0_OK, IMU1_OK, FUSION_READY",0.999800,0.009800,0.010200,0.000900,0.115,0.115,1.168,1.124,,,,,,,,,,,,,0,,,Not running,,,,,,,,,,,0.999800,0.009800,0.010200,0.000900,1.000000,0.000000,0.000000,0.000000,0.000,0.000,0.000,b6 00 00 00 00 00 00 0e 27 62 00 66 00 09 00 07 00 23
0.069,fused,,50,0x07,"IMU0_OK, IMU1_OK, FUSION_READY",0.079800,-0.007000,0.020300,0.996500,170.861,170.861,0.985,2.255,,,,,,,,,,,,,0,,,Not running,,,,,,,,,,,0.999800,0.009800,0.010200,0.000900,0.080834,-0.017930,0.029259,0.996137,170.786,2.318,3.178,b6 00 00 00 00 00 00 1e 03 ba ff cb 00 ed 26 07 32 6d
0.070,fused,,0,0x07,"IMU0_OK, IMU1_OK, FUSION_READY",0.999800,0.009800,0.010200,0.000900,0.115,0.115,1.168,1.124,,,,,,,,,,,,,0,,,Not running,,,,,,,,,,,0.999800,0.009800,0.010200,0.000900,1.000000,0.000000,0.000000,0.000000,0.000,0.000,0.000,b6 00 00 00 00 00 00 0e 27 62 00 66 00 09 00 07 00 23
0.071,fused,,50,0x07,"IMU0_OK, IMU1_OK, FUSION_READY",0.079800,-0.006900,0.020300,0.996500,170.861,170.861,0.974,2.256,,,,,,,,,,,,,0,,,Not running,,,,,,,,,,,0.999800,0.009800,0.010200,0.000900,0.080835,-0.017830,0.029259,0.996138,170.785,2.307,3.179,b6 00 00 00 00 00 00 1e 03 bb ff cb 00 ed 26 07 32 6c
0.071,fused,,0,0x07,"IMU0_OK, IMU1_OK, FUSION_READY",0.999800,0.009800,0.010200,0.000900,0.115,0.115,1.168,1.124,,,,,,,,,,,,,0,,,Not running,,,,,,,,,,,0.999800,0.009800,0.010200,0.000900,1.000000,0.000000,0.000000,0.000000,0.000,0.000,0.000,b6 00 00 00 00 00 00 0e 27 62 00 66 00 09 00 07 00 23
0.072,fused,,50,0x07,"IMU0_OK, IMU1_OK, FUSION_READY",0.079800,-0.006900,0.020300,0.996500,170.861,170.861,0.974,2.256,,,,,,,,,,,,,0,,,Not running,,,,,,,,,,,0.999800,0.009800,0.010200,0.000900,0.080835,-0.017830,0.029259,0.996138,170.785,2.307,3.179,b6 00 00 00 00 00 00 1e 03 bb ff cb 00 ed 26 07 32 6c
0.073,fused,,0,0x07,"IMU0_OK, IMU1_OK, FUSION_READY",0.999800,0.009900,0.010200,0.000900,0.115,0.115,1.168,1.136,,,,,,,,,,,,,0,,,Not running,,,,,,,,,,,0.999800,0.009900,0.010200,0.000900,1.000000,0.000000,0.000000,0.000000,0.000,0.000,0.000,b6 00 00 00 00 00 00 0e 27 63 00 66 00 09 00 07 00 22
0.074,fused,,50,0x07,"IMU0_OK, IMU1_OK, FUSION_READY",0.079800,-0.006900,0.020300,0.996500,170.861,170.861,0.974,2.256,,,,,,,,,,,,,0,,,Not running,,,,,,,,,,,0.999800,0.009900,0.010200,0.000900,0.080834,-0.017838,0.029359,0.996135,170.786,2.309,3.190,b6 00 00 00 00 00 00 1e 03 bb ff cb 00 ed 26 07 32 6c
0.074,fused,,0,0x07,"IMU0_OK, IMU1_OK, FUSION_READY",0.999800,0.009900,0.010200,0.000900,0.115,0.115,1.168,1.136,,,,,,,,,,,,,0,,,Not running,,,,,,,,,,,0.999800,0.009900,0.010200,0.000900,1.000000,0.000000,0.000000,0.000000,0.000,0.000,0.000,b6 00 00 00 00 00 00 0e 27 63 00 66 00 09 00 07 00 22
0.075,fused,,50,0x07,"IMU0_OK, IMU1_OK, FUSION_READY",0.079800,-0.006900,0.020300,0.996500,170.861,170.861,0.974,2.256,,,,,,,,,,,,,0,,,Not running,,,,,,,,,,,0.999800,0.009900,0.010200,0.000900,0.080834,-0.017838,0.029359,0.996135,170.786,2.309,3.190,b6 00 00 00 00 00 00 1e 03 bb ff cb 00 ed 26 07 32 6c
0.075,fused,,0,0x07,"IMU0_OK, IMU1_OK, FUSION_READY",0.999800,0.009900,0.010300,0.000900,0.115,0.115,1.179,1.136,,,,,,,,,,,,,0,,,Not running,,,,,,,,,,,0.999800,0.009900,0.010300,0.000900,1.000000,0.000000,0.000000,0.000000,0.000,0.000,0.000,b6 00 00 00 00 00 00 0e 27 63 00 67 00 09 00 07 00 23
0.076,fused,,50,0x07,"IMU0_OK, IMU1_OK, FUSION_READY",0.079800,-0.006900,0.020300,0.996500,170.861,170.861,0.974,2.256,,,,,,,,,,,,,0,,,Not running,,,,,,,,,,,0.999800,0.009900,0.010300,0.000900,0.080836,-0.017938,0.029351,0.996134,170.786,2.320,3.188,b6 00 00 00 00 00 00 1e 03 bb ff cb 00 ed 26 07 32 6c
0.076,fused,,0,0x07,"IMU0_OK, IMU1_OK, FUSION_READY",0.999800,0.009900,0.010300,0.000900,0.115,0.115,1.179,1.136,,,,,,,,,,,,,0,,,Not running,,,,,,,,,,,0.999800,0.009900,0.010300,0.000900,1.000000,0.000000,0.000000,0.000000,0.000,0.000,0.000,b6 00 00 00 00 00 00 0e 27 63 00 67 00 09 00 07 00 23
0.077,fused,,50,0x07,"IMU0_OK, IMU1_OK, FUSION_READY",0.079800,-0.006900,0.020400,0.996500,170.861,170.861,0.975,2.267,,,,,,,,,,,,,0,,,Not running,,,,,,,,,,,0.999800,0.009900,0.010300,0.000900,0.080837,-0.017937,0.029451,0.996131,170.786,2.321,3.200,b6 00 00 00 00 00 00 1e 03 bb ff cc 00 ed 26 07 32 6b
0.139,fused,,0,0x07,"IMU0_OK, IMU1_OK, FUSION_READY",0.999800,0.009900,0.010300,0.000900,0.115,0.115,1.179,1.136,,,,,,,,,,,,,0,,,Not running,,,,,,,,,,,0.999800,0.009900,0.010300,0.000900,1.000000,0.000000,0.000000,0.000000,0.000,0.000,0.000,b6 00 00 00 00 00 00 0e 27 63 00 67 00 09 00 07 00 23
0.141,fused,,50,0x07,"IMU0_OK, IMU1_OK, FUSION_READY",0.079800,-0.006900,0.020400,0.996500,170.861,170.861,0.975,2.267,,,,,,,,,,,,,0,,,Not running,,,,,,,,,,,0.999800,0.009900,0.010300,0.000900,0.080837,-0.017937,0.029451,0.996131,170.786,2.321,3.200,b6 00 00 00 00 00 00 1e 03 bb ff cc 00 ed 26 07 32 6b
0.141,fused,,0,0x07,"IMU0_OK, IMU1_OK, FUSION_READY",0.999800,0.009900,0.010300,0.000900,0.115,0.115,1.179,1.136,,,,,,,,,,,,,0,,,Not running,,,,,,,,,,,0.999800,0.009900,0.010300,0.000900,1.000000,0.000000,0.000000,0.000000,0.000,0.000,0.000,b6 00 00 00 00 00 00 0e 27 63 00 67 00 09 00 07 00 23
0.142,fused,,50,0x07,"IMU0_OK, IMU1_OK, FUSION_READY",0.079800,-0.006800,0.020400,0.996500,170.861,170.861,0.963,2.268,,,,,,,,,,,,,0,,,Not running,,,,,,,,,,,0.999800,0.009900,0.010300,0.000900,0.080838,-0.017837,0.029451,0.996132,170.786,2.310,3.201,b6 00 00 00 00 00 00 1e 03 bc ff cc 00 ed 26 07 32 6c
0.142,fused,,0,0x07,"IMU0_OK, IMU1_OK, FUSION_READY",0.999800,0.009900,0.010300,0.000900,0.115,0.115,1.179,1.136,,,,,,,,,,,,,0,,,Not running,,,,,,,,,,,0.999800,0.009900,0.010300,0.000900,1.000000,0.000000,0.000000,0.000000,0.000,0.000,0.000,b6 00 00 00 00 00 00 0e 27 63 00 67 00 09 00 07 00 23
0.143,fused,,50,0x07,"IMU0_OK, IMU1_OK, FUSION_READY",0.079900,-0.006900,0.020400,0.996500,170.850,170.850,0.975,2.267,,,,,,,,,,,,,0,,,Not running,,,,,,,,,,,0.999800,0.009900,0.010300,0.000900,0.080936,-0.017938,0.029449,0.996123,170.775,2.321,3.199,b6 00 00 00 00 00 00 1f 03 bb ff cc 00 ed 26 07 32 6a
0.143,fused,,0,0x07,"IMU0_OK, IMU1_OK, FUSION_READY",0.999800,0.009900,0.010300,0.000900,0.115,0.115,1.179,1.136,,,,,,,,,,,,,0,,,Not running,,,,,,,,,,,0.999800,0.009900,0.010300,0.000900,1.000000,0.000000,0.000000,0.000000,0.000,0.000,0.000,b6 00 00 00 00 00 00 0e 27 63 00 67 00 09 00 07 00 23
0.143,fused,,50,0x07,"IMU0_OK, IMU1_OK, FUSION_READY",0.079900,-0.006900,0.020500,0.996500,170.850,170.850,0.976,2.279,,,,,,,,,,,,,0,,,Not running,,,,,,,,,,,0.999800,0.009900,0.010300,0.000900,0.080937,-0.017938,0.029549,0.996120,170.775,2.322,3.211,b6 00 00 00 00 00 00 1f 03 bb ff cd 00 ed 26 07 32 6b
0.144,fused,,0,0x07,"IMU0_OK, IMU1_OK, FUSION_READY",0.999800,0.009900,0.010200,0.000900,0.115,0.115,1.168,1.136,,,,,,,,,,,,,0,,,Not running,,,,,,,,,,,0.999800,0.009900,0.010200,0.000900,1.000000,0.000000,0.000000,0.000000,0.000,0.000,0.000,b6 00 00 00 00 00 00 0e 27 63 00 66 00 09 00 07 00 22
0.144,fused,,50,0x07,"IMU0_OK, IMU1_OK, FUSION_READY",0.079900,-0.006900,0.020500,0.996500,170.850,170.850,0.976,2.279,,,,,,,,,,,,,0,,,Not running,,,,,,,,,,,0.999800,0.009900,0.010200,0.000900,0.080935,-0.017838,0.029557,0.996121,170.775,2.311,3.213,b6 00 00 00 00 00 00 1f 03 bb ff cd 00 ed 26 07 32 6b
0.145,fused,,0,0x07,"IMU0_OK, IMU1_OK, FUSION_READY",0.999800,0.009800,0.010200,0.000900,0.115,0.115,1.168,1.124,,,,,,,,,,,,,0,,,Not running,,,,,,,,,,,0.999800,0.009800,0.010200,0.000900,1.000000,0.000000,0.000000,0.000000,0.000,0.000,0.000,b6 00 00 00 00 00 00 0e 27 62 00 66 00 09 00 07 00 23
0.145,fused,,50,0x07,"IMU0_OK, IMU1_OK, FUSION_READY",0.079900,-0.006900,0.020400,0.996500,170.850,170.850,0.975,2.267,,,,,,,,,,,,,0,,,Not running,,,,,,,,,,,0.999800,0.009800,0.010200,0.000900,0.080935,-0.017831,0.029358,0.996127,170.774,2.308,3.190,b6 00 00 00 00 00 00 1f 03 bb ff cc 00 ed 26 07 32 6a
0.146,fused,,0,0x07,"IMU0_OK, IMU1_OK, FUSION_READY",0.999800,0.009800,0.010200,0.000900,0.115,0.115,1.168,1.124,,,,,,,,,,,,,0,,,Not running,,,,,,,,,,,0.999800,0.009800,0.010200,0.000900,1.000000,0.000000,0.000000,0.000000,0.000,0.000,0.000,b6 00 00 00 00 00 00 0e 27 62 00 66 00 09 00 07 00 23
0.146,fused,,50,0x07,"IMU0_OK, IMU1_OK, FUSION_READY",0.079900,-0.006900,0.020400,0.996500,170.850,170.850,0.975,2.267,,,,,,,,,,,,,0,,,Not running,,,,,,,,,,,0.999800,0.009800,0.010200,0.000900,0.080935,-0.017831,0.029358,0.996127,170.774,2.308,3.190,b6 00 00 00 00 00 00 1f 03 bb ff cc 00 ed 26 07 32 6a
0.147,fused,,0,0x07,"IMU0_OK, IMU1_OK, FUSION_READY",0.999800,0.009900,0.010200,0.000900,0.115,0.115,1.168,1.136,,,,,,,,,,,,,0,,,Not running,,,,,,,,,,,0.999800,0.009900,0.010200,0.000900,1.000000,0.000000,0.000000,0.000000,0.000,0.000,0.000,b6 00 00 00 00 00 00 0e 27 63 00 66 00 09 00 07 00 22
0.207,fused,,50,0x07,"IMU0_OK, IMU1_OK, FUSION_READY",0.079900,-0.007000,0.020400,0.996500,170.850,170.850,0.986,2.266,,,,,,,,,,,,,0,,,Not running,,,,,,,,,,,0.999800,0.009900,0.010200,0.000900,0.080933,-0.017939,0.029458,0.996123,170.775,2.321,3.200,b6 00 00 00 00 00 00 1f 03 ba ff cc 00 ed 26 07 32 6b
0.208,fused,,0,0x07,"IMU0_OK, IMU1_OK, FUSION_READY",0.999800,0.009900,0.010300,0.000900,0.115,0.115,1.179,1.136,,,,,,,,,,,,,0,,,Not running,,,,,,,,,,,0.999800,0.009900,0.010300,0.000900,1.000000,0.000000,0.000000,0.000000,0.000,0.000,0.000,b6 00 00 00 00 00 00 0e 27 63 00 67 00 09 00 07 00 23
0.209,fused,,50,0x07,"IMU0_OK, IMU1_OK, FUSION_READY",0.079900,-0.007000,0.020500,0.996500,170.850,170.850,0.987,2.278,,,,,,,,,,,,,0,,,Not running,,,,,,,,,,,0.999800,0.009900,0.010300,0.000900,0.080936,-0.018038,0.029549,0.996118,170.775,2.334,3.210,b6 00 00 00 00 00 00 1f 03 ba ff cd 00 ed 26 07 32 6a
0.209,fused,,0,0x07,"IMU0_OK, IMU1_OK, FUSION_READY",0.999800,0.009800,0.010300,0.000900,0.115,0.115,1.179,1.124,,,,,,,,,,,,,0,,,Not running,,,,,,,,,,,0.999800,0.009800,0.010300,0.000900,1.000000,0.000000,-0.000000,0.000000,0.000,-0.000,0.000,b6 00 00 00 00 00 00 0e 27 62 00 67 00 09 00 07 00 22
0.210,fused,,50,0x07,"IMU0_OK, IMU1_OK, FUSION_READY",0.079900,-0.007000,0.020500,0.996500,170.850,170.850,0.987,2.278,,,,,,,,,,,,,0,,,Not running,,,,,,,,,,,0.999800,0.009800,0.010300,0.000900,0.080937,-0.018030,0.029450,0.996121,170.775,2.332,3.199,b6 00 00 00 00 00 00 1f 03 ba ff cd 00 ed 26 07 32 6a
0.210,fused,,0,0x07,"IMU0_OK, IMU1_OK, FUSION_READY",0.999800,0.009800,0.010200,0.000900,0.115,0.115,1.168,1.124,,,,,,,,,,,,,0,,,Not running,,,,,,,,,,,0.999800,0.009800,0.010200,0.000900,1.000000,0.000000,0.000000,0.000000,0.000,0.000,0.000,b6 00 00 00 00 00 00 0e 27 62 00 66 00 09 00 07 00 23
0.210,fused,,50,0x07,"IMU0_OK, IMU1_OK, FUSION_READY",0.079900,-0.007000,0.020400,0.996500,170.850,170.850,0.986,2.266,,,,,,,,,,,,,0,,,Not running,,,,,,,,,,,0.999800,0.009800,0.010200,0.000900,0.080934,-0.017931,0.029358,0.996126,170.775,2.320,3.189,b6 00 00 00 00 00 00 1f 03 ba ff cc 00 ed 26 07 32 6b
0.211,fused,,0,0x07,"IMU0_OK, IMU1_OK, FUSION_READY",0.999800,0.009800,0.010200,0.000900,0.115,0.115,1.168,1.124,,,,,,,,,,,,,0,,,Not running,,,,,,,,,,,0.999800,0.009800,0.010200,0.000900,1.000000,0.000000,0.000000,0.000000,0.000,0.000,0.000,b6 00 00 00 00 00 00 0e 27 62 00 66 00 09 00 07 00 23
0.211,fused,,50,0x07,"IMU0_OK, IMU1_OK, FUSION_READY",0.079900,-0.007000,0.020400,0.996500,170.850,170.850,0.986,2.266,,,,,,,,,,,,,0,,,Not running,,,,,,,,,,,0.999800,0.009800,0.010200,0.000900,0.080934,-0.017931,0.029358,0.996126,170.775,2.320,3.189,b6 00 00 00 00 00 00 1f 03 ba ff cc 00 ed 26 07 32 6b
0.212,fused,,0,0x07,"IMU0_OK, IMU1_OK, FUSION_READY",0.999800,0.009800,0.010200,0.000900,0.115,0.115,1.168,1.124,,,,,,,,,,,,,0,,,Not running,,,,,,,,,,,0.999800,0.009800,0.010200,0.000900,1.000000,0.000000,0.000000,0.000000,0.000,0.000,0.000,b6 00 00 00 00 00 00 0e 27 62 00 66 00 09 00 07 00 23
0.212,fused,,50,0x07,"IMU0_OK, IMU1_OK, FUSION_READY",0.079900,-0.007000,0.020400,0.996500,170.850,170.850,0.986,2.266,,,,,,,,,,,,,0,,,Not running,,,,,,,,,,,0.999800,0.009800,0.010200,0.000900,0.080934,-0.017931,0.029358,0.996126,170.775,2.320,3.189,b6 00 00 00 00 00 00 1f 03 ba ff cc 00 ed 26 07 32 6b
0.213,fused,,0,0x07,"IMU0_OK, IMU1_OK, FUSION_READY",0.999800,0.009800,0.010200,0.000900,0.115,0.115,1.168,1.124,,,,,,,,,,,,,0,,,Not running,,,,,,,,,,,0.999800,0.009800,0.010200,0.000900,1.000000,0.000000,0.000000,0.000000,0.000,0.000,0.000,b6 00 00 00 00 00 00 0e 27 62 00 66 00 09 00 07 00 23
0.213,fused,,50,0x07,"IMU0_OK, IMU1_OK, FUSION_READY",0.080000,-0.006900,0.020400,0.996500,170.838,170.838,0.975,2.267,,,,,,,,,,,,,0,,,Not running,,,,,,,,,,,0.999800,0.009800,0.010200,0.000900,0.081034,-0.017831,0.029357,0.996119,170.763,2.309,3.190,b6 00 00 00 00 00 00 20 03 bb ff cc 00 ed 26 07 32 55
0.214,fused,,0,0x07,"IMU0_OK, IMU1_OK, FUSION_READY",0.999800,0.009800,0.010200,0.000900,0.115,0.115,1.168,1.124,,,,,,,,,,,,,0,,,Not running,,,,,,,,,,,0.999800,0.009800,0.010200,0.000900,1.000000,0.000000,0.000000,0.000000,0.000,0.000,0.000,b6 00 00 00 00 00 00 0e 27 62 00 66 00 09 00 07 00 23
0.270,fused,,50,0x07,"IMU0_OK, IMU1_OK, FUSION_READY",0.080000,-0.006900,0.020400,0.996500,170.838,170.838,0.975,2.267,,,,,,,,,,,,,0,,,Not running,,,,,,,,,,,0.999800,0.009800,0.010200,0.000900,0.081034,-0.017831,0.029357,0.996119,170.763,2.309,3.190,b6 00 00 00 00 00 00 20 03 bb ff cc 00 ed 26 07 32 55
0.271,fused,,0,0x07,"IMU0_OK, IMU1_OK, FUSION_READY",0.999800,0.009800,0.010200,0.000900,0.115,0.115,1.168,1.124,,,,,,,,,,,,,0,,,Not running,,,,,,,,,,,0.999800,0.009800,0.010200,0.000900,1.000000,0.000000,0.000000,0.000000,0.000,0.000,0.000,b6 00 00 00 00 00 00 0e 27 62 00 66 00 09 00 07 00 23
0.271,fused,,50,0x07,"IMU0_OK, IMU1_OK, FUSION_READY",0.080000,-0.007000,0.020500,0.996500,170.839,170.839,0.987,2.278,,,,,,,,,,,,,0,,,Not running,,,,,,,,,,,0.999800,0.009800,0.010200,0.000900,0.081034,-0.017931,0.029457,0.996115,170.763,2.321,3.200,b6 00 00 00 00 00 00 20 03 ba ff cd 00 ed 26 07 32 55
0.272,fused,,0,0x07,"IMU0_OK, IMU1_OK, FUSION_READY",0.999800,0.009800,0.010200,0.000900,0.115,0.115,1.168,1.124,,,,,,,,,,,,,0,,,Not running,,,,,,,,,,,0.999800,0.009800,0.010200,0.000900,1.000000,0.000000,0.000000,0.000000,0.000,0.000,0.000,b6 00 00 00 00 00 00 0e 27 62 00 66 00 09 00 07 00 23
0.272,fused,,50,0x07,"IMU0_OK, IMU1_OK, FUSION_READY",0.080000,-0.007000,0.020500,0.996500,170.839,170.839,0.987,2.278,,,,,,,,,,,,,0,,,Not running,,,,,,,,,,,0.999800,0.009800,0.010200,0.000900,0.081034,-0.017931,0.029457,0.996115,170.763,2.321,3.200,b6 00 00 00 00 00 00 20 03 ba ff cd 00 ed 26 07 32 55
0.273,fused,,0,0x07,"IMU0_OK, IMU1_OK, FUSION_READY",0.999800,0.009800,0.010200,0.000900,0.115,0.115,1.168,1.124,,,,,,,,,,,,,0,,,Not running,,,,,,,,,,,0.999800,0.009800,0.010200,0.000900,1.000000,0.000000,0.000000,0.000000,0.000,0.000,0.000,b6 00 00 00 00 00 00 0e 27 62 00 66 00 09 00 07 00 23
0.274,fused,,50,0x07,"IMU0_OK, IMU1_OK, FUSION_READY",0.080000,-0.007000,0.020400,0.996500,170.839,170.839,0.986,2.266,,,,,,,,,,,,,0,,,Not running,,,,,,,,,,,0.999800,0.009800,0.010200,0.000900,0.081033,-0.017931,0.029357,0.996118,170.763,2.320,3.189,b6 00 00 00 00 00 00 20 03 ba ff cc 00 ed 26 07 32 54
0.274,fused,,0,0x07,"IMU0_OK, IMU1_OK, FUSION_READY",0.999800,0.009800,0.010200,0.000900,0.115,0.115,1.168,1.124,,,,,,,,,,,,,0,,,Not running,,,,,,,,,,,0.999800,0.009800,0.010200,0.000900,1.000000,0.000000,0.000000,0.000000,0.000,0.000,0.000,b6 00 00 00 00 00 00 0e 27 62 00 66 00 09 00 07 00 23
0.275,fused,,50,0x07,"IMU0_OK, IMU1_OK, FUSION_READY",0.080000,-0.007000,0.020400,0.996500,170.839,170.839,0.986,2.266,,,,,,,,,,,,,0,,,Not running,,,,,,,,,,,0.999800,0.009800,0.010200,0.000900,0.081033,-0.017931,0.029357,0.996118,170.763,2.320,3.189,b6 00 00 00 00 00 00 20 03 ba ff cc 00 ed 26 07 32 54
0.275,fused,,0,0x07,"IMU0_OK, IMU1_OK, FUSION_READY",0.999800,0.009800,0.010100,0.000900,0.114,0.114,1.156,1.124,,,,,,,,,,,,,0,,,Not running,,,,,,,,,,,0.999800,0.009800,0.010100,0.000900,1.000000,0.000000,-0.000000,0.000000,0.000,-0.000,0.000,b6 00 00 00 00 00 00 0e 27 62 00 65 00 09 00 07 00 20
0.276,fused,,50,0x07,"IMU0_OK, IMU1_OK, FUSION_READY",0.080000,-0.007100,0.020400,0.996500,170.839,170.839,0.998,2.265,,,,,,,,,,,,,0,,,Not running,,,,,,,,,,,0.999800,0.009800,0.010100,0.000900,0.081030,-0.017932,0.029365,0.996118,170.763,2.320,3.190,b6 00 00 00 00 00 00 20 03 b9 ff cc 00 ed 26 07 32 57
0.277,fused,,0,0x07,"IMU0_OK, IMU1_OK, FUSION_READY",0.999800,0.009800,0.010100,0.000900,0.114,0.114,1.156,1.124,,,,,,,,,,,,,0,,,Not running,,,,,,,,,,,0.999800,0.009800,0.010100,0.000900,1.000000,0.000000,-0.000000,0.000000,0.000,-0.000,0.000,b6 00 00 00 00 00 00 0e 27 62 00 65 00 09 00 07 00 20
0.277,fused,,50,0x07,"IMU0_OK, IMU1_OK, FUSION_READY",0.080000,-0.007100,0.020400,0.996500,170.839,170.839,0.998,2.265,,,,,,,,,,,,,0,,,Not running,,,,,,,,,,,0.999800,0.009800,0.010100,0.000900,0.081030,-0.017932,0.029365,0.996118,170.763,2.320,3.190,b6 00 00 00 00 00 00 20 03 b9 ff cc 00 ed 26 07 32 57
0.278,fused,,0,0x07,"IMU0_OK, IMU1_OK, FUSION_READY",0.999800,0.009800,0.010100,0.000900,0.114,0.114,1.156,1.124,,,,,,,,,,,,,0,,,Not running,,,,,,,,,,,0.999800,0.009800,0.010100,0.000900,1.000000,0.000000,-0.000000,0.000000,0.000,-0.000,0.000,b6 00 00 00 00 00 00 0e 27 62 00 65 00 09 00 07 00 20
0.334,fused,,50,0x07,"IMU0_OK, IMU1_OK, FUSION_READY",0.080000,-0.007100,0.020500,0.996500,170.839,170.839,0.999,2.277,,,,,,,,,,,,,0,,,Not running,,,,,,,,,,,0.999800,0.009800,0.010100,0.000900,0.081031,-0.017932,0.029465,0.996115,170.764,2.321,3.201,b6 00 00 00 00 00 00 20 03 b9 ff cd 00 ed 26 07 32 56
0.335,fused,,0,0x07,"IMU0_OK, IMU1_OK, FUSION_READY",0.999800,0.009800,0.010100,0.000900,0.114,0.114,1.156,1.124,,,,,,,,,,,,,0,,,Not running,,,,,,,,,,,0.999800,0.009800,0.010100,0.000900,1.000000,0.000000,-0.000000,0.000000,0.000,-0.000,0.000,b6 00 00 00 00 00 00 0e 27 62 00 65 00 09 00 07 00 20
0.335,fused,,50,0x07,"IMU0_OK, IMU1_OK, FUSION_READY",0.080000,-0.007100,0.020500,0.996500,170.839,170.839,0.999,2.277,,,,,,,,,,,,,0,,,Not running,,,,,,,,,,,0.999800,0.009800,0.010100,0.000900,0.081031,-0.017932,0.029465,0.996115,170.764,2.321,3.201,b6 00 00 00 00 00 00 20 03 b9 ff cd 00 ed 26 07 32 56
0.336,fused,,0,0x07,"IMU0_OK, IMU1_OK, FUSION_READY",0.999800,0.009800,0.010100,0.000900,0.114,0.114,1.156,1.124,,,,,,,,,,,,,0,,,Not running,,,,,,,,,,,0.999800,0.009800,0.010100,0.000900,1.000000,0.000000,-0.000000,0.000000,0.000,-0.000,0.000,b6 00 00 00 00 00 00 0e 27 62 00 65 00 09 00 07 00 20
0.336,fused,,50,0x07,"IMU0_OK, IMU1_OK, FUSION_READY",0.080000,-0.007100,0.020500,0.996500,170.839,170.839,0.999,2.277,,,,,,,,,,,,,0,,,Not running,,,,,,,,,,,0.999800,0.009800,0.010100,0.000900,0.081031,-0.017932,0.029465,0.996115,170.764,2.321,3.201,b6 00 00 00 00 00 00 20 03 b9 ff cd 00 ed 26 07 32 56
0.337,fused,,0,0x07,"IMU0_OK, IMU1_OK, FUSION_READY",0.999800,0.009800,0.010100,0.000900,0.114,0.114,1.156,1.124,,,,,,,,,,,,,0,,,Not running,,,,,,,,,,,0.999800,0.009800,0.010100,0.000900,1.000000,0.000000,-0.000000,0.000000,0.000,-0.000,0.000,b6 00 00 00 00 00 00 0e 27 62 00 65 00 09 00 07 00 20
0.337,fused,,50,0x07,"IMU0_OK, IMU1_OK, FUSION_READY",0.080000,-0.007100,0.020500,0.996500,170.839,170.839,0.999,2.277,,,,,,,,,,,,,0,,,Not running,,,,,,,,,,,0.999800,0.009800,0.010100,0.000900,0.081031,-0.017932,0.029465,0.996115,170.764,2.321,3.201,b6 00 00 00 00 00 00 20 03 b9 ff cd 00 ed 26 07 32 56
0.338,fused,,0,0x07,"IMU0_OK, IMU1_OK, FUSION_READY",0.999800,0.009800,0.010200,0.000900,0.115,0.115,1.168,1.124,,,,,,,,,,,,,0,,,Not running,,,,,,,,,,,0.999800,0.009800,0.010200,0.000900,1.000000,0.000000,0.000000,0.000000,0.000,0.000,0.000,b6 00 00 00 00 00 00 0e 27 62 00 66 00 09 00 07 00 23
0.338,fused,,50,0x07,"IMU0_OK, IMU1_OK, FUSION_READY",0.080000,-0.007100,0.020500,0.996500,170.839,170.839,0.999,2.277,,,,,,,,,,,,,0,,,Not running,,,,,,,,,,,0.999800,0.009800,0.010200,0.000900,0.081033,-0.018031,0.029457,0.996113,170.764,2.332,3.199,b6 00 00 00 00 00 00 20 03 b9 ff cd 00 ed 26 07 32 56
0.338,fused,,0,0x07,"IMU0_OK, IMU1_OK, FUSION_READY",0.999800,0.009800,0.010200,0.000900,0.115,0.115,1.168,1.124,,,,,,,,,,,,,0,,,Not running,,,,,,,,,,,0.999800,0.009800,0.010200,0.000900,1.000000,0.000000,0.000000,0.000000,0.000,0.000,0.000,b6 00 00 00 00 00 00 0e 27 62 00 66 00 09 00 07 00 23
0.339,fused,,50,0x07,"IMU0_OK, IMU1_OK, FUSION_READY",0.080000,-0.007100,0.020500,0.996500,170.839,170.839,0.999,2.277,,,,,,,,,,,,,0,,,Not running,,,,,,,,,,,0.999800,0.009800,0.010200,0.000900,0.081033,-0.018031,0.029457,0.996113,170.764,2.332,3.199,b6 00 00 00 00 00 00 20 03 b9 ff cd 00 ed 26 07 32 56
0.339,fused,,0,0x07,"IMU0_OK, IMU1_OK, FUSION_READY",0.999800,0.009800,0.010200,0.000900,0.115,0.115,1.168,1.124,,,,,,,,,,,,,0,,,Not running,,,,,,,,,,,0.999800,0.009800,0.010200,0.000900,1.000000,0.000000,0.000000,0.000000,0.000,0.000,0.000,b6 00 00 00 00 00 00 0e 27 62 00 66 00 09 00 07 00 23
0.340,fused,,50,0x07,"IMU0_OK, IMU1_OK, FUSION_READY",0.080000,-0.007000,0.020500,0.996500,170.839,170.839,0.987,2.278,,,,,,,,,,,,,0,,,Not running,,,,,,,,,,,0.999800,0.009800,0.010200,0.000900,0.081034,-0.017931,0.029457,0.996115,170.763,2.321,3.200,b6 00 00 00 00 00 00 20 03 ba ff cd 00 ed 26 07 32 55
0.341,fused,,0,0x07,"IMU0_OK, IMU1_OK, FUSION_READY",0.999800,0.009800,0.010100,0.000900,0.114,0.114,1.156,1.124,,,,,,,,,,,,,0,,,Not running,,,,,,,,,,,0.999800,0.009800,0.010100,0.000900,1.000000,0.000000,-0.000000,0.000000,0.000,-0.000,0.000,b6 00 00 00 00 00 00 0e 27 62 00 65 00 09 00 07 00 20
0.399,fused,,50,0x07,"IMU0_OK, IMU1_OK, FUSION_READY",0.080000,-0.007000,0.020500,0.996500,170.839,170.839,0.987,2.278,,,,,,,,,,,,,0,,,Not running,,,,,,,,,,,0.999800,0.009800,0.010100,0.000900,0.081032,-0.017832,0.029465,0.996116,170.763,2.310,3.202,b6 00 00 00 00 00 00 20 03 ba ff cd 00 ed 26 07 32 55
0.400,fused,,0,0x07,"IMU0_OK, IMU1_OK, FUSION_READY",0.999800,0.009800,0.010100,0.000900,0.114,0.114,1.156,1.124,,,,,,,,,,,,,0,,,Not running,,,,,,,,,,,0.999800,0.009800,0.010100,0.000900,1.000000,0.000000,-0.000000,0.000000,0.000,-0.000,0.000,b6 00 00 00 00 00 00 0e 27 62 00 65 00 09 00 07 00 20
0.400,fused,,50,0x07,"IMU0_OK, IMU1_OK, FUSION_READY",0.080000,-0.007000,0.020500,0.996500,170.839,170.839,0.987,2.278,,,,,,,,,,,,,0,,,Not running,,,,,,,,,,,0.999800,0.009800,0.010100,0.000900,0.081032,-0.017832,0.029465,0.996116,170.763,2.310,3.202,b6 00 00 00 00 00 00 20 03 ba ff cd 00 ed 26 07 32 55
0.401,fused,,0,0x07,"IMU0_OK, IMU1_OK, FUSION_READY",0.999800,0.009800,0.010200,0.000900,0.115,0.115,1.168,1.124,,,,,,,,,,,,,0,,,Not running,,,,,,,,,,,0.999800,0.009800,0.010200,0.000900,1.000000,0.000000,0.000000,0.000000,0.000,0.000,0.000,b6 00 00 00 00 00 00 0e 27 62 00 66 00 09 00 07 00 23
0.401,fused,,50,0x07,"IMU0_OK, IMU1_OK, FUSION_READY",0.080000,-0.007100,0.020500,0.996500,170.839,170.839,0.999,2.277,,,,,,,,,,,,,0,,,Not running,,,,,,,,,,,0.999800,0.009800,0.010200,0.000900,0.081033,-0.018031,0.029457,0.996113,170.764,2.332,3.199,b6 00 00 00 00 00 00 20 03 b9 ff cd 00 ed 26 07 32 56
0.402,fused,,0,0x07,"IMU0_OK, IMU1_OK, FUSION_READY",0.999800,0.009800,0.010100,0.000900,0.114,0.114,1.156,1.124,,,,,,,,,,,,,0,,,Not running,,,,,,,,,,,0.999800,0.009800,0.010100,0.000900,1.000000,0.000000,-0.000000,0.000000,0.000,-0.000,0.000,b6 00 00 00 00 00 00 0e 27 62 00 65 00 09 00 07 00 20
0.402,fused,,50,0x07,"IMU0_OK, IMU1_OK, FUSION_READY",0.080000,-0.007100,0.020500,0.996500,170.839,170.839,0.999,2.277,,,,,,,,,,,,,0,,,Not running,,,,,,,,,,,0.999800,0.009800,0.010100,0.000900,0.081031,-0.017932,0.029465,0.996115,170.764,2.321,3.201,b6 00 00 00 00 00 00 20 03 b9 ff cd 00 ed 26 07 32 56
0.403,fused,,0,0x07,"IMU0_OK, IMU1_OK, FUSION_READY",0.999800,0.009800,0.010200,0.000900,0.115,0.115,1.168,1.124,,,,,,,,,,,,,0,,,Not running,,,,,,,,,,,0.999800,0.009800,0.010200,0.000900,1.000000,0.000000,0.000000,0.000000,0.000,0.000,0.000,b6 00 00 00 00 00 00 0e 27 62 00 66 00 09 00 07 00 23
0.403,fused,,50,0x07,"IMU0_OK, IMU1_OK, FUSION_READY",0.080000,-0.007100,0.020500,0.996500,170.839,170.839,0.999,2.277,,,,,,,,,,,,,0,,,Not running,,,,,,,,,,,0.999800,0.009800,0.010200,0.000900,0.081033,-0.018031,0.029457,0.996113,170.764,2.332,3.199,b6 00 00 00 00 00 00 20 03 b9 ff cd 00 ed 26 07 32 56
0.404,fused,,0,0x07,"IMU0_OK, IMU1_OK, FUSION_READY",0.999800,0.009800,0.010200,0.000900,0.115,0.115,1.168,1.124,,,,,,,,,,,,,0,,,Not running,,,,,,,,,,,0.999800,0.009800,0.010200,0.000900,1.000000,0.000000,0.000000,0.000000,0.000,0.000,0.000,b6 00 00 00 00 00 00 0e 27 62 00 66 00 09 00 07 00 23
0.404,fused,,50,0x07,"IMU0_OK, IMU1_OK, FUSION_READY",0.080000,-0.007100,0.020500,0.996500,170.839,170.839,0.999,2.277,,,,,,,,,,,,,0,,,Not running,,,,,,,,,,,0.999800,0.009800,0.010200,0.000900,0.081033,-0.018031,0.029457,0.996113,170.764,2.332,3.199,b6 00 00 00 00 00 00 20 03 b9 ff cd 00 ed 26 07 32 56
0.405,fused,,0,0x07,"IMU0_OK, IMU1_OK, FUSION_READY",0.999800,0.009800,0.010200,0.000900,0.115,0.115,1.168,1.124,,,,,,,,,,,,,0,,,Not running,,,,,,,,,,,0.999800,0.009800,0.010200,0.000900,1.000000,0.000000,0.000000,0.000000,0.000,0.000,0.000,b6 00 00 00 00 00 00 0e 27 62 00 66 00 09 00 07 00 23
0.405,fused,,50,0x07,"IMU0_OK, IMU1_OK, FUSION_READY",0.080000,-0.007100,0.020500,0.996500,170.839,170.839,0.999,2.277,,,,,,,,,,,,,0,,,Not running,,,,,,,,,,,0.999800,0.009800,0.010200,0.000900,0.081033,-0.018031,0.029457,0.996113,170.764,2.332,3.199,b6 00 00 00 00 00 00 20 03 b9 ff cd 00 ed 26 07 32 56
0.406,fused,,0,0x07,"IMU0_OK, IMU1_OK, FUSION_READY",0.999800,0.009800,0.010200,0.000900,0.115,0.115,1.168,1.124,,,,,,,,,,,,,0,,,Not running,,,,,,,,,,,0.999800,0.009800,0.010200,0.000900,1.000000,0.000000,0.000000,0.000000,0.000,0.000,0.000,b6 00 00 00 00 00 00 0e 27 62 00 66 00 09 00 07 00 23
0.406,fused,,50,0x07,"IMU0_OK, IMU1_OK, FUSION_READY",0.080000,-0.007100,0.020500,0.996500,170.839,170.839,0.999,2.277,,,,,,,,,,,,,0,,,Not running,,,,,,,,,,,0.999800,0.009800,0.010200,0.000900,0.081033,-0.018031,0.029457,0.996113,170.764,2.332,3.199,b6 00 00 00 00 00 00 20 03 b9 ff cd 00 ed 26 07 32 56
0.515,fused,,0,0x07,"IMU0_OK, IMU1_OK, FUSION_READY",0.999800,0.009800,0.010200,0.000900,0.115,0.115,1.168,1.124,,,,,,,,,,,,,0,,,Not running,,,,,,,,,,,0.999800,0.009800,0.010200,0.000900,1.000000,0.000000,0.000000,0.000000,0.000,0.000,0.000,b6 00 00 00 00 00 00 0e 27 62 00 66 00 09 00 07 00 23
0.517,fused,,50,0x07,"IMU0_OK, IMU1_OK, FUSION_READY",0.080000,-0.007100,0.020500,0.996500,170.839,170.839,0.999,2.277,,,,,,,,,,,,,0,,,Not running,,,,,,,,,,,0.999800,0.009800,0.010200,0.000900,0.081033,-0.018031,0.029457,0.996113,170.764,2.332,3.199,b6 00 00 00 00 00 00 20 03 b9 ff cd 00 ed 26 07 32 56
0.517,fused,,0,0x07,"IMU0_OK, IMU1_OK, FUSION_READY",0.999800,0.009800,0.010200,0.000900,0.115,0.115,1.168,1.124,,,,,,,,,,,,,0,,,Not running,,,,,,,,,,,0.999800,0.009800,0.010200,0.000900,1.000000,0.000000,0.000000,0.000000,0.000,0.000,0.000,b6 00 00 00 00 00 00 0e 27 62 00 66 00 09 00 07 00 23
0.518,fused,,50,0x07,"IMU0_OK, IMU1_OK, FUSION_READY",0.080000,-0.007100,0.020500,0.996500,170.839,170.839,0.999,2.277,,,,,,,,,,,,,0,,,Not running,,,,,,,,,,,0.999800,0.009800,0.010200,0.000900,0.081033,-0.018031,0.029457,0.996113,170.764,2.332,3.199,b6 00 00 00 00 00 00 20 03 b9 ff cd 00 ed 26 07 32 56
0.518,fused,,0,0x07,"IMU0_OK, IMU1_OK, FUSION_READY",0.999800,0.009800,0.010200,0.000900,0.115,0.115,1.168,1.124,,,,,,,,,,,,,0,,,Not running,,,,,,,,,,,0.999800,0.009800,0.010200,0.000900,1.000000,0.000000,0.000000,0.000000,0.000,0.000,0.000,b6 00 00 00 00 00 00 0e 27 62 00 66 00 09 00 07 00 23
0.519,fused,,50,0x07,"IMU0_OK, IMU1_OK, FUSION_READY",0.080000,-0.007100,0.020500,0.996500,170.839,170.839,0.999,2.277,,,,,,,,,,,,,0,,,Not running,,,,,,,,,,,0.999800,0.009800,0.010200,0.000900,0.081033,-0.018031,0.029457,0.996113,170.764,2.332,3.199,b6 00 00 00 00 00 00 20 03 b9 ff cd 00 ed 26 07 32 56
0.520,fused,,0,0x07,"IMU0_OK, IMU1_OK, FUSION_READY",0.999800,0.009900,0.010200,0.000900,0.115,0.115,1.168,1.136,,,,,,,,,,,,,0,,,Not running,,,,,,,,,,,0.999800,0.009900,0.010200,0.000900,1.000000,0.000000,0.000000,0.000000,0.000,0.000,0.000,b6 00 00 00 00 00 00 0e 27 63 00 66 00 09 00 07 00 22
0.520,fused,,50,0x07,"IMU0_OK, IMU1_OK, FUSION_READY",0.080000,-0.007100,0.020500,0.996500,170.839,170.839,0.999,2.277,,,,,,,,,,,,,0,,,Not running,,,,,,,,,,,0.999800,0.009900,0.010200,0.000900,0.081032,-0.018039,0.029556,0.996110,170.764,2.334,3.211,b6 00 00 00 00 00 00 20 03 b9 ff cd 00 ed 26 07 32 56
0.521,fused,,0,0x07,"IMU0_OK, IMU1_OK, FUSION_READY",0.999800,0.009900,0.010200,0.000900,0.115,0.115,1.168,1.136,,,,,,,,,,,,,0,,,Not running,,,,,,,,,,,0.999800,0.009900,0.010200,0.000900,1.000000,0.000000,0.000000,0.000000,0.000,0.000,0.000,b6 00 00 00 00 00 00 0e 27 63 00 66 00 09 00 07 00 22
0.521,fused,,50,0x07,"IMU0_OK, IMU1_OK, FUSION_READY",0.080000,-0.007100,0.020500,0.996500,170.839,170.839,0.999,2.277,,,,,,,,,,,,,0,,,Not running,,,,,,,,,,,0.999800,0.009900,0.010200,0.000900,0.081032,-0.018039,0.029556,0.996110,170.764,2.334,3.211,b6 00 00 00 00 00 00 20 03 b9 ff cd 00 ed 26 07 32 56
0.522,fused,,0,0x07,"IMU0_OK, IMU1_OK, FUSION_READY",0.999800,0.009900,0.010200,0.000900,0.115,0.115,1.168,1.136,,,,,,,,,,,,,0,,,Not running,,,,,,,,,,,0.999800,0.009900,0.010200,0.000900,1.000000,0.000000,0.000000,0.000000,0.000,0.000,0.000,b6 00 00 00 00 00 00 0e 27 63 00 66 00 09 00 07 00 22
0.522,fused,,50,0x07,"IMU0_OK, IMU1_OK, FUSION_READY",0.080000,-0.007100,0.020500,0.996500,170.839,170.839,0.999,2.277,,,,,,,,,,,,,0,,,Not running,,,,,,,,,,,0.999800,0.009900,0.010200,0.000900,0.081032,-0.018039,0.029556,0.996110,170.764,2.334,3.211,b6 00 00 00 00 00 00 20 03 b9 ff cd 00 ed 26 07 32 56
0.523,fused,,0,0x07,"IMU0_OK, IMU1_OK, FUSION_READY",0.999800,0.009900,0.010200,0.000900,0.115,0.115,1.168,1.136,,,,,,,,,,,,,0,,,Not running,,,,,,,,,,,0.999800,0.009900,0.010200,0.000900,1.000000,0.000000,0.000000,0.000000,0.000,0.000,0.000,b6 00 00 00 00 00 00 0e 27 63 00 66 00 09 00 07 00 22
0.523,fused,,50,0x07,"IMU0_OK, IMU1_OK, FUSION_READY",0.080000,-0.007100,0.020500,0.996500,170.839,170.839,0.999,2.277,,,,,,,,,,,,,0,,,Not running,,,,,,,,,,,0.999800,0.009900,0.010200,0.000900,0.081032,-0.018039,0.029556,0.996110,170.764,2.334,3.211,b6 00 00 00 00 00 00 20 03 b9 ff cd 00 ed 26 07 32 56
0.575,fused,,0,0x07,"IMU0_OK, IMU1_OK, FUSION_READY",0.999800,0.009800,0.010200,0.000900,0.115,0.115,1.168,1.124,,,,,,,,,,,,,0,,,Not running,,,,,,,,,,,0.999800,0.009800,0.010200,0.000900,1.000000,0.000000,0.000000,0.000000,0.000,0.000,0.000,b6 00 00 00 00 00 00 0e 27 62 00 66 00 09 00 07 00 23
0.576,fused,,50,0x07,"IMU0_OK, IMU1_OK, FUSION_READY",0.080000,-0.007100,0.020500,0.996500,170.839,170.839,0.999,2.277,,,,,,,,,,,,,0,,,Not running,,,,,,,,,,,0.999800,0.009800,0.010200,0.000900,0.081033,-0.018031,0.029457,0.996113,170.764,2.332,3.199,b6 00 00 00 00 00 00 20 03 b9 ff cd 00 ed 26 07 32 56
0.576,fused,,0,0x07,"IMU0_OK, IMU1_OK, FUSION_READY",0.999800,0.009900,0.010200,0.000900,0.115,0.115,1.168,1.136,,,,,,,,,,,,,0,,,Not running,,,,,,,,,,,0.999800,0.009900,0.010200,0.000900,1.000000,0.000000,0.000000,0.000000,0.000,0.000,0.000,b6 00 00 00 00 00 00 0e 27 63 00 66 00 09 00 07 00 22
0.577,fused,,50,0x07,"IMU0_OK, IMU1_OK, FUSION_READY",0.080000,-0.007100,0.020500,0.996500,170.839,170.839,0.999,2.277,,,,,,,,,,,,,0,,,Not running,,,,,,,,,,,0.999800,0.009900,0.010200,0.000900,0.081032,-0.018039,0.029556,0.996110,170.764,2.334,3.211,b6 00 00 00 00 00 00 20 03 b9 ff cd 00 ed 26 07 32 56
0.577,fused,,0,0x07,"IMU0_OK, IMU1_OK, FUSION_READY",0.999800,0.009900,0.010200,0.000900,0.115,0.115,1.168,1.136,,,,,,,,,,,,,0,,,Not running,,,,,,,,,,,0.999800,0.009900,0.010200,0.000900,1.000000,0.000000,0.000000,0.000000,0.000,0.000,0.000,b6 00 00 00 00 00 00 0e 27 63 00 66 00 09 00 07 00 22
0.578,fused,,50,0x07,"IMU0_OK, IMU1_OK, FUSION_READY",0.080000,-0.007100,0.020500,0.996500,170.839,170.839,0.999,2.277,,,,,,,,,,,,,0,,,Not running,,,,,,,,,,,0.999800,0.009900,0.010200,0.000900,0.081032,-0.018039,0.029556,0.996110,170.764,2.334,3.211,b6 00 00 00 00 00 00 20 03 b9 ff cd 00 ed 26 07 32 56
0.578,fused,,0,0x07,"IMU0_OK, IMU1_OK, FUSION_READY",0.999800,0.009900,0.010200,0.000900,0.115,0.115,1.168,1.136,,,,,,,,,,,,,0,,,Not running,,,,,,,,,,,0.999800,0.009900,0.010200,0.000900,1.000000,0.000000,0.000000,0.000000,0.000,0.000,0.000,b6 00 00 00 00 00 00 0e 27 63 00 66 00 09 00 07 00 22
0.579,fused,,50,0x07,"IMU0_OK, IMU1_OK, FUSION_READY",0.080000,-0.007100,0.020500,0.996500,170.839,170.839,0.999,2.277,,,,,,,,,,,,,0,,,Not running,,,,,,,,,,,0.999800,0.009900,0.010200,0.000900,0.081032,-0.018039,0.029556,0.996110,170.764,2.334,3.211,b6 00 00 00 00 00 00 20 03 b9 ff cd 00 ed 26 07 32 56
0.579,fused,,0,0x07,"IMU0_OK, IMU1_OK, FUSION_READY",0.999800,0.009900,0.010200,0.000900,0.115,0.115,1.168,1.136,,,,,,,,,,,,,0,,,Not running,,,,,,,,,,,0.999800,0.009900,0.010200,0.000900,1.000000,0.000000,0.000000,0.000000,0.000,0.000,0.000,b6 00 00 00 00 00 00 0e 27 63 00 66 00 09 00 07 00 22
0.580,fused,,50,0x07,"IMU0_OK, IMU1_OK, FUSION_READY",0.080000,-0.007100,0.020500,0.996500,170.839,170.839,0.999,2.277,,,,,,,,,,,,,0,,,Not running,,,,,,,,,,,0.999800,0.009900,0.010200,0.000900,0.081032,-0.018039,0.029556,0.996110,170.764,2.334,3.211,b6 00 00 00 00 00 00 20 03 b9 ff cd 00 ed 26 07 32 56
0.580,fused,,0,0x07,"IMU0_OK, IMU1_OK, FUSION_READY",0.999800,0.009900,0.010200,0.000900,0.115,0.115,1.168,1.136,,,,,,,,,,,,,0,,,Not running,,,,,,,,,,,0.999800,0.009900,0.010200,0.000900,1.000000,0.000000,0.000000,0.000000,0.000,0.000,0.000,b6 00 00 00 00 00 00 0e 27 63 00 66 00 09 00 07 00 22
0.581,fused,,50,0x07,"IMU0_OK, IMU1_OK, FUSION_READY",0.080000,-0.007100,0.020500,0.996500,170.839,170.839,0.999,2.277,,,,,,,,,,,,,0,,,Not running,,,,,,,,,,,0.999800,0.009900,0.010200,0.000900,0.081032,-0.018039,0.029556,0.996110,170.764,2.334,3.211,b6 00 00 00 00 00 00 20 03 b9 ff cd 00 ed 26 07 32 56
0.582,fused,,0,0x07,"IMU0_OK, IMU1_OK, FUSION_READY",0.999800,0.009900,0.010300,0.000900,0.115,0.115,1.179,1.136,,,,,,,,,,,,,0,,,Not running,,,,,,,,,,,0.999800,0.009900,0.010300,0.000900,1.000000,0.000000,0.000000,0.000000,0.000,0.000,0.000,b6 00 00 00 00 00 00 0e 27 63 00 67 00 09 00 07 00 23
0.582,fused,,50,0x07,"IMU0_OK, IMU1_OK, FUSION_READY",0.080000,-0.007200,0.020500,0.996500,170.839,170.839,1.010,2.276,,,,,,,,,,,,,0,,,Not running,,,,,,,,,,,0.999800,0.009900,0.010300,0.000900,0.081033,-0.018239,0.029548,0.996106,170.764,2.357,3.208,b6 00 00 00 00 00 00 20 03 b8 ff cd 00 ed 26 07 32 57
0.641,fused,,0,0x07,"IMU0_OK, IMU1_OK, FUSION_READY",0.999800,0.009900,0.010300,0.000900,0.115,0.115,1.179,1.136,,,,,,,,,,,,,0,,,Not running,,,,,,,,,,,0.999800,0.009900,0.010300,0.000900,1.000000,0.000000,0.000000,0.000000,0.000,0.000,0.000,b6 00 00 00 00 00 00 0e 27 63 00 67 00 09 00 07 00 23
0.642,fused,,50,0x07,"IMU0_OK, IMU1_OK, FUSION_READY",0.080000,-0.007200,0.020500,0.996500,170.839,170.839,1.010,2.276,,,,,,,,,,,,,0,,,Not running,,,,,,,,,,,0.999800,0.009900,0.010300,0.000900,0.081033,-0.018239,0.029548,0.996106,170.764,2.357,3.208,b6 00 00 00 00 00 00 20 03 b8 ff cd 00 ed 26 07 32 57
0.642,fused,,0,0x07,"IMU0_OK, IMU1_OK, FUSION_READY",0.999800,0.009900,0.010200,0.000900,0.115,0.115,1.168,1.136,,,,,,,,,,,,,0,,,Not running,,,,,,,,,,,0.999800,0.009900,0.010200,0.000900,1.000000,0.000000,0.000000,0.000000,0.000,0.000,0.000,b6 00 00 00 00 00 00 0e 27 63 00 66 00 09 00 07 00 22
0.644,fused,,50,0x07,"IMU0_OK, IMU1_OK, FUSION_READY",0.080000,-0.007200,0.020600,0.996500,170.839,170.839,1.011,2.287,,,,,,,,,,,,,0,,,Not running,,,,,,,,,,,0.999800,0.009900,0.010200,0.000900,0.081032,-0.018139,0.029656,0.996105,170.765,2.347,3.221,b6 00 00 00 00 00 00 20 03 b8 ff ce 00 ed 26 07 32 54
0.645,fused,,0,0x07,"IMU0_OK, IMU1_OK, FUSION_READY",0.999800,0.009800,0.010200,0.000900,0.115,0.115,1.168,1.124,,,,,,,,,,,,,0,,,Not running,,,,,,,,,,,0.999800,0.009800,0.010200,0.000900,1.000000,0.000000,0.000000,0.000000,0.000,0.000,0.000,b6 00 00 00 00 00 00 0e 27 62 00 66 00 09 00 07 00 23
0.645,fused,,50,0x07,"IMU0_OK, IMU1_OK, FUSION_READY",0.080000,-0.007200,0.020600,0.996500,170.839,170.839,1.011,2.287,,,,,,,,,,,,,0,,,Not running,,,,,,,,,,,0.999800,0.009800,0.010200,0.000900,0.081033,-0.018131,0.029557,0.996108,170.764,2.345,3.210,b6 00 00 00 00 00 00 20 03 b8 ff ce 00 ed 26 07 32 54
0.646,fused,,0,0x07,"IMU0_OK, IMU1_OK, FUSION_READY",0.999800,0.009800,0.010200,0.000900,0.115,0.115,1.168,1.124,,,,,,,,,,,,,0,,,Not running,,,,,,,,,,,0.999800,0.009800,0.010200,0.000900,1.000000,0.000000,0.000000,0.000000,0.000,0.000,0.000,b6 00 00 00 00 00 00 0e 27 62 00 66 00 09 00 07 00 23
0.646,fused,,50,0x07,"IMU0_OK, IMU1_OK, FUSION_READY",0.080100,-0.007200,0.020600,0.996500,170.828,170.828,1.011,2.287,,,,,,,,,,,,,0,,,Not running,,,,,,,,,,,0.999800,0.009800,0.010200,0.000900,0.081132,-0.018132,0.029555,0.996100,170.753,2.345,3.209,b6 00 00 00 00 00 00 21 03 b8 ff ce 00 ed 26 07 32 55
0.647,fused,,0,0x07,"IMU0_OK, IMU1_OK, FUSION_READY",0.999800,0.009800,0.010200,0.000900,0.115,0.115,1.168,1.124,,,,,,,,,,,,,0,,,Not running,,,,,,,,,,,0.999800,0.009800,0.010200,0.000900,1.000000,0.000000,0.000000,0.000000,0.000,0.000,0.000,b6 00 00 00 00 00 00 0e 27 62 00 66 00 09 00 07 00 23
0.647,fused,,50,0x07,"IMU0_OK, IMU1_OK, FUSION_READY",0.080100,-0.007200,0.020600,0.996500,170.828,170.828,1.011,2.287,,,,,,,,,,,,,0,,,Not running,,,,,,,,,,,0.999800,0.009800,0.010200,0.000900,0.081132,-0.018132,0.029555,0.996100,170.753,2.345,3.209,b6 00 00 00 00 00 00 21 03 b8 ff ce 00 ed 26 07 32 55
0.648,fused,,0,0x07,"IMU0_OK, IMU1_OK, FUSION_READY",0.999800,0.009800,0.010200,0.000900,0.115,0.115,1.168,1.124,,,,,,,,,,,,,0,,,Not running,,,,,,,,,,,0.999800,0.009800,0.010200,0.000900,1.000000,0.000000,0.000000,0.000000,0.000,0.000,0.000,b6 00 00 00 00 00 00 0e 27 62 00 66 00 09 00 07 00 23
0.648,fused,,50,0x07,"IMU0_OK, IMU1_OK, FUSION_READY",0.080100,-0.007200,0.020600,0.996500,170.828,170.828,1.011,2.287,,,,,,,,,,,,,0,,,Not running,,,,,,,,,,,0.999800,0.009800,0.010200,0.000900,0.081132,-0.018132,0.029555,0.996100,170.753,2.345,3.209,b6 00 00 00 00 00 00 21 03 b8 ff ce 00 ed 26 07 32 55
0.648,fused,,0,0x07,"IMU0_OK, IMU1_OK, FUSION_READY",0.999800,0.009800,0.010200,0.000900,0.115,0.115,1.168,1.124,,,,,,,,,,,,,0,,,Not running,,,,,,,,,,,0.999800,0.009800,0.010200,0.000900,1.000000,0.000000,0.000000,0.000000,0.000,0.000,0.000,b6 00 00 00 00 00 00 0e 27 62 00 66 00 09 00 07 00 23
0.649,fused,,50,0x07,"IMU0_OK, IMU1_OK, FUSION_READY",0.080100,-0.007200,0.020600,0.996500,170.828,170.828,1.011,2.287,,,,,,,,,,,,,0,,,Not running,,,,,,,,,,,0.999800,0.009800,0.010200,0.000900,0.081132,-0.018132,0.029555,0.996100,170.753,2.345,3.209,b6 00 00 00 00 00 00 21 03 b8 ff ce 00 ed 26 07 32 55
0.703,fused,,0,0x07,"IMU0_OK, IMU1_OK, FUSION_READY",0.999800,0.009800,0.010200,0.000900,0.115,0.115,1.168,1.124,,,,,,,,,,,,,0,,,Not running,,,,,,,,,,,0.999800,0.009800,0.010200,0.000900,1.000000,0.000000,0.000000,0.000000,0.000,0.000,0.000,b6 00 00 00 00 00 00 0e 27 62 00 66 00 09 00 07 00 23
0.704,fused,,50,0x07,"IMU0_OK, IMU1_OK, FUSION_READY",0.080100,-0.007200,0.020600,0.996500,170.828,170.828,1.011,2.287,,,,,,,,,,,,,0,,,Not running,,,,,,,,,,,0.999800,0.009800,0.010200,0.000900,0.081132,-0.018132,0.029555,0.996100,170.753,2.345,3.209,b6 00 00 00 00 00 00 21 03 b8 ff ce 00 ed 26 07 32 55
0.704,fused,,0,0x07,"IMU0_OK, IMU1_OK, FUSION_READY",0.999800,0.009800,0.010200,0.000900,0.115,0.115,1.168,1.124,,,,,,,,,,,,,0,,,Not running,,,,,,,,,,,0.999800,0.009800,0.010200,0.000900,1.000000,0.000000,0.000000,0.000000,0.000,0.000,0.000,b6 00 00 00 00 00 00 0e 27 62 00 66 00 09 00 07 00 23
0.705,fused,,50,0x07,"IMU0_OK, IMU1_OK, FUSION_READY",0.080100,-0.007300,0.020600,0.996500,170.828,170.828,1.023,2.286,,,,,,,,,,,,,0,,,Not running,,,,,,,,,,,0.999800,0.009800,0.010200,0.000900,0.081131,-0.018232,0.029555,0.996098,170.753,2.357,3.208,b6 00 00 00 00 00 00 21 03 b7 ff ce 00 ed 26 07 32 5a
0.705,fused,,0,0x07,"IMU0_OK, IMU1_OK, FUSION_READY",0.999800,0.009900,0.010200,0.000900,0.115,0.115,1.168,1.136,,,,,,,,,,,,,0,,,Not running,,,,,,,,,,,0.999800,0.009900,0.010200,0.000900,1.000000,0.000000,0.000000,0.000000,0.000,0.000,0.000,b6 00 00 00 00 00 00 0e 27 63 00 66 00 09 00 07 00 22
0.706,fused,,50,0x07,"IMU0_OK, IMU1_OK, FUSION_READY",0.080100,-0.007300,0.020600,0.996500,170.828,170.828,1.023,2.286,,,,,,,,,,,,,0,,,Not running,,,,,,,,,,,0.999800,0.009900,0.010200,0.000900,0.081130,-0.018240,0.029655,0.996095,170.754,2.358,3.220,b6 00 00 00 00 00 00 21 03 b7 ff ce 00 ed 26 07 32 5a
0.706,fused,,0,0x07,"IMU0_OK, IMU1_OK, FUSION_READY",0.999800,0.009900,0.010200,0.000900,0.115,0.115,1.168,1.136,,,,,,,,,,,,,0,,,Not running,,,,,,,,,,,0.999800,0.009900,0.010200,0.000900,1.000000,0.000000,0.000000,0.000000,0.000,0.000,0.000,b6 00 00 00 00 00 00 0e 27 63 00 66 00 09 00 07 00 22
0.707,fused,,50,0x07,"IMU0_OK, IMU1_OK, FUSION_READY",0.080100,-0.007200,0.020600,0.996500,170.828,170.828,1.011,2.287,,,,,,,,,,,,,0,,,Not running,,,,,,,,,,,0.999800,0.009900,0.010200,0.000900,0.081132,-0.018140,0.029655,0.996097,170.753,2.347,3.221,b6 00 00 00 00 00 00 21 03 b8 ff ce 00 ed 26 07 32 55
0.708,fused,,0,0x07,"IMU0_OK, IMU1_OK, FUSION_READY",0.999800,0.009900,0.010200,0.000900,0.115,0.115,1.168,1.136,,,,,,,,,,,,,0,,,Not running,,,,,,,,,,,0.999800,0.009900,0.010200,0.000900,1.000000,0.000000,0.000000,0.000000,0.000,0.000,0.000,b6 00 00 00 00 00 00 0e 27 63 00 66 00 09 00 07 00 22
0.708,fused,,50,0x07,"IMU0_OK, IMU1_OK, FUSION_READY",0.080000,-0.007200,0.020600,0.996500,170.839,170.839,1.011,2.287,,,,,,,,,,,,,0,,,Not running,,,,,,,,,,,0.999800,0.009900,0.010200,0.000900,0.081032,-0.018139,0.029656,0.996105,170.765,2.347,3.221,b6 00 00 00 00 00 00 20 03 b8 ff ce 00 ed 26 07 32 54
0.709,fused,,0,0x07,"IMU0_OK, IMU1_OK, FUSION_READY",0.999800,0.009900,0.010200,0.000900,0.115,0.115,1.168,1.136,,,,,,,,,,,,,0,,,Not running,,,,,,,,,,,0.999800,0.009900,0.010200,0.000900,1.000000,0.000000,0.000000,0.000000,0.000,0.000,0.000,b6 00 00 00 00 00 00 0e 27 63 00 66 00 09 00 07 00 22
0.709,fused,,50,0x07,"IMU0_OK, IMU1_OK, FUSION_READY",0.080100,-0.007200,0.020600,0.996500,170.828,170.828,1.011,2.287,,,,,,,,,,,,,0,,,Not running,,,,,,,,,,,0.999800,0.009900,0.010200,0.000900,0.081132,-0.018140,0.029655,0.996097,170.753,2.347,3.221,b6 00 00 00 00 00 00 21 03 b8 ff ce 00 ed 26 07 32 55
0.710,fused,,0,0x07,"IMU0_OK, IMU1_OK, FUSION_READY",0.999800,0.009900,0.010200,0.000900,0.115,0.115,1.168,1.136,,,,,,,,,,,,,0,,,Not running,,,,,,,,,,,0.999800,0.009900,0.010200,0.000900,1.000000,0.000000,0.000000,0.000000,0.000,0.000,0.000,b6 00 00 00 00 00 00 0e 27 63 00 66 00 09 00 07 00 22
0.710,fused,,50,0x07,"IMU0_OK, IMU1_OK, FUSION_READY",0.080100,-0.007200,0.020600,0.996500,170.828,170.828,1.011,2.287,,,,,,,,,,,,,0,,,Not running,,,,,,,,,,,0.999800,0.009900,0.010200,0.000900,0.081132,-0.018140,0.029655,0.996097,170.753,2.347,3.221,b6 00 00 00 00 00 00 21 03 b8 ff ce 00 ed 26 07 32 55
0.772,fused,,0,0x07,"IMU0_OK, IMU1_OK, FUSION_READY",0.999800,0.009900,0.010200,0.000900,0.115,0.115,1.168,1.136,,,,,,,,,,,,,0,,,Not running,,,,,,,,,,,0.999800,0.009900,0.010200,0.000900,1.000000,0.000000,0.000000,0.000000,0.000,0.000,0.000,b6 00 00 00 00 00 00 0e 27 63 00 66 00 09 00 07 00 22
0.773,fused,,50,0x07,"IMU0_OK, IMU1_OK, FUSION_READY",0.080100,-0.007200,0.020600,0.996500,170.828,170.828,1.011,2.287,,,,,,,,,,,,,0,,,Not running,,,,,,,,,,,0.999800,0.009900,0.010200,0.000900,0.081132,-0.018140,0.029655,0.996097,170.753,2.347,3.221,b6 00 00 00 00 00 00 21 03 b8 ff ce 00 ed 26 07 32 55
0.774,fused,,0,0x07,"IMU0_OK, IMU1_OK, FUSION_READY",0.999800,0.009900,0.010200,0.000900,0.115,0.115,1.168,1.136,,,,,,,,,,,,,0,,,Not running,,,,,,,,,,,0.999800,0.009900,0.010200,0.000900,1.000000,0.000000,0.000000,0.000000,0.000,0.000,0.000,b6 00 00 00 00 00 00 0e 27 63 00 66 00 09 00 07 00 22
0.774,fused,,50,0x07,"IMU0_OK, IMU1_OK, FUSION_READY",0.080100,-0.007200,0.020600,0.996500,170.828,170.828,1.011,2.287,,,,,,,,,,,,,0,,,Not running,,,,,,,,,,,0.999800,0.009900,0.010200,0.000900,0.081132,-0.018140,0.029655,0.996097,170.753,2.347,3.221,b6 00 00 00 00 00 00 21 03 b8 ff ce 00 ed 26 07 32 55
0.775,fused,,0,0x07,"IMU0_OK, IMU1_OK, FUSION_READY",0.999800,0.009900,0.010200,0.000900,0.115,0.115,1.168,1.136,,,,,,,,,,,,,0,,,Not running,,,,,,,,,,,0.999800,0.009900,0.010200,0.000900,1.000000,0.000000,0.000000,0.000000,0.000,0.000,0.000,b6 00 00 00 00 00 00 0e 27 63 00 66 00 09 00 07 00 22
0.775,fused,,50,0x07,"IMU0_OK, IMU1_OK, FUSION_READY",0.080100,-0.007200,0.020600,0.996500,170.828,170.828,1.011,2.287,,,,,,,,,,,,,0,,,Not running,,,,,,,,,,,0.999800,0.009900,0.010200,0.000900,0.081132,-0.018140,0.029655,0.996097,170.753,2.347,3.221,b6 00 00 00 00 00 00 21 03 b8 ff ce 00 ed 26 07 32 55
0.776,fused,,0,0x07,"IMU0_OK, IMU1_OK, FUSION_READY",0.999800,0.009900,0.010200,0.000900,0.115,0.115,1.168,1.136,,,,,,,,,,,,,0,,,Not running,,,,,,,,,,,0.999800,0.009900,0.010200,0.000900,1.000000,0.000000,0.000000,0.000000,0.000,0.000,0.000,b6 00 00 00 00 00 00 0e 27 63 00 66 00 09 00 07 00 22
0.776,fused,,50,0x07,"IMU0_OK, IMU1_OK, FUSION_READY",0.080100,-0.007300,0.020600,0.996500,170.828,170.828,1.023,2.286,,,,,,,,,,,,,0,,,Not running,,,,,,,,,,,0.999800,0.009900,0.010200,0.000900,0.081130,-0.018240,0.029655,0.996095,170.754,2.358,3.220,b6 00 00 00 00 00 00 21 03 b7 ff ce 00 ed 26 07 32 5a
0.777,fused,,0,0x07,"IMU0_OK, IMU1_OK, FUSION_READY",0.999800,0.009800,0.010200,0.000900,0.115,0.115,1.168,1.124,,,,,,,,,,,,,0,,,Not running,,,,,,,,,,,0.999800,0.009800,0.010200,0.000900,1.000000,0.000000,0.000000,0.000000,0.000,0.000,0.000,b6 00 00 00 00 00 00 0e 27 62 00 66 00 09 00 07 00 23
0.777,fused,,50,0x07,"IMU0_OK, IMU1_OK, FUSION_READY",0.080100,-0.007300,0.020600,0.996500,170.828,170.828,1.023,2.286,,,,,,,,,,,,,0,,,Not running,,,,,,,,,,,0.999800,0.009800,0.010200,0.000900,0.081131,-0.018232,0.029555,0.996098,170.753,2.357,3.208,b6 00 00 00 00 00 00 21 03 b7 ff ce 00 ed 26 07 32 5a
0.778,fused,,0,0x07,"IMU0_OK, IMU1_OK, FUSION_READY",0.999800,0.009800,0.010200,0.000900,0.115,0.115,1.168,1.124,,,,,,,,,,,,,0,,,Not running,,,,,,,,,,,0.999800,0.009800,0.010200,0.000900,1.000000,0.000000,0.000000,0.000000,0.000,0.000,0.000,b6 00 00 00 00 00 00 0e 27 62 00 66 00 09 00 07 00 23
0.778,fused,,50,0x07,"IMU0_OK, IMU1_OK, FUSION_READY",0.080100,-0.007300,0.020600,0.996500,170.828,170.828,1.023,2.286,,,,,,,,,,,,,0,,,Not running,,,,,,,,,,,0.999800,0.009800,0.010200,0.000900,0.081131,-0.018232,0.029555,0.996098,170.753,2.357,3.208,b6 00 00 00 00 00 00 21 03 b7 ff ce 00 ed 26 07 32 5a
0.779,fused,,0,0x07,"IMU0_OK, IMU1_OK, FUSION_READY",0.999800,0.009800,0.010200,0.000900,0.115,0.115,1.168,1.124,,,,,,,,,,,,,0,,,Not running,,,,,,,,,,,0.999800,0.009800,0.010200,0.000900,1.000000,0.000000,0.000000,0.000000,0.000,0.000,0.000,b6 00 00 00 00 00 00 0e 27 62 00 66 00 09 00 07 00 23
0.779,fused,,50,0x07,"IMU0_OK, IMU1_OK, FUSION_READY",0.080100,-0.007300,0.020600,0.996500,170.828,170.828,1.023,2.286,,,,,,,,,,,,,0,,,Not running,,,,,,,,,,,0.999800,0.009800,0.010200,0.000900,0.081131,-0.018232,0.029555,0.996098,170.753,2.357,3.208,b6 00 00 00 00 00 00 21 03 b7 ff ce 00 ed 26 07 32 5a
0.780,fused,,0,0x07,"IMU0_OK, IMU1_OK, FUSION_READY",0.999800,0.009800,0.010200,0.000900,0.115,0.115,1.168,1.124,,,,,,,,,,,,,0,,,Not running,,,,,,,,,,,0.999800,0.009800,0.010200,0.000900,1.000000,0.000000,0.000000,0.000000,0.000,0.000,0.000,b6 00 00 00 00 00 00 0e 27 62 00 66 00 09 00 07 00 23
0.830,fused,,50,0x07,"IMU0_OK, IMU1_OK, FUSION_READY",0.080100,-0.007300,0.020600,0.996500,170.828,170.828,1.023,2.286,,,,,,,,,,,,,0,,,Not running,,,,,,,,,,,0.999800,0.009800,0.010200,0.000900,0.081131,-0.018232,0.029555,0.996098,170.753,2.357,3.208,b6 00 00 00 00 00 00 21 03 b7 ff ce 00 ed 26 07 32 5a
0.831,fused,,0,0x07,"IMU0_OK, IMU1_OK, FUSION_READY",0.999800,0.009800,0.010200,0.000900,0.115,0.115,1.168,1.124,,,,,,,,,,,,,0,,,Not running,,,,,,,,,,,0.999800,0.009800,0.010200,0.000900,1.000000,0.000000,0.000000,0.000000,0.000,0.000,0.000,b6 00 00 00 00 00 00 0e 27 62 00 66 00 09 00 07 00 23
0.832,fused,,50,0x07,"IMU0_OK, IMU1_OK, FUSION_READY",0.080100,-0.007300,0.020600,0.996500,170.828,170.828,1.023,2.286,,,,,,,,,,,,,0,,,Not running,,,,,,,,,,,0.999800,0.009800,0.010200,0.000900,0.081131,-0.018232,0.029555,0.996098,170.753,2.357,3.208,b6 00 00 00 00 00 00 21 03 b7 ff ce 00 ed 26 07 32 5a
0.832,fused,,0,0x07,"IMU0_OK, IMU1_OK, FUSION_READY",0.999800,0.009800,0.010200,0.000900,0.115,0.115,1.168,1.124,,,,,,,,,,,,,0,,,Not running,,,,,,,,,,,0.999800,0.009800,0.010200,0.000900,1.000000,0.000000,0.000000,0.000000,0.000,0.000,0.000,b6 00 00 00 00 00 00 0e 27 62 00 66 00 09 00 07 00 23
0.833,fused,,50,0x07,"IMU0_OK, IMU1_OK, FUSION_READY",0.080100,-0.007400,0.020600,0.996500,170.829,170.829,1.034,2.285,,,,,,,,,,,,,0,,,Not running,,,,,,,,,,,0.999800,0.009800,0.010200,0.000900,0.081130,-0.018332,0.029556,0.996097,170.754,2.368,3.208,b6 00 00 00 00 00 00 21 03 b6 ff ce 00 ed 26 07 32 5b
0.833,fused,,0,0x07,"IMU0_OK, IMU1_OK, FUSION_READY",0.999800,0.009800,0.010200,0.000900,0.115,0.115,1.168,1.124,,,,,,,,,,,,,0,,,Not running,,,,,,,,,,,0.999800,0.009800,0.010200,0.000900,1.000000,0.000000,0.000000,0.000000,0.000,0.000,0.000,b6 00 00 00 00 00 00 0e 27 62 00 66 00 09 00 07 00 23
0.834,fused,,50,0x07,"IMU0_OK, IMU1_OK, FUSION_READY",0.080100,-0.007400,0.020600,0.996500,170.829,170.829,1.034,2.285,,,,,,,,,,,,,0,,,Not running,,,,,,,,,,,0.999800,0.009800,0.010200,0.000900,0.081130,-0.018332,0.029556,0.996097,170.754,2.368,3.208,b6 00 00 00 00 00 00 21 03 b6 ff ce 00 ed 26 07 32 5b
0.834,fused,,0,0x07,"IMU0_OK, IMU1_OK, FUSION_READY",0.999800,0.009800,0.010200,0.000900,0.115,0.115,1.168,1.124,,,,,,,,,,,,,0,,,Not running,,,,,,,,,,,0.999800,0.009800,0.010200,0.000900,1.000000,0.000000,0.000000,0.000000,0.000,0.000,0.000,b6 00 00 00 00 00 00 0e 27 62 00 66 00 09 00 07 00 23
0.835,fused,,50,0x07,"IMU0_OK, IMU1_OK, FUSION_READY",0.080100,-0.007300,0.020600,0.996500,170.828,170.828,1.023,2.286,,,,,,,,,,,,,0,,,Not running,,,,,,,,,,,0.999800,0.009800,0.010200,0.000900,0.081131,-0.018232,0.029555,0.996098,170.753,2.357,3.208,b6 00 00 00 00 00 00 21 03 b7 ff ce 00 ed 26 07 32 5a
0.835,fused,,0,0x07,"IMU0_OK, IMU1_OK, FUSION_READY",0.999800,0.009900,0.010200,0.000900,0.115,0.115,1.168,1.136,,,,,,,,,,,,,0,,,Not running,,,,,,,,,,,0.999800,0.009900,0.010200,0.000900,1.000000,0.000000,0.000000,0.000000,0.000,0.000,0.000,b6 00 00 00 00 00 00 0e 27 63 00 66 00 09 00 07 00 22
0.836,fused,,50,0x07,"IMU0_OK, IMU1_OK, FUSION_READY",0.080100,-0.007300,0.020600,0.996500,170.828,170.828,1.023,2.286,,,,,,,,,,,,,0,,,Not running,,,,,,,,,,,0.999800,0.009900,0.010200,0.000900,0.081130,-0.018240,0.029655,0.996095,170.754,2.358,3.220,b6 00 00 00 00 00 00 21 03 b7 ff ce 00 ed 26 07 32 5a
0.836,fused,,0,0x07,"IMU0_OK, IMU1_OK, FUSION_READY",0.999800,0.009900,0.010300,0.000900,0.115,0.115,1.179,1.136,,,,,,,,,,,,,0,,,Not running,,,,,,,,,,,0.999800,0.009900,0.010300,0.000900,1.000000,0.000000,0.000000,0.000000,0.000,0.000,0.000,b6 00 00 00 00 00 00 0e 27 63 00 67 00 09 00 07 00 23
0.837,fused,,50,0x07,"IMU0_OK, IMU1_OK, FUSION_READY",0.080100,-0.007300,0.020600,0.996500,170.828,170.828,1.023,2.286,,,,,,,,,,,,,0,,,Not running,,,,,,,,,,,0.999800,0.009900,0.010300,0.000900,0.081132,-0.018340,0.029647,0.996093,170.754,2.370,3.218,b6 00 00 00 00 00 00 21 03 b7 ff ce 00 ed 26 07 32 5a
0.837,fused,,0,0x07,"IMU0_OK, IMU1_OK, FUSION_READY",0.999800,0.009900,0.010300,0.000900,0.115,0.115,1.179,1.136,,,,,,,,,,,,,0,,,Not running,,,,,,,,,,,0.999800,0.009900,0.010300,0.000900,1.000000,0.000000,0.000000,0.000000,0.000,0.000,0.000,b6 00 00 00 00 00 00 0e 27 63 00 67 00 09 00 07 00 23
0.966,fused,,50,0x07,"IMU0_OK, IMU1_OK, FUSION_READY",0.080100,-0.007300,0.020600,0.996500,170.828,170.828,1.023,2.286,,,,,,,,,,,,,0,,,Not running,,,,,,,,,,,0.999800,0.009900,0.010300,0.000900,0.081132,-0.018340,0.029647,0.996093,170.754,2.370,3.218,b6 00 00 00 00 00 00 21 03 b7 ff ce 00 ed 26 07 32 5a
0.967,fused,,0,0x07,"IMU0_OK, IMU1_OK, FUSION_READY",0.999800,0.009900,0.010200,0.001000,0.126,0.126,1.168,1.136,,,,,,,,,,,,,0,,,Not running,,,,,,,,,,,0.999800,0.009900,0.010200,0.001000,1.000000,0.000000,-0.000000,0.000000,0.000,-0.000,0.000,b6 00 00 00 00 00 00 0e 27 63 00 66 00 0a 00 07 00 21
0.967,fused,,50,0x07,"IMU0_OK, IMU1_OK, FUSION_READY",0.080100,-0.007300,0.020600,0.996500,170.828,170.828,1.023,2.286,,,,,,,,,,,,,0,,,Not running,,,,,,,,,,,0.999800,0.009900,0.010200,0.001000,0.081230,-0.018238,0.029656,0.996087,170.742,2.358,3.220,b6 00 00 00 00 00 00 21 03 b7 ff ce 00 ed 26 07 32 5a
0.968,fused,,0,0x07,"IMU0_OK, IMU1_OK, FUSION_READY",0.999800,0.009800,0.010200,0.001000,0.126,0.126,1.168,1.124,,,,,,,,,,,,,0,,,Not running,,,,,,,,,,,0.999800,0.009800,0.010200,0.001000,1.000000,0.000000,-0.000000,0.000000,0.000,-0.000,0.000,b6 00 00 00 00 00 00 0e 27 62 00 66 00 0a 00 07 00 20
0.968,fused,,50,0x07,"IMU0_OK, IMU1_OK, FUSION_READY",0.080200,-0.007300,0.020600,0.996500,170.817,170.817,1.023,2.286,,,,,,,,,,,,,0,,,Not running,,,,,,,,,,,0.999800,0.009800,0.010200,0.001000,0.081330,-0.018231,0.029555,0.996082,170.730,2.357,3.208,b6 00 00 00 00 00 00 22 03 b7 ff ce 00 ed 26 07 32 59
0.969,fused,,0,0x07,"IMU0_OK, IMU1_OK, FUSION_READY",0.999800,0.009800,0.010200,0.001000,0.126,0.126,1.168,1.124,,,,,,,,,,,,,0,,,Not running,,,,,,,,,,,0.999800,0.009800,0.010200,0.001000,1.000000,0.000000,-0.000000,0.000000,0.000,-0.000,0.000,b6 00 00 00 00 00 00 0e 27 62 00 66 00 0a 00 07 00 20
0.969,fused,,50,0x07,"IMU0_OK, IMU1_OK, FUSION_READY",0.080200,-0.007300,0.020500,0.996500,170.817,170.817,1.022,2.275,,,,,,,,,,,,,0,,,Not running,,,,,,,,,,,0.999800,0.009800,0.010200,0.001000,0.081329,-0.018231,0.029455,0.996085,170.730,2.356,3.197,b6 00 00 00 00 00 00 22 03 b7 ff cd 00 ed 26 07 32 5a
0.970,fused,,0,0x07,"IMU0_OK, IMU1_OK, FUSION_READY",0.999800,0.009800,0.010200,0.001000,0.126,0.126,1.168,1.124,,,,,,,,,,,,,0,,,Not running,,,,,,,,,,,0.999800,0.009800,0.010200,0.001000,1.000000,0.000000,-0.000000,0.000000,0.000,-0.000,0.000,b6 00 00 00 00 00 00 0e 27 62 00 66 00 0a 00 07 00 20
0.970,fused,,50,0x07,"IMU0_OK, IMU1_OK, FUSION_READY",0.080200,-0.007300,0.020500,0.996500,170.817,170.817,1.022,2.275,,,,,,,,,,,,,0,,,Not running,,,,,,,,,,,0.999800,0.009800,0.010200,0.001000,0.081329,-0.018231,0.029455,0.996085,170.730,2.356,3.197,b6 00 00 00 00 00 00 22 03 b7 ff cd 00 ed 26 07 32 5a
0.971,fused,,0,0x07,"IMU0_OK, IMU1_OK, FUSION_READY",0.999800,0.009800,0.010200,0.001000,0.126,0.126,1.168,1.124,,,,,,,,,,,,,0,,,Not running,,,,,,,,,,,0.999800,0.009800,0.010200,0.001000,1.000000,0.000000,-0.000000,0.000000,0.000,-0.000,0.000,b6 00 00 00 00 00 00 0e 27 62 00 66 00 0a 00 07 00 20
0.971,fused,,50,0x07,"IMU0_OK, IMU1_OK, FUSION_READY",0.080200,-0.007300,0.020500,0.996500,170.817,170.817,1.022,2.275,,,,,,,,,,,,,0,,,Not running,,,,,,,,,,,0.999800,0.009800,0.010200,0.001000,0.081329,-0.018231,0.029455,0.996085,170.730,2.356,3.197,b6 00 00 00 00 00 00 22 03 b7 ff cd 00 ed 26 07 32 5a
0.971,fused,,0,0x07,"IMU0_OK, IMU1_OK, FUSION_READY",0.999800,0.009800,0.010200,0.001000,0.126,0.126,1.168,1.124,,,,,,,,,,,,,0,,,Not running,,,,,,,,,,,0.999800,0.009800,0.010200,0.001000,1.000000,0.000000,-0.000000,0.000000,0.000,-0.000,0.000,b6 00 00 00 00 00 00 0e 27 62 00 66 00 0a 00 07 00 20
