time_s,protocol,sequence,node_id,status_hex,status_bits,quat_w,quat_x,quat_y,quat_z,yaw_deg,yaw_unwrapped_deg,pitch_deg,roll_deg,imu0_accel_x_mg,imu0_accel_y_mg,imu0_accel_z_mg,imu0_gyro_x_dps,imu0_gyro_y_dps,imu0_gyro_z_dps,imu1_accel_x_mg,imu1_accel_y_mg,imu1_accel_z_mg,imu1_gyro_x_dps,imu1_gyro_y_dps,imu1_gyro_z_dps,guided_test_active,guided_test_step,guided_test_step_label,guided_test_step_status,guided_test_elapsed_s,guided_test_target_node,guided_test_target_label,guided_test_error_deg,guided_test_reference_node,guided_test_reference_label,palm_ref_quat_w,palm_ref_quat_x,palm_ref_quat_y,palm_ref_quat_z,palm_live_quat_w,palm_live_quat_x,palm_live_quat_y,palm_live_quat_z,relative_to_palm_quat_w,relative_to_palm_quat_x,relative_to_palm_quat_y,relative_to_palm_quat_z,relative_to_palm_yaw_deg,relative_to_palm_pitch_deg,relative_to_palm_roll_deg,raw_frame_hex
0.000,fused,,0,0x07,"IMU0_OK, IMU1_OK, FUSION_READY",0.999100,0.016200,0.035200,0.017000,2.017,2.017,4.002,1.928,,,,,,,,,,,,,0,,,Not running,,,,,,,,,,,0.999100,0.016200,0.035200,0.017000,1.000000,0.000000,-0.000000,0.000000,0.000,-0.000,0.000,b6 00 00 00 00 00 00 07 27 a2 00 60 01 aa 00 07 00 4e
0.001,fused,,40,0x07,"IMU0_OK, IMU1_OK, FUSION_READY",0.842600,0.003100,0.021100,-0.538000,-65.129,-65.129,2.229,-1.002,,,,,,,,,,,,,0,,,Not running,,,,,,,,,,,0.999100,0.016200,0.035200,0.017000,0.833545,0.008744,-0.017348,-0.552110,-67.057,-1.104,1.933,b6 00 00 00 00 00 00 ea 20 1f 00 d3 00 fc ea 07 28 3f
0.001,fused,,0,0x07,"IMU0_OK, IMU1_OK, FUSION_READY",0.999100,0.016200,0.035200,0.017000,2.017,2.017,4.002,1.928,,,,,,,,,,,,,0,,,Not running,,,,,,,,,,,0.999100,0.016200,0.035200,0.017000,1.000000,0.000000,-0.000000,0.000000,0.000,-0.000,0.000,b6 00 00 00 00 00 00 07 27 a2 00 60 01 aa 00 07 00 4e
0.002,fused,,40,0x07,"IMU0_OK, IMU1_OK, FUSION_READY",0.842600,0.003100,0.021100,-0.538000,-65.129,-65.129,2.229,-1.002,,,,,,,,,,,,,0,,,Not running,,,,,,,,,,,0.999100,0.016200,0.035200,0.017000,0.833545,0.008744,-0.017348,-0.552110,-67.057,-1.104,1.933,b6 00 00 00 00 00 00 ea 20 1f 00 d3 00 fc ea 07 28 3f
0.002,fused,,0,0x07,"IMU0_OK, IMU1_OK, FUSION_READY",0.999100,0.016100,0.035200,0.017000,2.017,2.017,4.002,1.917,,,,,,,,,,,,,0,,,Not running,,,,,,,,,,,0.999100,0.016100,0.035200,0.017000,1.000000,0.000000,-0.000000,0.000000,0.000,-0.000,0.000,b6 00 00 00 00 00 00 07 27 a1 00 60 01 aa 00 07 00 4d
0.003,fused,,40,0x07,"IMU0_OK, IMU1_OK, FUSION_READY",0.842600,0.003100,0.021100,-0.538000,-65.129,-65.129,2.229,-1.002,,,,,,,,,,,,,0,,,Not running,,,,,,,,,,,0.999100,0.016100,0.035200,0.017000,0.833546,0.008828,-0.017294,-0.552109,-67.056,-1.093,1.938,b6 00 00 00 00 00 00 ea 20 1f 00 d3 00 fc ea 07 28 3f
0.003,fused,,0,0x07,"IMU0_OK, IMU1_OK, FUSION_READY",0.999100,0.016100,0.035200,0.017000,2.017,2.017,4.002,1.917,,,,,,,,,,,,,0,,,Not running,,,,,,,,,,,0.999100,0.016100,0.035200,0.017000,1.000000,0.000000,-0.000000,0.000000,0.000,-0.000,0.000,b6 00 00 00 00 00 00 07 27 a1 00 60 01 aa 00 07 00 4d
0.004,fused,,40,0x07,"IMU0_OK, IMU1_OK, FUSION_READY",0.842600,0.003100,0.021100,-0.537900,-65.114,-65.114,2.229,-1.002,,,,,,,,,,,,,0,,,Not running,,,,,,,,,,,0.999100,0.016100,0.035200,0.017000,0.833593,0.008825,-0.017294,-0.552039,-67.047,-1.094,1.938,b6 00 00 00 00 00 00 ea 20 1f 00 d3 00 fd ea 07 28 3e
0.004,fused,,0,0x07,"IMU0_OK, IMU1_OK, FUSION_READY",0.999100,0.016100,0.035200,0.017000,2.017,2.017,4.002,1.917,,,,,,,,,,,,,0,,,Not running,,,,,,,,,,,0.999100,0.016100,0.035200,0.017000,1.000000,0.000000,-0.000000,0.000000,0.000,-0.000,0.000,b6 00 00 00 00 00 00 07 27 a1 00 60 01 aa 00 07 00 4d
0.004,fused,,40,0x07,"IMU0_OK, IMU1_OK, FUSION_READY",0.842600,0.003100,0.021100,-0.537900,-65.114,-65.114,2.229,-1.002,,,,,,,,,,,,,0,,,Not running,,,,,,,,,,,0.999100,0.016100,0.035200,0.017000,0.833593,0.008825,-0.017294,-0.552039,-67.047,-1.094,1.938,b6 00 00 00 00 00 00 ea 20 1f 00 d3 00 fd ea 07 28 3e
0.005,fused,,0,0x07,"IMU0_OK, IMU1_OK, FUSION_READY",0.999100,0.016100,0.035200,0.017000,2.017,2.017,4.002,1.917,,,,,,,,,,,,,0,,,Not running,,,,,,,,,,,0.999100,0.016100,0.035200,0.017000,1.000000,0.000000,-0.000000,0.000000,0.000,-0.000,0.000,b6 00 00 00 00 00 00 07 27 a1 00 60 01 aa 00 07 00 4d
0.005,fused,,40,0x07,"IMU0_OK, IMU1_OK, FUSION_READY",0.842700,0.003100,0.021200,-0.537900,-65.117,-65.117,2.239,-1.008,,,,,,,,,,,,,0,,,Not running,,,,,,,,,,,0.999100,0.016100,0.035200,0.017000,0.833624,0.008825,-0.017196,-0.551994,-67.040,-1.085,1.931,b6 00 00 00 00 00 00 eb 20 1f 00 d4 00 fd ea 07 28 38
0.006,fused,,0,0x07,"IMU0_OK, IMU1_OK, FUSION_READY",0.999100,0.016100,0.035200,0.017000,2.017,2.017,4.002,1.917,,,,,,,,,,,,,0,,,Not running,,,,,,,,,,,0.999100,0.016100,0.035200,0.017000,1.000000,0.000000,-0.000000,0.000000,0.000,-0.000,0.000,b6 00 00 00 00 00 00 07 27 a1 00 60 01 aa 00 07 00 4d
0.006,fused,,40,0x07,"IMU0_OK, IMU1_OK, FUSION_READY",0.842700,0.003100,0.021200,-0.537900,-65.117,-65.117,2.239,-1.008,,,,,,,,,,,,,0,,,Not running,,,,,,,,,,,0.999100,0.016100,0.035200,0.017000,0.833624,0.008825,-0.017196,-0.551994,-67.040,-1.085,1.931,b6 00 00 00 00 00 00 eb 20 1f 00 d4 00 fd ea 07 28 38
0.007,fused,,0,0x07,"IMU0_OK, IMU1_OK, FUSION_READY",0.999100,0.016100,0.035200,0.017000,2.017,2.017,4.002,1.917,,,,,,,,,,,,,0,,,Not running,,,,,,,,,,,0.999100,0.016100,0.035200,0.017000,1.000000,0.000000,-0.000000,0.000000,0.000,-0.000,0.000,b6 00 00 00 00 00 00 07 27 a1 00 60 01 aa 00 07 00 4d
0.007,fused,,40,0x07,"IMU0_OK, IMU1_OK, FUSION_READY",0.842700,0.003100,0.021200,-0.537900,-65.117,-65.117,2.239,-1.008,,,,,,,,,,,,,0,,,Not running,,,,,,,,,,,0.999100,0.016100,0.035200,0.017000,0.833624,0.008825,-0.017196,-0.551994,-67.040,-1.085,1.931,b6 00 00 00 00 00 00 eb 20 1f 00 d4 00 fd ea 07 28 38
0.008,fused,,0,0x07,"IMU0_OK, IMU1_OK, FUSION_READY",0.999100,0.016100,0.035200,0.017000,2.017,2.017,4.002,1.917,,,,,,,,,,,,,0,,,Not running,,,,,,,,,,,0.999100,0.016100,0.035200,0.017000,1.000000,0.000000,-0.000000,0.000000,0.000,-0.000,0.000,b6 00 00 00 00 00 00 07 27 a1 00 60 01 aa 00 07 00 4d
0.008,fused,,40,0x07,"IMU0_OK, IMU1_OK, FUSION_READY",0.842700,0.003100,0.021100,-0.537900,-65.117,-65.117,2.229,-1.002,,,,,,,,,,,,,0,,,Not running,,,,,,,,,,,0.999100,0.016100,0.035200,0.017000,0.833622,0.008823,-0.017296,-0.551994,-67.041,-1.094,1.938,b6 00 00 00 00 00 00 eb 20 1f 00 d3 00 fd ea 07 28 3f
0.009,fused,,0,0x07,"IMU0_OK, IMU1_OK, FUSION_READY",0.999100,0.016100,0.035200,0.017100,2.028,2.028,4.002,1.917,,,,,,,,,,,,,0,,,Not running,,,,,,,,,,,0.999100,0.016100,0.035200,0.017100,1.000000,0.000000,-0.000000,0.000000,0.000,-0.000,0.000,b6 00 00 00 00 00 00 07 27 a1 00 60 01 ab 00 07 00 4c
0.009,fused,,40,0x07,"IMU0_OK, IMU1_OK, FUSION_READY",0.842700,0.003100,0.021100,-0.537800,-65.101,-65.101,2.229,-1.002,,,,,,,,,,,,,0,,,Not running,,,,,,,,,,,0.999100,0.016100,0.035200,0.017100,0.833614,0.008822,-0.017295,-0.552007,-67.042,-1.094,1.937,b6 00 00 00 00 00 00 eb 20 1f 00 d3 00 fe ea 07 28 3c
0.009,fused,,0,0x07,"IMU0_OK, IMU1_OK, FUSION_READY",0.999100,0.016100,0.035200,0.017000,2.017,2.017,4.002,1.917,,,,,,,,,,,,,0,,,Not running,,,,,,,,,,,0.999100,0.016100,0.035200,0.017000,1.000000,0.000000,-0.000000,0.000000,0.000,-0.000,0.000,b6 00 00 00 00 00 00 07 27 a1 00 60 01 aa 00 07 00 4d
0.010,fused,,40,0x07,"IMU0_OK, IMU1_OK, FUSION_READY",0.842700,0.003100,0.021100,-0.537800,-65.101,-65.101,2.229,-1.002,,,,,,,,,,,,,0,,,Not running,,,,,,,,,,,0.999100,0.016100,0.035200,0.017000,0.833669,0.008820,-0.017295,-0.551924,-67.031,-1.094,1.937,b6 00 00 00 00 00 00 eb 20 1f 00 d3 00 fe ea 07 28 3c
0.010,fused,,0,0x07,"IMU0_OK, IMU1_OK, FUSION_READY",0.999100,0.016100,0.035200,0.017000,2.017,2.017,4.002,1.917,,,,,,,,,,,,,0,,,Not running,,,,,,,,,,,0.999100,0.016100,0.035200,0.017000,1.000000,0.000000,-0.000000,0.000000,0.000,-0.000,0.000,b6 00 00 00 00 00 00 07 27 a1 00 60 01 aa 00 07 00 4d
0.012,fused,,40,0x07,"IMU0_OK, IMU1_OK, FUSION_READY",0.842700,0.003100,0.021100,-0.537800,-65.101,-65.101,2.229,-1.002,,,,,,,,,,,,,0,,,Not running,,,,,,,,,,,0.999100,0.016100,0.035200,0.017000,0.833669,0.008820,-0.017295,-0.551924,-67.031,-1.094,1.937,b6 00 00 00 00 00 00 eb 20 1f 00 d3 00 fe ea 07 28 3c
0.012,fused,,0,0x07,"IMU0_OK, IMU1_OK, FUSION_READY",0.999100,0.016100,0.035100,0.017000,2.016,2.016,3.990,1.917,,,,,,,,,,,,,0,,,Not running,,,,,,,,,,,0.999100,0.016100,0.035100,0.017000,1.000000,0.000000,-0.000000,0.000000,0.000,-0.000,0.000,b6 00 00 00 00 00 00 07 27 a1 00 5f 01 aa 00 07 00 72
0.013,fused,,40,0x07,"IMU0_OK, IMU1_OK, FUSION_READY",0.842700,0.003200,0.021100,-0.537800,-65.101,-65.101,2.235,-0.992,,,,,,,,,,,,,0,,,Not running,,,,,,,,,,,0.999100,0.016100,0.035100,0.017000,0.833671,0.008866,-0.017212,-0.551922,-67.030,-1.084,1.936,b6 00 00 00 00 00 00 eb 20 20 00 d3 00 fe ea 07 28 03
0.013,fused,,0,0x07,"IMU0_OK, IMU1_OK, FUSION_READY",0.999100,0.016100,0.035100,0.017000,2.016,2.016,3.990,1.917,,,,,,,,,,,,,0,,,Not running,,,,,,,,,,,0.999100,0.016100,0.035100,0.017000,1.000000,0.000000,-0.000000,0.000000,0.000,-0.000,0.000,b6 00 00 00 00 00 00 07 27 a1 00 5f 01 aa 00 07 00 72
0.014,fused,,40,0x07,"IMU0_OK, IMU1_OK, FUSION_READY",0.842700,0.003200,0.021100,-0.537800,-65.101,-65.101,2.235,-0.992,,,,,,,,,,,,,0,,,Not running,,,,,,,,,,,0.999100,0.016100,0.035100,0.017000,0.833671,0.008866,-0.017212,-0.551922,-67.030,-1.084,1.936,b6 00 00 00 00 00 00 eb 20 20 00 d3 00 fe ea 07 28 03
0.071,fused,,0,0x07,"IMU0_OK, IMU1_OK, FUSION_READY",0.999100,0.016100,0.035100,0.017000,2.016,2.016,3.990,1.917,,,,,,,,,,,,,0,,,Not running,,,,,,,,,,,0.999100,0.016100,0.035100,0.017000,1.000000,0.000000,-0.000000,0.000000,0.000,-0.000,0.000,b6 00 00 00 00 00 00 07 27 a1 00 5f 01 aa 00 07 00 72
0.072,fused,,40,0x07,"IMU0_OK, IMU1_OK, FUSION_READY",0.842800,0.003200,0.021000,-0.537700,-65.088,-65.088,2.226,-0.986,,,,,,,,,,,,,0,,,Not running,,,,,,,,,,,0.999100,0.016100,0.035100,0.017000,0.833745,0.008859,-0.017314,-0.551807,-67.015,-1.094,1.942,b6 00 00 00 00 00 00 ec 20 20 00 d2 00 ff ea 07 28 04
0.073,fused,,0,0x07,"IMU0_OK, IMU1_OK, FUSION_READY",0.999100,0.016100,0.035100,0.017000,2.016,2.016,3.990,1.917,,,,,,,,,,,,,0,,,Not running,,,,,,,,,,,0.999100,0.016100,0.035100,0.017000,1.000000,0.000000,-0.000000,0.000000,0.000,-0.000,0.000,b6 00 00 00 00 00 00 07 27 a1 00 5f 01 aa 00 07 00 72
0.073,fused,,40,0x07,"IMU0_OK, IMU1_OK, FUSION_READY",0.842800,0.003200,0.021000,-0.537700,-65.088,-65.088,2.226,-0.986,,,,,,,,,,,,,0,,,Not running,,,,,,,,,,,0.999100,0.016100,0.035100,0.017000,0.833745,0.008859,-0.017314,-0.551807,-67.015,-1.094,1.942,b6 00 00 00 00 00 00 ec 20 20 00 d2 00 ff ea 07 28 04
0.074,fused,,0,0x07,"IMU0_OK, IMU1_OK, FUSION_READY",0.999100,0.016100,0.035200,0.017000,2.017,2.017,4.002,1.917,,,,,,,,,,,,,0,,,Not running,,,,,,,,,,,0.999100,0.016100,0.035200,0.017000,1.000000,0.000000,-0.000000,0.000000,0.000,-0.000,0.000,b6 00 00 00 00 00 00 07 27 a1 00 60 01 aa 00 07 00 4d
0.074,fused,,40,0x07,"IMU0_OK, IMU1_OK, FUSION_READY",0.842800,0.003200,0.021000,-0.537700,-65.088,-65.088,2.226,-0.986,,,,,,,,,,,,,0,,,Not running,,,,,,,,,,,0.999100,0.016100,0.035200,0.017000,0.833744,0.008913,-0.017398,-0.551804,-67.015,-1.099,1.952,b6 00 00 00 00 00 00 ec 20 20 00 d2 00 ff ea 07 28 04
0.075,fused,,0,0x07,"IMU0_OK, IMU1_OK, FUSION_READY",0.999100,0.016100,0.035200,0.017000,2.017,2.017,4.002,1.917,,,,,,,,,,,,,0,,,Not running,,,,,,,,,,,0.999100,0.016100,0.035200,0.017000,1.000000,0.000000,-0.000000,0.000000,0.000,-0.000,0.000,b6 00 00 00 00 00 00 07 27 a1 00 60 01 aa 00 07 00 4d
0.075,fused,,40,0x07,"IMU0_OK, IMU1_OK, FUSION_READY",0.842800,0.003200,0.021000,-0.537700,-65.088,-65.088,2.226,-0.986,,,,,,,,,,,,,0,,,Not running,,,,,,,,,,,0.999100,0.016100,0.035200,0.017000,0.833744,0.008913,-0.017398,-0.551804,-67.015,-1.099,1.952,b6 00 00 00 00 00 00 ec 20 20 00 d2 00 ff ea 07 28 04
0.077,fused,,0,0x07,"IMU0_OK, IMU1_OK, FUSION_READY",0.999100,0.016100,0.035200,0.017000,2.017,2.017,4.002,1.917,,,,,,,,,,,,,0,,,Not running,,,,,,,,,,,0.999100,0.016100,0.035200,0.017000,1.000000,0.000000,-0.000000,0.000000,0.000,-0.000,0.000,b6 00 00 00 00 00 00 07 27 a1 00 60 01 aa 00 07 00 4d
0.079,fused,,40,0x07,"IMU0_OK, IMU1_OK, FUSION_READY",0.842800,0.003300,0.021000,-0.537700,-65.088,-65.088,2.232,-0.976,,,,,,,,,,,,,0,,,Not running,,,,,,,,,,,0.999100,0.016100,0.035200,0.017000,0.833746,0.009013,-0.017400,-0.551801,-67.015,-1.093,1.962,b6 00 00 00 00 00 00 ec 20 21 00 d2 00 ff ea 07 28 05
0.080,fused,,0,0x07,"IMU0_OK, IMU1_OK, FUSION_READY",0.999100,0.016100,0.035200,0.017000,2.017,2.017,4.002,1.917,,,,,,,,,,,,,0,,,Not running,,,,,,,,,,,0.999100,0.016100,0.035200,0.017000,1.000000,0.000000,-0.000000,0.000000,0.000,-0.000,0.000,b6 00 00 00 00 00 00 07 27 a1 00 60 01 aa 00 07 00 4d
0.080,fused,,40,0x07,"IMU0_OK, IMU1_OK, FUSION_READY",0.842800,0.003300,0.021000,-0.537700,-65.088,-65.088,2.232,-0.976,,,,,,,,,,,,,0,,,Not running,,,,,,,,,,,0.999100,0.016100,0.035200,0.017000,0.833746,0.009013,-0.017400,-0.551801,-67.015,-1.093,1.962,b6 00 00 00 00 00 00 ec 20 21 00 d2 00 ff ea 07 28 05
0.081,fused,,0,0x07,"IMU0_OK, IMU1_OK, FUSION_READY",0.999100,0.016100,0.035200,0.017100,2.028,2.028,4.002,1.917,,,,,,,,,,,,,0,,,Not running,,,,,,,,,,,0.999100,0.016100,0.035200,0.017100,1.000000,0.000000,-0.000000,0.000000,0.000,-0.000,0.000,b6 00 00 00 00 00 00 07 27 a1 00 60 01 ab 00 07 00 4c
0.081,fused,,40,0x07,"IMU0_OK, IMU1_OK, FUSION_READY",0.842800,0.003300,0.021100,-0.537600,-65.073,-65.073,2.242,-0.982,,,,,,,,,,,,,0,,,Not running,,,,,,,,,,,0.999100,0.016100,0.035200,0.017100,0.833739,0.009013,-0.017299,-0.551814,-67.016,-1.083,1.956,b6 00 00 00 00 00 00 ec 20 21 00 d3 00 00 eb 07 28 fa
0.082,fused,,0,0x07,"IMU0_OK, IMU1_OK, FUSION_READY",0.999100,0.016100,0.035200,0.017100,2.028,2.028,4.002,1.917,,,,,,,,,,,,,0,,,Not running,,,,,,,,,,,0.999100,0.016100,0.035200,0.017100,1.000000,0.000000,-0.000000,0.000000,0.000,-0.000,0.000,b6 00 00 00 00 00 00 07 27 a1 00 60 01 ab 00 07 00 4c
0.137,fused,,40,0x07,"IMU0_OK, IMU1_OK, FUSION_READY",0.842800,0.003300,0.021100,-0.537600,-65.073,-65.073,2.242,-0.982,,,,,,,,,,,,,0,,,Not running,,,,,,,,,,,0.999100,0.016100,0.035200,0.017100,0.833739,0.009013,-0.017299,-0.551814,-67.016,-1.083,1.956,b6 00 00 00 00 00 00 ec 20 21 00 d3 00 00 eb 07 28 fa
0.138,fused,,0,0x07,"IMU0_OK, IMU1_OK, FUSION_READY",0.999100,0.016100,0.035200,0.017100,2.028,2.028,4.002,1.917,,,,,,,,,,,,,0,,,Not running,,,,,,,,,,,0.999100,0.016100,0.035200,0.017100,1.000000,0.000000,-0.000000,0.000000,0.000,-0.000,0.000,b6 00 00 00 00 00 00 07 27 a1 00 60 01 ab 00 07 00 4c
0.139,fused,,40,0x07,"IMU0_OK, IMU1_OK, FUSION_READY",0.842800,0.003200,0.021100,-0.537600,-65.073,-65.073,2.235,-0.992,,,,,,,,,,,,,0,,,Not running,,,,,,,,,,,0.999100,0.016100,0.035200,0.017100,0.833738,0.008913,-0.017298,-0.551818,-67.016,-1.089,1.946,b6 00 00 00 00 00 00 ec 20 20 00 d3 00 00 eb 07 28 fb
0.139,fused,,0,0x07,"IMU0_OK, IMU1_OK, FUSION_READY",0.999100,0.016100,0.035200,0.017100,2.028,2.028,4.002,1.917,,,,,,,,,,,,,0,,,Not running,,,,,,,,,,,0.999100,0.016100,0.035200,0.017100,1.000000,0.000000,-0.000000,0.000000,0.000,-0.000,0.000,b6 00 00 00 00 00 00 07 27 a1 00 60 01 ab 00 07 00 4c
0.140,fused,,40,0x07,"IMU0_OK, IMU1_OK, FUSION_READY",0.842800,0.003200,0.021100,-0.537600,-65.073,-65.073,2.235,-0.992,,,,,,,,,,,,,0,,,Not running,,,,,,,,,,,0.999100,0.016100,0.035200,0.017100,0.833738,0.008913,-0.017298,-0.551818,-67.016,-1.089,1.946,b6 00 00 00 00 00 00 ec 20 20 00 d3 00 00 eb 07 28 fb
0.140,fused,,0,0x07,"IMU0_OK, IMU1_OK, FUSION_READY",0.999100,0.016100,0.035200,0.017100,2.028,2.028,4.002,1.917,,,,,,,,,,,,,0,,,Not running,,,,,,,,,,,0.999100,0.016100,0.035200,0.017100,1.000000,0.000000,-0.000000,0.000000,0.000,-0.000,0.000,b6 00 00 00 00 00 00 07 27 a1 00 60 01 ab 00 07 00 4c
0.141,fused,,40,0x07,"IMU0_OK, IMU1_OK, FUSION_READY",0.842900,0.003200,0.021100,-0.537600,-65.076,-65.076,2.236,-0.992,,,,,,,,,,,,,0,,,Not running,,,,,,,,,,,0.999100,0.016100,0.035200,0.017100,0.833767,0.008911,-0.017300,-0.551773,-67.010,-1.089,1.946,b6 00 00 00 00 00 00 ed 20 20 00 d3 00 00 eb 07 28 fa
0.141,fused,,0,0x07,"IMU0_OK, IMU1_OK, FUSION_READY",0.999100,0.016100,0.035200,0.017100,2.028,2.028,4.002,1.917,,,,,,,,,,,,,0,,,Not running,,,,,,,,,,,0.999100,0.016100,0.035200,0.017100,1.000000,0.000000,-0.000000,0.000000,0.000,-0.000,0.000,b6 00 00 00 00 00 00 07 27 a1 00 60 01 ab 00 07 00 4c
0.141,fused,,40,0x07,"IMU0_OK, IMU1_OK, FUSION_READY",0.842900,0.003200,0.021000,-0.537600,-65.076,-65.076,2.226,-0.985,,,,,,,,,,,,,0,,,Not running,,,,,,,,,,,0.999100,0.016100,0.035200,0.017100,0.833765,0.008909,-0.017400,-0.551773,-67.011,-1.099,1.952,b6 00 00 00 00 00 00 ed 20 20 00 d2 00 00 eb 07 28 fb
0.142,fused,,0,0x07,"IMU0_OK, IMU1_OK, FUSION_READY",0.999100,0.016100,0.035200,0.017100,2.028,2.028,4.002,1.917,,,,,,,,,,,,,0,,,Not running,,,,,,,,,,,0.999100,0.016100,0.035200,0.017100,1.000000,0.000000,-0.000000,0.000000,0.000,-0.000,0.000,b6 00 00 00 00 00 00 07 27 a1 00 60 01 ab 00 07 00 4c
0.142,fused,,40,0x07,"IMU0_OK, IMU1_OK, FUSION_READY",0.842900,0.003200,0.021000,-0.537500,-65.060,-65.060,2.226,-0.985,,,,,,,,,,,,,0,,,Not running,,,,,,,,,,,0.999100,0.016100,0.035200,0.017100,0.833812,0.008906,-0.017399,-0.551702,-67.001,-1.099,1.952,b6 00 00 00 00 00 00 ed 20 20 00 d2 00 01 eb 07 28 fa
0.143,fused,,0,0x07,"IMU0_OK, IMU1_OK, FUSION_READY",0.999100,0.016100,0.035200,0.017100,2.028,2.028,4.002,1.917,,,,,,,,,,,,,0,,,Not running,,,,,,,,,,,0.999100,0.016100,0.035200,0.017100,1.000000,0.000000,-0.000000,0.000000,0.000,-0.000,0.000,b6 00 00 00 00 00 00 07 27 a1 00 60 01 ab 00 07 00 4c
0.144,fused,,40,0x07,"IMU0_OK, IMU1_OK, FUSION_READY",0.842900,0.003300,0.021000,-0.537500,-65.060,-65.060,2.232,-0.975,,,,,,,,,,,,,0,,,Not running,,,,,,,,,,,0.999100,0.016100,0.035200,0.017100,0.833813,0.009006,-0.017401,-0.551699,-67.001,-1.093,1.961,b6 00 00 00 00 00 00 ed 20 21 00 d2 00 01 eb 07 28 fb
0.144,fused,,0,0x07,"IMU0_OK, IMU1_OK, FUSION_READY",0.999100,0.016100,0.035200,0.017100,2.028,2.028,4.002,1.917,,,,,,,,,,,,,0,,,Not running,,,,,,,,,,,0.999100,0.016100,0.035200,0.017100,1.000000,0.000000,-0.000000,0.000000,0.000,-0.000,0.000,b6 00 00 00 00 00 00 07 27 a1 00 60 01 ab 00 07 00 4c
0.250,fused,,40,0x07,"IMU0_OK, IMU1_OK, FUSION_READY",0.842900,0.003300,0.021000,-0.537500,-65.060,-65.060,2.232,-0.975,,,,,,,,,,,,,0,,,Not running,,,,,,,,,,,0.999100,0.016100,0.035200,0.017100,0.833813,0.009006,-0.017401,-0.551699,-67.001,-1.093,1.961,b6 00 00 00 00 00 00 ed 20 21 00 d2 00 01 eb 07 28 fb
0.250,fused,,0,0x07,"IMU0_OK, IMU1_OK, FUSION_READY",0.999100,0.016100,0.035200,0.017100,2.028,2.028,4.002,1.917,,,,,,,,,,,,,0,,,Not running,,,,,,,,,,,0.999100,0.016100,0.035200,0.017100,1.000000,0.000000,-0.000000,0.000000,0.000,-0.000,0.000,b6 00 00 00 00 00 00 07 27 a1 00 60 01 ab 00 07 00 4c
0.251,fused,,40,0x07,"IMU0_OK, IMU1_OK, FUSION_READY",0.842900,0.003300,0.021000,-0.537500,-65.060,-65.060,2.232,-0.975,,,,,,,,,,,,,0,,,Not running,,,,,,,,,,,0.999100,0.016100,0.035200,0.017100,0.833813,0.009006,-0.017401,-0.551699,-67.001,-1.093,1.961,b6 00 00 00 00 00 00 ed 20 21 00 d2 00 01 eb 07 28 fb
0.251,fused,,0,0x07,"IMU0_OK, IMU1_OK, FUSION_READY",0.999100,0.016100,0.035200,0.017100,2.028,2.028,4.002,1.917,,,,,,,,,,,,,0,,,Not running,,,,,,,,,,,0.999100,0.016100,0.035200,0.017100,1.000000,0.000000,-0.000000,0.000000,0.000,-0.000,0.000,b6 00 00 00 00 00 00 07 27 a1 00 60 01 ab 00 07 00 4c
0.252,fused,,40,0x07,"IMU0_OK, IMU1_OK, FUSION_READY",0.842900,0.003300,0.021000,-0.537500,-65.060,-65.060,2.232,-0.975,,,,,,,,,,,,,0,,,Not running,,,,,,,,,,,0.999100,0.016100,0.035200,0.017100,0.833813,0.009006,-0.017401,-0.551699,-67.001,-1.093,1.961,b6 00 00 00 00 00 00 ed 20 21 00 d2 00 01 eb 07 28 fb
0.252,fused,,0,0x07,"IMU0_OK, IMU1_OK, FUSION_READY",0.999100,0.016100,0.035200,0.017100,2.028,2.028,4.002,1.917,,,,,,,,,,,,,0,,,Not running,,,,,,,,,,,0.999100,0.016100,0.035200,0.017100,1.000000,0.000000,-0.000000,0.000000,0.000,-0.000,0.000,b6 00 00 00 00 00 00 07 27 a1 00 60 01 ab 00 07 00 4c
0.253,fused,,40,0x07,"IMU0_OK, IMU1_OK, FUSION_READY",0.842900,0.003300,0.021000,-0.537500,-65.060,-65.060,2.232,-0.975,,,,,,,,,,,,,0,,,Not running,,,,,,,,,,,0.999100,0.016100,0.035200,0.017100,0.833813,0.009006,-0.017401,-0.551699,-67.001,-1.093,1.961,b6 00 00 00 00 00 00 ed 20 21 00 d2 00 01 eb 07 28 fb
0.253,fused,,0,0x07,"IMU0_OK, IMU1_OK, FUSION_READY",0.999100,0.016100,0.035200,0.017100,2.028,2.028,4.002,1.917,,,,,,,,,,,,,0,,,Not running,,,,,,,,,,,0.999100,0.016100,0.035200,0.017100,1.000000,0.000000,-0.000000,0.000000,0.000,-0.000,0.000,b6 00 00 00 00 00 00 07 27 a1 00 60 01 ab 00 07 00 4c
0.254,fused,,40,0x07,"IMU0_OK, IMU1_OK, FUSION_READY",0.842900,0.003300,0.021000,-0.537500,-65.060,-65.060,2.232,-0.975,,,,,,,,,,,,,0,,,Not running,,,,,,,,,,,0.999100,0.016100,0.035200,0.017100,0.833813,0.009006,-0.017401,-0.551699,-67.001,-1.093,1.961,b6 00 00 00 00 00 00 ed 20 21 00 d2 00 01 eb 07 28 fb
0.254,fused,,0,0x07,"IMU0_OK, IMU1_OK, FUSION_READY",0.999100,0.016100,0.035200,0.017100,2.028,2.028,4.002,1.917,,,,,,,,,,,,,0,,,Not running,,,,,,,,,,,0.999100,0.016100,0.035200,0.017100,1.000000,0.000000,-0.000000,0.000000,0.000,-0.000,0.000,b6 00 00 00 00 00 00 07 27 a1 00 60 01 ab 00 07 00 4c
0.255,fused,,40,0x07,"IMU0_OK, IMU1_OK, FUSION_READY",0.843000,0.003300,0.021000,-0.537400,-65.048,-65.048,2.232,-0.975,,,,,,,,,,,,,0,,,Not running,,,,,,,,,,,0.999100,0.016100,0.035200,0.017100,0.833889,0.009001,-0.017402,-0.551584,-66.985,-1.094,1.961,b6 00 00 00 00 00 00 ee 20 21 00 d2 00 02 eb 07 28 fb
0.255,fused,,0,0x07,"IMU0_OK, IMU1_OK, FUSION_READY",0.999100,0.016100,0.035200,0.017100,2.028,2.028,4.002,1.917,,,,,,,,,,,,,0,,,Not running,,,,,,,,,,,0.999100,0.016100,0.035200,0.017100,1.000000,0.000000,-0.000000,0.000000,0.000,-0.000,0.000,b6 00 00 00 00 00 00 07 27 a1 00 60 01 ab 00 07 00 4c
0.256,fused,,40,0x07,"IMU0_OK, IMU1_OK, FUSION_READY",0.843000,0.003300,0.021000,-0.537400,-65.048,-65.048,2.232,-0.975,,,,,,,,,,,,,0,,,Not running,,,,,,,,,,,0.999100,0.016100,0.035200,0.017100,0.833889,0.009001,-0.017402,-0.551584,-66.985,-1.094,1.961,b6 00 00 00 00 00 00 ee 20 21 00 d2 00 02 eb 07 28 fb
0.256,fused,,0,0x07,"IMU0_OK, IMU1_OK, FUSION_READY",0.999100,0.016100,0.035200,0.017100,2.028,2.028,4.002,1.917,,,,,,,,,,,,,0,,,Not running,,,,,,,,,,,0.999100,0.016100,0.035200,0.017100,1.000000,0.000000,-0.000000,0.000000,0.000,-0.000,0.000,b6 00 00 00 00 00 00 07 27 a1 00 60 01 ab 00 07 00 4c
0.309,fused,,40,0x07,"IMU0_OK, IMU1_OK, FUSION_READY",0.843000,0.003300,0.021000,-0.537400,-65.048,-65.048,2.232,-0.975,,,,,,,,,,,,,0,,,Not running,,,,,,,,,,,0.999100,0.016100,0.035200,0.017100,0.833889,0.009001,-0.017402,-0.551584,-66.985,-1.094,1.961,b6 00 00 00 00 00 00 ee 20 21 00 d2 00 02 eb 07 28 fb
0.309,fused,,0,0x07,"IMU0_OK, IMU1_OK, FUSION_READY",0.999100,0.016100,0.035200,0.017100,2.028,2.028,4.002,1.917,,,,,,,,,,,,,0,,,Not running,,,,,,,,,,,0.999100,0.016100,0.035200,0.017100,1.000000,0.000000,-0.000000,0.000000,0.000,-0.000,0.000,b6 00 00 00 00 00 00 07 27 a1 00 60 01 ab 00 07 00 4c
0.310,fused,,40,0x07,"IMU0_OK, IMU1_OK, FUSION_READY",0.843000,0.003400,0.021000,-0.537400,-65.047,-65.047,2.239,-0.966,,,,,,,,,,,,,0,,,Not running,,,,,,,,,,,0.999100,0.016100,0.035200,0.017100,0.833891,0.009101,-0.017404,-0.551580,-66.984,-1.088,1.970,b6 00 00 00 00 00 00 ee 20 22 00 d2 00 02 eb 07 28 f8
0.311,fused,,0,0x07,"IMU0_OK, IMU1_OK, FUSION_READY",0.999100,0.016100,0.035200,0.017100,2.028,2.028,4.002,1.917,,,,,,,,,,,,,0,,,Not running,,,,,,,,,,,0.999100,0.016100,0.035200,0.017100,1.000000,0.000000,-0.000000,0.000000,0.000,-0.000,0.000,b6 00 00 00 00 00 00 07 27 a1 00 60 01 ab 00 07 00 4c
0.311,fused,,40,0x07,"IMU0_OK, IMU1_OK, FUSION_READY",0.843000,0.003400,0.021000,-0.537400,-65.047,-65.047,2.239,-0.966,,,,,,,,,,,,,0,,,Not running,,,,,,,,,,,0.999100,0.016100,0.035200,0.017100,0.833891,0.009101,-0.017404,-0.551580,-66.984,-1.088,1.970,b6 00 00 00 00 00 00 ee 20 22 00 d2 00 02 eb 07 28 f8
0.312,fused,,0,0x07,"IMU0_OK, IMU1_OK, FUSION_READY",0.999100,0.016100,0.035200,0.017100,2.028,2.028,4.002,1.917,,,,,,,,,,,,,0,,,Not running,,,,,,,,,,,0.999100,0.016100,0.035200,0.017100,1.000000,0.000000,-0.000000,0.000000,0.000,-0.000,0.000,b6 00 00 00 00 00 00 07 27 a1 00 60 01 ab 00 07 00 4c
0.313,fused,,40,0x07,"IMU0_OK, IMU1_OK, FUSION_READY",0.843000,0.003400,0.021000,-0.537400,-65.047,-65.047,2.239,-0.966,,,,,,,,,,,,,0,,,Not running,,,,,,,,,,,0.999100,0.016100,0.035200,0.017100,0.833891,0.009101,-0.017404,-0.551580,-66.984,-1.088,1.970,b6 00 00 00 00 00 00 ee 20 22 00 d2 00 02 eb 07 28 f8
0.313,fused,,0,0x07,"IMU0_OK, IMU1_OK, FUSION_READY",0.999100,0.016100,0.035200,0.017100,2.028,2.028,4.002,1.917,,,,,,,,,,,,,0,,,Not running,,,,,,,,,,,0.999100,0.016100,0.035200,0.017100,1.000000,0.000000,-0.000000,0.000000,0.000,-0.000,0.000,b6 00 00 00 00 00 00 07 27 a1 00 60 01 ab 00 07 00 4c
0.314,fused,,40,0x07,"IMU0_OK, IMU1_OK, FUSION_READY",0.843000,0.003400,0.021000,-0.537300,-65.032,-65.032,2.239,-0.965,,,,,,,,,,,,,0,,,Not running,,,,,,,,,,,0.999100,0.016100,0.035200,0.017100,0.833937,0.009098,-0.017403,-0.551510,-66.975,-1.088,1.970,b6 00 00 00 00 00 00 ee 20 22 00 d2 00 03 eb 07 28 f9
0.314,fused,,0,0x07,"IMU0_OK, IMU1_OK, FUSION_READY",0.999100,0.016100,0.035200,0.017100,2.028,2.028,4.002,1.917,,,,,,,,,,,,,0,,,Not running,,,,,,,,,,,0.999100,0.016100,0.035200,0.017100,1.000000,0.000000,-0.000000,0.000000,0.000,-0.000,0.000,b6 00 00 00 00 00 00 07 27 a1 00 60 01 ab 00 07 00 4c
0.315,fused,,40,0x07,"IMU0_OK, IMU1_OK, FUSION_READY",0.843000,0.003400,0.021000,-0.537300,-65.032,-65.032,2.239,-0.965,,,,,,,,,,,,,0,,,Not running,,,,,,,,,,,0.999100,0.016100,0.035200,0.017100,0.833937,0.009098,-0.017403,-0.551510,-66.975,-1.088,1.970,b6 00 00 00 00 00 00 ee 20 22 00 d2 00 03 eb 07 28 f9
0.315,fused,,0,0x07,"IMU0_OK, IMU1_OK, FUSION_READY",0.999100,0.016100,0.035200,0.017100,2.028,2.028,4.002,1.917,,,,,,,,,,,,,0,,,Not running,,,,,,,,,,,0.999100,0.016100,0.035200,0.017100,1.000000,0.000000,-0.000000,0.000000,0.000,-0.000,0.000,b6 00 00 00 00 00 00 07 27 a1 00 60 01 ab 00 07 00 4c
0.315,fused,,40,0x07,"IMU0_OK, IMU1_OK, FUSION_READY",0.843000,0.003400,0.021000,-0.537300,-65.032,-65.032,2.239,-0.965,,,,,,,,,,,,,0,,,Not running,,,,,,,,,,,0.999100,0.016100,0.035200,0.017100,0.833937,0.009098,-0.017403,-0.551510,-66.975,-1.088,1.970,b6 00 00 00 00 00 00 ee 20 22 00 d2 00 03 eb 07 28 f9
0.316,fused,,0,0x07,"IMU0_OK, IMU1_OK, FUSION_READY",0.999100,0.016100,0.035200,0.017100,2.028,2.028,4.002,1.917,,,,,,,,,,,,,0,,,Not running,,,,,,,,,,,0.999100,0.016100,0.035200,0.017100,1.000000,0.000000,-0.000000,0.000000,0.000,-0.000,0.000,b6 00 00 00 00 00 00 07 27 a1 00 60 01 ab 00 07 00 4c
0.372,fused,,40,0x07,"IMU0_OK, IMU1_OK, FUSION_READY",0.843100,0.003400,0.021000,-0.537300,-65.035,-65.035,2.239,-0.965,,,,,,,,,,,,,0,,,Not running,,,,,,,,,,,0.999100,0.016100,0.035200,0.017100,0.833967,0.009095,-0.017405,-0.551465,-66.968,-1.089,1.970,b6 00 00 00 00 00 00 ef 20 22 00 d2 00 03 eb 07 28 f8
0.373,fused,,0,0x07,"IMU0_OK, IMU1_OK, FUSION_READY",0.999100,0.016100,0.035200,0.017100,2.028,2.028,4.002,1.917,,,,,,,,,,,,,0,,,Not running,,,,,,,,,,,0.999100,0.016100,0.035200,0.017100,1.000000,0.000000,-0.000000,0.000000,0.000,-0.000,0.000,b6 00 00 00 00 00 00 07 27 a1 00 60 01 ab 00 07 00 4c
0.374,fused,,40,0x07,"IMU0_OK, IMU1_OK, FUSION_READY",0.843100,0.003400,0.021000,-0.537300,-65.035,-65.035,2.239,-0.965,,,,,,,,,,,,,0,,,Not running,,,,,,,,,,,0.999100,0.016100,0.035200,0.017100,0.833967,0.009095,-0.017405,-0.551465,-66.968,-1.089,1.970,b6 00 00 00 00 00 00 ef 20 22 00 d2 00 03 eb 07 28 f8
0.374,fused,,0,0x07,"IMU0_OK, IMU1_OK, FUSION_READY",0.999100,0.016100,0.035200,0.017100,2.028,2.028,4.002,1.917,,,,,,,,,,,,,0,,,Not running,,,,,,,,,,,0.999100,0.016100,0.035200,0.017100,1.000000,0.000000,-0.000000,0.000000,0.000,-0.000,0.000,b6 00 00 00 00 00 00 07 27 a1 00 60 01 ab 00 07 00 4c
0.375,fused,,40,0x07,"IMU0_OK, IMU1_OK, FUSION_READY",0.843100,0.003500,0.021000,-0.537300,-65.035,-65.035,2.245,-0.956,,,,,,,,,,,,,0,,,Not running,,,,,,,,,,,0.999100,0.016100,0.035200,0.017100,0.833968,0.009195,-0.017407,-0.551461,-66.968,-1.082,1.979,b6 00 00 00 00 00 00 ef 20 23 00 d2 00 03 eb 07 28 f9
0.375,fused,,0,0x07,"IMU0_OK, IMU1_OK, FUSION_READY",0.999000,0.016200,0.035200,0.017100,2.028,2.028,4.001,1.929,,,,,,,,,,,,,0,,,Not running,,,,,,,,,,,0.999000,0.016200,0.035200,0.017100,1.000000,0.000000,-0.000000,0.000000,0.000,-0.000,0.000,b6 00 00 00 00 00 00 06 27 a2 00 60 01 ab 00 07 00 4e
0.376,fused,,40,0x07,"IMU0_OK, IMU1_OK, FUSION_READY",0.843100,0.003500,0.021000,-0.537200,-65.019,-65.019,2.245,-0.955,,,,,,,,,,,,,0,,,Not running,,,,,,,,,,,0.999000,0.016200,0.035200,0.017100,0.834013,0.009108,-0.017464,-0.551393,-66.959,-1.094,1.975,b6 00 00 00 00 00 00 ef 20 23 00 d2 00 04 eb 07 28 fe
0.376,fused,,0,0x07,"IMU0_OK, IMU1_OK, FUSION_READY",0.999000,0.016200,0.035200,0.017100,2.028,2.028,4.001,1.929,,,,,,,,,,,,,0,,,Not running,,,,,,,,,,,0.999000,0.016200,0.035200,0.017100,1.000000,0.000000,-0.000000,0.000000,0.000,-0.000,0.000,b6 00 00 00 00 00 00 06 27 a2 00 60 01 ab 00 07 00 4e
0.377,fused,,40,0x07,"IMU0_OK, IMU1_OK, FUSION_READY",0.843100,0.003500,0.021000,-0.537200,-65.019,-65.019,2.245,-0.955,,,,,,,,,,,,,0,,,Not running,,,,,,,,,,,0.999000,0.016200,0.035200,0.017100,0.834013,0.009108,-0.017464,-0.551393,-66.959,-1.094,1.975,b6 00 00 00 00 00 00 ef 20 23 00 d2 00 04 eb 07 28 fe
0.378,fused,,0,0x07,"IMU0_OK, IMU1_OK, FUSION_READY",0.999000,0.016200,0.035200,0.017100,2.028,2.028,4.001,1.929,,,,,,,,,,,,,0,,,Not running,,,,,,,,,,,0.999000,0.016200,0.035200,0.017100,1.000000,0.000000,-0.000000,0.000000,0.000,-0.000,0.000,b6 00 00 00 00 00 00 06 27 a2 00 60 01 ab 00 07 00 4e
0.378,fused,,40,0x07,"IMU0_OK, IMU1_OK, FUSION_READY",0.843100,0.003500,0.020900,-0.537200,-65.019,-65.019,2.235,-0.949,,,,,,,,,,,,,0,,,Not running,,,,,,,,,,,0.999000,0.016200,0.035200,0.017100,0.834011,0.009107,-0.017564,-0.551393,-66.959,-1.103,1.981,b6 00 00 00 00 00 00 ef 20 23 00 d1 00 04 eb 07 28 fd
0.379,fused,,0,0x07,"IMU0_OK, IMU1_OK, FUSION_READY",0.999000,0.016200,0.035200,0.017100,2.028,2.028,4.001,1.929,,,,,,,,,,,,,0,,,Not running,,,,,,,,,,,0.999000,0.016200,0.035200,0.017100,1.000000,0.000000,-0.000000,0.000000,0.000,-0.000,0.000,b6 00 00 00 00 00 00 06 27 a2 00 60 01 ab 00 07 00 4e
0.380,fused,,40,0x07,"IMU0_OK, IMU1_OK, FUSION_READY",0.843100,0.003500,0.020900,-0.537200,-65.019,-65.019,2.235,-0.949,,,,,,,,,,,,,0,,,Not running,,,,,,,,,,,0.999000,0.016200,0.035200,0.017100,0.834011,0.009107,-0.017564,-0.551393,-66.959,-1.103,1.981,b6 00 00 00 00 00 00 ef 20 23 00 d1 00 04 eb 07 28 fd
0.380,fused,,0,0x07,"IMU0_OK, IMU1_OK, FUSION_READY",0.999000,0.016200,0.035200,0.017100,2.028,2.028,4.001,1.929,,,,,,,,,,,,,0,,,Not running,,,,,,,,,,,0.999000,0.016200,0.035200,0.017100,1.000000,0.000000,-0.000000,0.000000,0.000,-0.000,0.000,b6 00 00 00 00 00 00 06 27 a2 00 60 01 ab 00 07 00 4e
0.433,fused,,40,0x07,"IMU0_OK, IMU1_OK, FUSION_READY",0.843100,0.003600,0.020900,-0.537200,-65.019,-65.019,2.241,-0.940,,,,,,,,,,,,,0,,,Not running,,,,,,,,,,,0.999000,0.016200,0.035200,0.017100,0.834012,0.009207,-0.017565,-0.551389,-66.959,-1.097,1.991,b6 00 00 00 00 00 00 ef 20 24 00 d1 00 04 eb 07 28 fa
0.433,fused,,0,0x07,"IMU0_OK, IMU1_OK, FUSION_READY",0.999000,0.016200,0.035200,0.017100,2.028,2.028,4.001,1.929,,,,,,,,,,,,,0,,,Not running,,,,,,,,,,,0.999000,0.016200,0.035200,0.017100,1.000000,0.000000,-0.000000,0.000000,0.000,-0.000,0.000,b6 00 00 00 00 00 00 06 27 a2 00 60 01 ab 00 07 00 4e
0.434,fused,,40,0x07,"IMU0_OK, IMU1_OK, FUSION_READY",0.843100,0.003600,0.020900,-0.537200,-65.019,-65.019,2.241,-0.940,,,,,,,,,,,,,0,,,Not running,,,,,,,,,,,0.999000,0.016200,0.035200,0.017100,0.834012,0.009207,-0.017565,-0.551389,-66.959,-1.097,1.991,b6 00 00 00 00 00 00 ef 20 24 00 d1 00 04 eb 07 28 fa
0.435,fused,,0,0x07,"IMU0_OK, IMU1_OK, FUSION_READY",0.999000,0.016200,0.035200,0.017100,2.028,2.028,4.001,1.929,,,,,,,,,,,,,0,,,Not running,,,,,,,,,,,0.999000,0.016200,0.035200,0.017100,1.000000,0.000000,-0.000000,0.000000,0.000,-0.000,0.000,b6 00 00 00 00 00 00 06 27 a2 00 60 01 ab 00 07 00 4e
0.436,fused,,40,0x07,"IMU0_OK, IMU1_OK, FUSION_READY",0.843200,0.003600,0.020900,-0.537100,-65.006,-65.006,2.242,-0.939,,,,,,,,,,,,,0,,,Not running,,,,,,,,,,,0.999000,0.016200,0.035200,0.017100,0.834088,0.009201,-0.017567,-0.551274,-66.943,-1.098,1.990,b6 00 00 00 00 00 00 f0 20 24 00 d1 00 05 eb 07 28 e4
0.437,fused,,0,0x07,"IMU0_OK, IMU1_OK, FUSION_READY",0.999000,0.016200,0.035200,0.017100,2.028,2.028,4.001,1.929,,,,,,,,,,,,,0,,,Not running,,,,,,,,,,,0.999000,0.016200,0.035200,0.017100,1.000000,0.000000,-0.000000,0.000000,0.000,-0.000,0.000,b6 00 00 00 00 00 00 06 27 a2 00 60 01 ab 00 07 00 4e
0.438,fused,,40,0x07,"IMU0_OK, IMU1_OK, FUSION_READY",0.843200,0.003600,0.020900,-0.537100,-65.006,-65.006,2.242,-0.939,,,,,,,,,,,,,0,,,Not running,,,,,,,,,,,0.999000,0.016200,0.035200,0.017100,0.834088,0.009201,-0.017567,-0.551274,-66.943,-1.098,1.990,b6 00 00 00 00 00 00 f0 20 24 00 d1 00 05 eb 07 28 e4
0.439,fused,,0,0x07,"IMU0_OK, IMU1_OK, FUSION_READY",0.999000,0.016200,0.035200,0.017100,2.028,2.028,4.001,1.929,,,,,,,,,,,,,0,,,Not running,,,,,,,,,,,0.999000,0.016200,0.035200,0.017100,1.000000,0.000000,-0.000000,0.000000,0.000,-0.000,0.000,b6 00 00 00 00 00 00 06 27 a2 00 60 01 ab 00 07 00 4e
0.439,fused,,40,0x07,"IMU0_OK, IMU1_OK, FUSION_READY",0.843200,0.003600,0.020900,-0.537100,-65.006,-65.006,2.242,-0.939,,,,,,,,,,,,,0,,,Not running,,,,,,,,,,,0.999000,0.016200,0.035200,0.017100,0.834088,0.009201,-0.017567,-0.551274,-66.943,-1.098,1.990,b6 00 00 00 00 00 00 f0 20 24 00 d1 00 05 eb 07 28 e4
0.440,fused,,0,0x07,"IMU0_OK, IMU1_OK, FUSION_READY",0.999000,0.016200,0.035200,0.017100,2.028,2.028,4.001,1.929,,,,,,,,,,,,,0,,,Not running,,,,,,,,,,,0.999000,0.016200,0.035200,0.017100,1.000000,0.000000,-0.000000,0.000000,0.000,-0.000,0.000,b6 00 00 00 00 00 00 06 27 a2 00 60 01 ab 00 07 00 4e
0.440,fused,,40,0x07,"IMU0_OK, IMU1_OK, FUSION_READY",0.843200,0.003600,0.020900,-0.537100,-65.006,-65.006,2.242,-0.939,,,,,,,,,,,,,0,,,Not running,,,,,,,,,,,0.999000,0.016200,0.035200,0.017100,0.834088,0.009201,-0.017567,-0.551274,-66.943,-1.098,1.990,b6 00 00 00 00 00 00 f0 20 24 00 d1 00 05 eb 07 28 e4
0.441,fused,,0,0x07,"IMU0_OK, IMU1_OK, FUSION_READY",0.999000,0.016200,0.035200,0.017100,2.028,2.028,4.001,1.929,,,,,,,,,,,,,0,,,Not running,,,,,,,,,,,0.999000,0.016200,0.035200,0.017100,1.000000,0.000000,-0.000000,0.000000,0.000,-0.000,0.000,b6 00 00 00 00 00 00 06 27 a2 00 60 01 ab 00 07 00 4e
0.441,fused,,40,0x07,"IMU0_OK, IMU1_OK, FUSION_READY",0.843200,0.003600,0.020900,-0.537100,-65.006,-65.006,2.242,-0.939,,,,,,,,,,,,,0,,,Not running,,,,,,,,,,,0.999000,0.016200,0.035200,0.017100,0.834088,0.009201,-0.017567,-0.551274,-66.943,-1.098,1.990,b6 00 00 00 00 00 00 f0 20 24 00 d1 00 05 eb 07 28 e4
0.442,fused,,0,0x07,"IMU0_OK, IMU1_OK, FUSION_READY",0.999000,0.016200,0.035200,0.017100,2.028,2.028,4.001,1.929,,,,,,,,,,,,,0,,,Not running,,,,,,,,,,,0.999000,0.016200,0.035200,0.017100,1.000000,0.000000,-0.000000,0.000000,0.000,-0.000,0.000,b6 00 00 00 00 00 00 06 27 a2 00 60 01 ab 00 07 00 4e
0.442,fused,,40,0x07,"IMU0_OK, IMU1_OK, FUSION_READY",0.843200,0.003600,0.020900,-0.537100,-65.006,-65.006,2.242,-0.939,,,,,,,,,,,,,0,,,Not running,,,,,,,,,,,0.999000,0.016200,0.035200,0.017100,0.834088,0.009201,-0.017567,-0.551274,-66.943,-1.098,1.990,b6 00 00 00 00 00 00 f0 20 24 00 d1 00 05 eb 07 28 e4
0.511,fused,,0,0x07,"IMU0_OK, IMU1_OK, FUSION_READY",0.999000,0.016200,0.035200,0.017100,2.028,2.028,4.001,1.929,,,,,,,,,,,,,0,,,Not running,,,,,,,,,,,0.999000,0.016200,0.035200,0.017100,1.000000,0.000000,-0.000000,0.000000,0.000,-0.000,0.000,b6 00 00 00 00 00 00 06 27 a2 00 60 01 ab 00 07 00 4e
0.512,fused,,40,0x07,"IMU0_OK, IMU1_OK, FUSION_READY",0.843200,0.003500,0.020900,-0.537100,-65.006,-65.006,2.235,-0.949,,,,,,,,,,,,,0,,,Not running,,,,,,,,,,,0.999000,0.016200,0.035200,0.017100,0.834087,0.009101,-0.017565,-0.551278,-66.943,-1.104,1.980,b6 00 00 00 00 00 00 f0 20 23 00 d1 00 05 eb 07 28 e3
0.513,fused,,0,0x07,"IMU0_OK, IMU1_OK, FUSION_READY",0.999000,0.016200,0.035200,0.017100,2.028,2.028,4.001,1.929,,,,,,,,,,,,,0,,,Not running,,,,,,,,,,,0.999000,0.016200,0.035200,0.017100,1.000000,0.000000,-0.000000,0.000000,0.000,-0.000,0.000,b6 00 00 00 00 00 00 06 27 a2 00 60 01 ab 00 07 00 4e
0.514,fused,,40,0x07,"IMU0_OK, IMU1_OK, FUSION_READY",0.843200,0.003500,0.020900,-0.537100,-65.006,-65.006,2.235,-0.949,,,,,,,,,,,,,0,,,Not running,,,,,,,,,,,0.999000,0.016200,0.035200,0.017100,0.834087,0.009101,-0.017565,-0.551278,-66.943,-1.104,1.980,b6 00 00 00 00 00 00 f0 20 23 00 d1 00 05 eb 07 28 e3
0.514,fused,,0,0x07,"IMU0_OK, IMU1_OK, FUSION_READY",0.999100,0.016200,0.035200,0.017100,2.028,2.028,4.002,1.929,,,,,,,,,,,,,0,,,Not running,,,,,,,,,,,0.999100,0.016200,0.035200,0.017100,1.000000,0.000000,0.000000,0.000000,0.000,0.000,0.000,b6 00 00 00 00 00 00 07 27 a2 00 60 01 ab 00 07 00 4f
0.514,fused,,40,0x07,"IMU0_OK, IMU1_OK, FUSION_READY",0.843200,0.003500,0.020900,-0.537000,-64.991,-64.991,2.235,-0.949,,,,,,,,,,,,,0,,,Not running,,,,,,,,,,,0.999100,0.016200,0.035200,0.017100,0.834135,0.009098,-0.017560,-0.551206,-66.933,-1.104,1.980,b6 00 00 00 00 00 00 f0 20 23 00 d1 00 06 eb 07 28 e0
0.515,fused,,0,0x07,"IMU0_OK, IMU1_OK, FUSION_READY",0.999100,0.016100,0.035200,0.017100,2.028,2.028,4.002,1.917,,,,,,,,,,,,,0,,,Not running,,,,,,,,,,,0.999100,0.016100,0.035200,0.017100,1.000000,0.000000,-0.000000,0.000000,0.000,-0.000,0.000,b6 00 00 00 00 00 00 07 27 a1 00 60 01 ab 00 07 00 4c
0.516,fused,,40,0x07,"IMU0_OK, IMU1_OK, FUSION_READY",0.843200,0.003500,0.020900,-0.537000,-64.991,-64.991,2.235,-0.949,,,,,,,,,,,,,0,,,Not running,,,,,,,,,,,0.999100,0.016100,0.035200,0.017100,0.834136,0.009182,-0.017507,-0.551205,-66.933,-1.093,1.984,b6 00 00 00 00 00 00 f0 20 23 00 d1 00 06 eb 07 28 e0
0.516,fused,,0,0x07,"IMU0_OK, IMU1_OK, FUSION_READY",0.999100,0.016100,0.035200,0.017100,2.028,2.028,4.002,1.917,,,,,,,,,,,,,0,,,Not running,,,,,,,,,,,0.999100,0.016100,0.035200,0.017100,1.000000,0.000000,-0.000000,0.000000,0.000,-0.000,0.000,b6 00 00 00 00 00 00 07 27 a1 00 60 01 ab 00 07 00 4c
0.517,fused,,40,0x07,"IMU0_OK, IMU1_OK, FUSION_READY",0.843200,0.003500,0.020900,-0.537000,-64.991,-64.991,2.235,-0.949,,,,,,,,,,,,,0,,,Not running,,,,,,,,,,,0.999100,0.016100,0.035200,0.017100,0.834136,0.009182,-0.017507,-0.551205,-66.933,-1.093,1.984,b6 00 00 00 00 00 00 f0 20 23 00 d1 00 06 eb 07 28 e0
0.517,fused,,0,0x07,"IMU0_OK, IMU1_OK, FUSION_READY",0.999000,0.016200,0.035200,0.017100,2.028,2.028,4.001,1.929,,,,,,,,,,,,,0,,,Not running,,,,,,,,,,,0.999000,0.016200,0.035200,0.017100,1.000000,0.000000,-0.000000,0.000000,0.000,-0.000,0.000,b6 00 00 00 00 00 00 06 27 a2 00 60 01 ab 00 07 00 4e
0.518,fused,,40,0x07,"IMU0_OK, IMU1_OK, FUSION_READY",0.843200,0.003500,0.020900,-0.537000,-64.991,-64.991,2.235,-0.949,,,,,,,,,,,,,0,,,Not running,,,,,,,,,,,0.999000,0.016200,0.035200,0.017100,0.834134,0.009098,-0.017564,-0.551208,-66.934,-1.104,1.980,b6 00 00 00 00 00 00 f0 20 23 00 d1 00 06 eb 07 28 e0
0.518,fused,,0,0x07,"IMU0_OK, IMU1_OK, FUSION_READY",0.999000,0.016200,0.035200,0.017100,2.028,2.028,4.001,1.929,,,,,,,,,,,,,0,,,Not running,,,,,,,,,,,0.999000,0.016200,0.035200,0.017100,1.000000,0.000000,-0.000000,0.000000,0.000,-0.000,0.000,b6 00 00 00 00 00 00 06 27 a2 00 60 01 ab 00 07 00 4e
0.519,fused,,40,0x07,"IMU0_OK, IMU1_OK, FUSION_READY",0.843200,0.003500,0.020900,-0.537000,-64.991,-64.991,2.235,-0.949,,,,,,,,,,,,,0,,,Not running,,,,,,,,,,,0.999000,0.016200,0.035200,0.017100,0.834134,0.009098,-0.017564,-0.551208,-66.934,-1.104,1.980,b6 00 00 00 00 00 00 f0 20 23 00 d1 00 06 eb 07 28 e0
0.572,fused,,0,0x07,"IMU0_OK, IMU1_OK, FUSION_READY",0.999000,0.016200,0.035200,0.017100,2.028,2.028,4.001,1.929,,,,,,,,,,,,,0,,,Not running,,,,,,,,,,,0.999000,0.016200,0.035200,0.017100,1.000000,0.000000,-0.000000,0.000000,0.000,-0.000,0.000,b6 00 00 00 00 00 00 06 27 a2 00 60 01 ab 00 07 00 4e
0.573,fused,,40,0x07,"IMU0_OK, IMU1_OK, FUSION_READY",0.843200,0.003500,0.021000,-0.537000,-64.992,-64.992,2.245,-0.955,,,,,,,,,,,,,0,,,Not running,,,,,,,,,,,0.999000,0.016200,0.035200,0.017100,0.834135,0.009100,-0.017464,-0.551208,-66.933,-1.095,1.974,b6 00 00 00 00 00 00 f0 20 23 00 d2 00 06 eb 07 28 e3
0.573,fused,,0,0x07,"IMU0_OK, IMU1_OK, FUSION_READY",0.999000,0.016200,0.035200,0.017100,2.028,2.028,4.001,1.929,,,,,,,,,,,,,0,,,Not running,,,,,,,,,,,0.999000,0.016200,0.035200,0.017100,1.000000,0.000000,-0.000000,0.000000,0.000,-0.000,0.000,b6 00 00 00 00 00 00 06 27 a2 00 60 01 ab 00 07 00 4e
0.574,fused,,40,0x07,"IMU0_OK, IMU1_OK, FUSION_READY",0.843200,0.003400,0.021000,-0.537000,-64.992,-64.992,2.239,-0.965,,,,,,,,,,,,,0,,,Not running,,,,,,,,,,,0.999000,0.016200,0.035200,0.017100,0.834134,0.009000,-0.017463,-0.551212,-66.934,-1.101,1.964,b6 00 00 00 00 00 00 f0 20 22 00 d2 00 06 eb 07 28 e2
0.574,fused,,0,0x07,"IMU0_OK, IMU1_OK, FUSION_READY",0.999000,0.016200,0.035200,0.017100,2.028,2.028,4.001,1.929,,,,,,,,,,,,,0,,,Not running,,,,,,,,,,,0.999000,0.016200,0.035200,0.017100,1.000000,0.000000,-0.000000,0.000000,0.000,-0.000,0.000,b6 00 00 00 00 00 00 06 27 a2 00 60 01 ab 00 07 00 4e
0.574,fused,,40,0x07,"IMU0_OK, IMU1_OK, FUSION_READY",0.843300,0.003400,0.021000,-0.536900,-64.979,-64.979,2.239,-0.964,,,,,,,,,,,,,0,,,Not running,,,,,,,,,,,0.999000,0.016200,0.035200,0.017100,0.834210,0.008995,-0.017464,-0.551097,-66.918,-1.101,1.963,b6 00 00 00 00 00 00 f1 20 22 00 d2 00 07 eb 07 28 e2
0.575,fused,,0,0x07,"IMU0_OK, IMU1_OK, FUSION_READY",0.999000,0.016200,0.035200,0.017100,2.028,2.028,4.001,1.929,,,,,,,,,,,,,0,,,Not running,,,,,,,,,,,0.999000,0.016200,0.035200,0.017100,1.000000,0.000000,-0.000000,0.000000,0.000,-0.000,0.000,b6 00 00 00 00 00 00 06 27 a2 00 60 01 ab 00 07 00 4e
0.575,fused,,40,0x07,"IMU0_OK, IMU1_OK, FUSION_READY",0.843300,0.003500,0.021000,-0.536900,-64.979,-64.979,2.245,-0.955,,,,,,,,,,,,,0,,,Not running,,,,,,,,,,,0.999000,0.016200,0.035200,0.017100,0.834211,0.009095,-0.017466,-0.551093,-66.918,-1.095,1.973,b6 00 00 00 00 00 00 f1 20 23 00 d2 00 07 eb 07 28 e3
0.576,fused,,0,0x07,"IMU0_OK, IMU1_OK, FUSION_READY",0.999000,0.016200,0.035200,0.017100,2.028,2.028,4.001,1.929,,,,,,,,,,,,,0,,,Not running,,,,,,,,,,,0.999000,0.016200,0.035200,0.017100,1.000000,0.000000,-0.000000,0.000000,0.000,-0.000,0.000,b6 00 00 00 00 00 00 06 27 a2 00 60 01 ab 00 07 00 4e
0.576,fused,,40,0x07,"IMU0_OK, IMU1_OK, FUSION_READY",0.843300,0.003500,0.020900,-0.536900,-64.979,-64.979,2.236,-0.948,,,,,,,,,,,,,0,,,Not running,,,,,,,,,,,0.999000,0.016200,0.035200,0.017100,0.834210,0.009093,-0.017566,-0.551092,-66.918,-1.105,1.979,b6 00 00 00 00 00 00 f1 20 23 00 d1 00 07 eb 07 28 e0
0.577,fused,,0,0x07,"IMU0_OK, IMU1_OK, FUSION_READY",0.999000,0.016200,0.035200,0.017100,2.028,2.028,4.001,1.929,,,,,,,,,,,,,0,,,Not running,,,,,,,,,,,0.999000,0.016200,0.035200,0.017100,1.000000,0.000000,-0.000000,0.000000,0.000,-0.000,0.000,b6 00 00 00 00 00 00 06 27 a2 00 60 01 ab 00 07 00 4e
0.577,fused,,40,0x07,"IMU0_OK, IMU1_OK, FUSION_READY",0.843300,0.003500,0.020900,-0.536900,-64.979,-64.979,2.236,-0.948,,,,,,,,,,,,,0,,,Not running,,,,,,,,,,,0.999000,0.016200,0.035200,0.017100,0.834210,0.009093,-0.017566,-0.551092,-66.918,-1.105,1.979,b6 00 00 00 00 00 00 f1 20 23 00 d1 00 07 eb 07 28 e0
0.578,fused,,0,0x07,"IMU0_OK, IMU1_OK, FUSION_READY",0.999100,0.016200,0.035200,0.017100,2.028,2.028,4.002,1.929,,,,,,,,,,,,,0,,,Not running,,,,,,,,,,,0.999100,0.016200,0.035200,0.017100,1.000000,0.000000,0.000000,0.000000,0.000,0.000,0.000,b6 00 00 00 00 00 00 07 27 a2 00 60 01 ab 00 07 00 4f
0.579,fused,,40,0x07,"IMU0_OK, IMU1_OK, FUSION_READY",0.843300,0.003500,0.020900,-0.536900,-64.979,-64.979,2.236,-0.948,,,,,,,,,,,,,0,,,Not running,,,,,,,,,,,0.999100,0.016200,0.035200,0.017100,0.834211,0.009092,-0.017562,-0.551091,-66.918,-1.105,1.979,b6 00 00 00 00 00 00 f1 20 23 00 d1 00 07 eb 07 28 e0
0.633,fused,,0,0x07,"IMU0_OK, IMU1_OK, FUSION_READY",0.999100,0.016100,0.035100,0.017100,2.028,2.028,3.990,1.917,,,,,,,,,,,,,0,,,Not running,,,,,,,,,,,0.999100,0.016100,0.035100,0.017100,1.000000,0.000000,-0.000000,0.000000,0.000,-0.000,0.000,b6 00 00 00 00 00 00 07 27 a1 00 5f 01 ab 00 07 00 73
0.635,fused,,40,0x07,"IMU0_OK, IMU1_OK, FUSION_READY",0.843300,0.003500,0.020900,-0.536900,-64.979,-64.979,2.236,-0.948,,,,,,,,,,,,,0,,,Not running,,,,,,,,,,,0.999100,0.016100,0.035100,0.017100,0.834213,0.009123,-0.017424,-0.551092,-66.917,-1.090,1.973,b6 00 00 00 00 00 00 f1 20 23 00 d1 00 07 eb 07 28 e0
0.636,fused,,0,0x07,"IMU0_OK, IMU1_OK, FUSION_READY",0.999100,0.016200,0.035100,0.017100,2.028,2.028,3.990,1.929,,,,,,,,,,,,,0,,,Not running,,,,,,,,,,,0.999100,0.016200,0.035100,0.017100,1.000000,0.000000,-0.000000,0.000000,0.000,-0.000,0.000,b6 00 00 00 00 00 00 07 27 a2 00 5f 01 ab 00 07 00 70
0.637,fused,,40,0x07,"IMU0_OK, IMU1_OK, FUSION_READY",0.843400,0.003500,0.020900,-0.536800,-64.966,-64.966,2.236,-0.948,,,,,,,,,,,,,0,,,Not running,,,,,,,,,,,0.999100,0.016200,0.035100,0.017100,0.834288,0.009033,-0.017479,-0.550978,-66.902,-1.101,1.968,b6 00 00 00 00 00 00 f2 20 23 00 d1 00 08 eb 07 28 ec
0.637,fused,,0,0x07,"IMU0_OK, IMU1_OK, FUSION_READY",0.999100,0.016200,0.035100,0.017100,2.028,2.028,3.990,1.929,,,,,,,,,,,,,0,,,Not running,,,,,,,,,,,0.999100,0.016200,0.035100,0.017100,1.000000,0.000000,-0.000000,0.000000,0.000,-0.000,0.000,b6 00 00 00 00 00 00 07 27 a2 00 5f 01 ab 00 07 00 70
0.638,fused,,40,0x07,"IMU0_OK, IMU1_OK, FUSION_READY",0.843400,0.003500,0.020900,-0.536800,-64.966,-64.966,2.236,-0.948,,,,,,,,,,,,,0,,,Not running,,,,,,,,,,,0.999100,0.016200,0.035100,0.017100,0.834288,0.009033,-0.017479,-0.550978,-66.902,-1.101,1.968,b6 00 00 00 00 00 00 f2 20 23 00 d1 00 08 eb 07 28 ec
0.639,fused,,0,0x07,"IMU0_OK, IMU1_OK, FUSION_READY",0.999100,0.016200,0.035100,0.017100,2.028,2.028,3.990,1.929,,,,,,,,,,,,,0,,,Not running,,,,,,,,,,,0.999100,0.016200,0.035100,0.017100,1.000000,0.000000,-0.000000,0.000000,0.000,-0.000,0.000,b6 00 00 00 00 00 00 07 27 a2 00 5f 01 ab 00 07 00 70
0.639,fused,,40,0x07,"IMU0_OK, IMU1_OK, FUSION_READY",0.843400,0.003500,0.020900,-0.536800,-64.966,-64.966,2.236,-0.948,,,,,,,,,,,,,0,,,Not running,,,,,,,,,,,0.999100,0.016200,0.035100,0.017100,0.834288,0.009033,-0.017479,-0.550978,-66.902,-1.101,1.968,b6 00 00 00 00 00 00 f2 20 23 00 d1 00 08 eb 07 28 ec
0.640,fused,,0,0x07,"IMU0_OK, IMU1_OK, FUSION_READY",0.999100,0.016200,0.035100,0.017100,2.028,2.028,3.990,1.929,,,,,,,,,,,,,0,,,Not running,,,,,,,,,,,0.999100,0.016200,0.035100,0.017100,1.000000,0.000000,-0.000000,0.000000,0.000,-0.000,0.000,b6 00 00 00 00 00 00 07 27 a2 00 5f 01 ab 00 07 00 70
0.640,fused,,40,0x07,"IMU0_OK, IMU1_OK, FUSION_READY",0.843400,0.003500,0.020900,-0.536800,-64.966,-64.966,2.236,-0.948,,,,,,,,,,,,,0,,,Not running,,,,,,,,,,,0.999100,0.016200,0.035100,0.017100,0.834288,0.009033,-0.017479,-0.550978,-66.902,-1.101,1.968,b6 00 00 00 00 00 00 f2 20 23 00 d1 00 08 eb 07 28 ec
0.640,fused,,0,0x07,"IMU0_OK, IMU1_OK, FUSION_READY",0.999100,0.016200,0.035200,0.017200,2.040,2.040,4.001,1.929,,,,,,,,,,,,,0,,,Not running,,,,,,,,,,,0.999100,0.016200,0.035200,0.017200,1.000000,0.000000,0.000000,0.000000,0.000,0.000,0.000,b6 00 00 00 00 00 00 07 27 a2 00 60 01 ac 00 07 00 48
0.641,fused,,40,0x07,"IMU0_OK, IMU1_OK, FUSION_READY",0.843400,0.003500,0.020900,-0.536800,-64.966,-64.966,2.236,-0.948,,,,,,,,,,,,,0,,,Not running,,,,,,,,,,,0.999100,0.016200,0.035200,0.017200,0.834232,0.009089,-0.017564,-0.551059,-66.913,-1.105,1.979,b6 00 00 00 00 00 00 f2 20 23 00 d1 00 08 eb 07 28 ec
0.641,fused,,0,0x07,"IMU0_OK, IMU1_OK, FUSION_READY",0.999000,0.016200,0.035200,0.017200,2.040,2.040,4.001,1.929,,,,,,,,,,,,,0,,,Not running,,,,,,,,,,,0.999000,0.016200,0.035200,0.017200,1.000000,0.000000,0.000000,0.000000,0.000,0.000,0.000,b6 00 00 00 00 00 00 06 27 a2 00 60 01 ac 00 07 00 49
0.642,fused,,40,0x07,"IMU0_OK, IMU1_OK, FUSION_READY",0.843400,0.003500,0.020900,-0.536700,-64.951,-64.951,2.236,-0.948,,,,,,,,,,,,,0,,,Not running,,,,,,,,,,,0.999000,0.016200,0.035200,0.017200,0.834277,0.009086,-0.017567,-0.550990,-66.904,-1.106,1.979,b6 00 00 00 00 00 00 f2 20 23 00 d1 00 09 eb 07 28 ed
0.757,fused,,0,0x07,"IMU0_OK, IMU1_OK, FUSION_READY",0.999000,0.016200,0.035200,0.017200,2.040,2.040,4.001,1.929,,,,,,,,,,,,,0,,,Not running,,,,,,,,,,,0.999000,0.016200,0.035200,0.017200,1.000000,0.000000,0.000000,0.000000,0.000,0.000,0.000,b6 00 00 00 00 00 00 06 27 a2 00 60 01 ac 00 07 00 49
0.757,fused,,40,0x07,"IMU0_OK, IMU1_OK, FUSION_READY",0.843400,0.003400,0.020900,-0.536700,-64.951,-64.951,2.230,-0.958,,,,,,,,,,,,,0,,,Not running,,,,,,,,,,,0.999000,0.016200,0.035200,0.017200,0.834276,0.008987,-0.017565,-0.550994,-66.904,-1.112,1.969,b6 00 00 00 00 00 00 f2 20 22 00 d1 00 09 eb 07 28 ec
0.758,fused,,0,0x07,"IMU0_OK, IMU1_OK, FUSION_READY",0.999000,0.016200,0.035200,0.017200,2.040,2.040,4.001,1.929,,,,,,,,,,,,,0,,,Not running,,,,,,,,,,,0.999000,0.016200,0.035200,0.017200,1.000000,0.000000,0.000000,0.000000,0.000,0.000,0.000,b6 00 00 00 00 00 00 06 27 a2 00 60 01 ac 00 07 00 49
0.758,fused,,40,0x07,"IMU0_OK, IMU1_OK, FUSION_READY",0.843400,0.003400,0.021000,-0.536700,-64.951,-64.951,2.239,-0.964,,,,,,,,,,,,,0,,,Not running,,,,,,,,,,,0.999000,0.016200,0.035200,0.017200,0.834278,0.008988,-0.017465,-0.550995,-66.904,-1.102,1.963,b6 00 00 00 00 00 00 f2 20 22 00 d2 00 09 eb 07 28 ef
0.759,fused,,0,0x07,"IMU0_OK, IMU1_OK, FUSION_READY",0.999000,0.016200,0.035200,0.017200,2.040,2.040,4.001,1.929,,,,,,,,,,,,,0,,,Not running,,,,,,,,,,,0.999000,0.016200,0.035200,0.017200,1.000000,0.000000,0.000000,0.000000,0.000,0.000,0.000,b6 00 00 00 00 00 00 06 27 a2 00 60 01 ac 00 07 00 49
0.759,fused,,40,0x07,"IMU0_OK, IMU1_OK, FUSION_READY",0.843400,0.003500,0.020900,-0.536700,-64.951,-64.951,2.236,-0.948,,,,,,,,,,,,,0,,,Not running,,,,,,,,,,,0.999000,0.016200,0.035200,0.017200,0.834277,0.009086,-0.017567,-0.550990,-66.904,-1.106,1.979,b6 00 00 00 00 00 00 f2 20 23 00 d1 00 09 eb 07 28 ed
0.760,fused,,0,0x07,"IMU0_OK, IMU1_OK, FUSION_READY",0.999000,0.016200,0.035200,0.017200,2.040,2.040,4.001,1.929,,,,,,,,,,,,,0,,,Not running,,,,,,,,,,,0.999000,0.016200,0.035200,0.017200,1.000000,0.000000,0.000000,0.000000,0.000,0.000,0.000,b6 00 00 00 00 00 00 06 27 a2 00 60 01 ac 00 07 00 49
0.760,fused,,40,0x07,"IMU0_OK, IMU1_OK, FUSION_READY",0.843400,0.003500,0.020900,-0.536700,-64.951,-64.951,2.236,-0.948,,,,,,,,,,,,,0,,,Not running,,,,,,,,,,,0.999000,0.016200,0.035200,0.017200,0.834277,0.009086,-0.017567,-0.550990,-66.904,-1.106,1.979,b6 00 00 00 00 00 00 f2 20 23 00 d1 00 09 eb 07 28 ed
0.761,fused,,0,0x07,"IMU0_OK, IMU1_OK, FUSION_READY",0.999100,0.016100,0.035200,0.017200,2.040,2.040,4.002,1.918,,,,,,,,,,,,,0,,,Not running,,,,,,,,,,,0.999100,0.016100,0.035200,0.017200,1.000000,0.000000,-0.000000,0.000000,0.000,-0.000,0.000,b6 00 00 00 00 00 00 07 27 a1 00 60 01 ac 00 07 00 4b
0.762,fused,,40,0x07,"IMU0_OK, IMU1_OK, FUSION_READY",0.843500,0.003500,0.020900,-0.536700,-64.953,-64.953,2.236,-0.948,,,,,,,,,,,,,0,,,Not running,,,,,,,,,,,0.999100,0.016100,0.035200,0.017200,0.834309,0.009168,-0.017511,-0.550943,-66.897,-1.095,1.983,b6 00 00 00 00 00 00 f3 20 23 00 d1 00 09 eb 07 28 ec
0.762,fused,,0,0x07,"IMU0_OK, IMU1_OK, FUSION_READY",0.999100,0.016200,0.035200,0.017200,2.040,2.040,4.001,1.929,,,,,,,,,,,,,0,,,Not running,,,,,,,,,,,0.999100,0.016200,0.035200,0.017200,1.000000,0.000000,0.000000,0.000000,0.000,0.000,0.000,b6 00 00 00 00 00 00 07 27 a2 00 60 01 ac 00 07 00 48
0.762,fused,,40,0x07,"IMU0_OK, IMU1_OK, FUSION_READY",0.843500,0.003500,0.020900,-0.536600,-64.938,-64.938,2.236,-0.948,,,,,,,,,,,,,0,,,Not running,,,,,,,,,,,0.999100,0.016200,0.035200,0.017200,0.834354,0.009080,-0.017564,-0.550874,-66.888,-1.106,1.978,b6 00 00 00 00 00 00 f3 20 23 00 d1 00 0a eb 07 28 ef
0.763,fused,,0,0x07,"IMU0_OK, IMU1_OK, FUSION_READY",0.999100,0.016200,0.035100,0.017200,2.040,2.040,3.990,1.929,,,,,,,,,,,,,0,,,Not running,,,,,,,,,,,0.999100,0.016200,0.035100,0.017200,1.000000,0.000000,0.000000,0.000000,0.000,0.000,0.000,b6 00 00 00 00 00 00 07 27 a2 00 5f 01 ac 00 07 00 77
0.763,fused,,40,0x07,"IMU0_OK, IMU1_OK, FUSION_READY",0.843500,0.003500,0.020900,-0.536600,-64.938,-64.938,2.236,-0.948,,,,,,,,,,,,,0,,,Not running,,,,,,,,,,,0.999100,0.016200,0.035100,0.017200,0.834355,0.009027,-0.017480,-0.550876,-66.888,-1.101,1.967,b6 00 00 00 00 00 00 f3 20 23 00 d1 00 0a eb 07 28 ef
0.764,fused,,0,0x07,"IMU0_OK, IMU1_OK, FUSION_READY",0.999100,0.016200,0.035100,0.017200,2.040,2.040,3.990,1.929,,,,,,,,,,,,,0,,,Not running,,,,,,,,,,,0.999100,0.016200,0.035100,0.017200,1.000000,0.000000,0.000000,0.000000,0.000,0.000,0.000,b6 00 00 00 00 00 00 07 27 a2 00 5f 01 ac 00 07 00 77
0.820,fused,,40,0x07,"IMU0_OK, IMU1_OK, FUSION_READY",0.843500,0.003500,0.020900,-0.536600,-64.938,-64.938,2.236,-0.948,,,,,,,,,,,,,0,,,Not running,,,,,,,,,,,0.999100,0.016200,0.035100,0.017200,0.834355,0.009027,-0.017480,-0.550876,-66.888,-1.101,1.967,b6 00 00 00 00 00 00 f3 20 23 00 d1 00 0a eb 07 28 ef
0.821,fused,,0,0x07,"IMU0_OK, IMU1_OK, FUSION_READY",0.999000,0.016200,0.035200,0.017200,2.040,2.040,4.001,1.929,,,,,,,,,,,,,0,,,Not running,,,,,,,,,,,0.999000,0.016200,0.035200,0.017200,1.000000,0.000000,0.000000,0.000000,0.000,0.000,0.000,b6 00 00 00 00 00 00 06 27 a2 00 60 01 ac 00 07 00 49
0.821,fused,,40,0x07,"IMU0_OK, IMU1_OK, FUSION_READY",0.843500,0.003400,0.021000,-0.536600,-64.939,-64.939,2.239,-0.963,,,,,,,,,,,,,0,,,Not running,,,,,,,,,,,0.999000,0.016200,0.035200,0.017200,0.834354,0.008983,-0.017466,-0.550880,-66.888,-1.103,1.962,b6 00 00 00 00 00 00 f3 20 22 00 d2 00 0a eb 07 28 ed
0.822,fused,,0,0x07,"IMU0_OK, IMU1_OK, FUSION_READY",0.999000,0.016200,0.035200,0.017200,2.040,2.040,4.001,1.929,,,,,,,,,,,,,0,,,Not running,,,,,,,,,,,0.999000,0.016200,0.035200,0.017200,1.000000,0.000000,0.000000,0.000000,0.000,0.000,0.000,b6 00 00 00 00 00 00 06 27 a2 00 60 01 ac 00 07 00 49
0.822,fused,,40,0x07,"IMU0_OK, IMU1_OK, FUSION_READY",0.843500,0.003400,0.021000,-0.536600,-64.939,-64.939,2.239,-0.963,,,,,,,,,,,,,0,,,Not running,,,,,,,,,,,0.999000,0.016200,0.035200,0.017200,0.834354,0.008983,-0.017466,-0.550880,-66.888,-1.103,1.962,b6 00 00 00 00 00 00 f3 20 22 00 d2 00 0a eb 07 28 ed
0.823,fused,,0,0x07,"IMU0_OK, IMU1_OK, FUSION_READY",0.999000,0.016200,0.035200,0.017200,2.040,2.040,4.001,1.929,,,,,,,,,,,,,0,,,Not running,,,,,,,,,,,0.999000,0.016200,0.035200,0.017200,1.000000,0.000000,0.000000,0.000000,0.000,0.000,0.000,b6 00 00 00 00 00 00 06 27 a2 00 60 01 ac 00 07 00 49
0.823,fused,,40,0x07,"IMU0_OK, IMU1_OK, FUSION_READY",0.843500,0.003400,0.021000,-0.536600,-64.939,-64.939,2.239,-0.963,,,,,,,,,,,,,0,,,Not running,,,,,,,,,,,0.999000,0.016200,0.035200,0.017200,0.834354,0.008983,-0.017466,-0.550880,-66.888,-1.103,1.962,b6 00 00 00 00 00 00 f3 20 22 00 d2 00 0a eb 07 28 ed
0.824,fused,,0,0x07,"IMU0_OK, IMU1_OK, FUSION_READY",0.999000,0.016200,0.035200,0.017200,2.040,2.040,4.001,1.929,,,,,,,,,,,,,0,,,Not running,,,,,,,,,,,0.999000,0.016200,0.035200,0.017200,1.000000,0.000000,0.000000,0.000000,0.000,0.000,0.000,b6 00 00 00 00 00 00 06 27 a2 00 60 01 ac 00 07 00 49
0.824,fused,,40,0x07,"IMU0_OK, IMU1_OK, FUSION_READY",0.843500,0.003500,0.021000,-0.536500,-64.923,-64.923,2.246,-0.954,,,,,,,,,,,,,0,,,Not running,,,,,,,,,,,0.999000,0.016200,0.035200,0.017200,0.834401,0.009080,-0.017467,-0.550805,-66.878,-1.097,1.971,b6 00 00 00 00 00 00 f3 20 23 00 d2 00 0b eb 07 28 ed
0.825,fused,,0,0x07,"IMU0_OK, IMU1_OK, FUSION_READY",0.999000,0.016200,0.035300,0.017200,2.040,2.040,4.012,1.929,,,,,,,,,,,,,0,,,Not running,,,,,,,,,,,0.999000,0.016200,0.035300,0.017200,1.000000,0.000000,0.000000,0.000000,0.000,0.000,0.000,b6 00 00 00 00 00 00 06 27 a2 00 61 01 ac 00 07 00 48
0.825,fused,,40,0x07,"IMU0_OK, IMU1_OK, FUSION_READY",0.843500,0.003500,0.021000,-0.536500,-64.923,-64.923,2.246,-0.954,,,,,,,,,,,,,0,,,Not running,,,,,,,,,,,0.999000,0.016200,0.035300,0.017200,0.834401,0.009133,-0.017552,-0.550803,-66.878,-1.102,1.982,b6 00 00 00 00 00 00 f3 20 23 00 d2 00 0b eb 07 28 ed
0.826,fused,,0,0x07,"IMU0_OK, IMU1_OK, FUSION_READY",0.999000,0.016200,0.035300,0.017200,2.040,2.040,4.012,1.929,,,,,,,,,,,,,0,,,Not running,,,,,,,,,,,0.999000,0.016200,0.035300,0.017200,1.000000,0.000000,0.000000,0.000000,0.000,0.000,0.000,b6 00 00 00 00 00 00 06 27 a2 00 61 01 ac 00 07 00 48
0.826,fused,,40,0x07,"IMU0_OK, IMU1_OK, FUSION_READY",0.843500,0.003500,0.021000,-0.536500,-64.923,-64.923,2.246,-0.954,,,,,,,,,,,,,0,,,Not running,,,,,,,,,,,0.999000,0.016200,0.035300,0.017200,0.834401,0.009133,-0.017552,-0.550803,-66.878,-1.102,1.982,b6 00 00 00 00 00 00 f3 20 23 00 d2 00 0b eb 07 28 ed
0.827,fused,,0,0x07,"IMU0_OK, IMU1_OK, FUSION_READY",0.999000,0.016200,0.035300,0.017200,2.040,2.040,4.012,1.929,,,,,,,,,,,,,0,,,Not running,,,,,,,,,,,0.999000,0.016200,0.035300,0.017200,1.000000,0.000000,0.000000,0.000000,0.000,0.000,0.000,b6 00 00 00 00 00 00 06 27 a2 00 61 01 ac 00 07 00 48
0.896,fused,,40,0x07,"IMU0_OK, IMU1_OK, FUSION_READY",0.843500,0.003500,0.021000,-0.536500,-64.923,-64.923,2.246,-0.954,,,,,,,,,,,,,0,,,Not running,,,,,,,,,,,0.999000,0.016200,0.035300,0.017200,0.834401,0.009133,-0.017552,-0.550803,-66.878,-1.102,1.982,b6 00 00 00 00 00 00 f3 20 23 00 d2 00 0b eb 07 28 ed
0.896,fused,,0,0x07,"IMU0_OK, IMU1_OK, FUSION_READY",0.999000,0.016200,0.035300,0.017200,2.040,2.040,4.012,1.929,,,,,,,,,,,,,0,,,Not running,,,,,,,,,,,0.999000,0.016200,0.035300,0.017200,1.000000,0.000000,0.000000,0.000000,0.000,0.000,0.000,b6 00 00 00 00 00 00 06 27 a2 00 61 01 ac 00 07 00 48
0.897,fused,,40,0x07,"IMU0_OK, IMU1_OK, FUSION_READY",0.843500,0.003500,0.021000,-0.536500,-64.923,-64.923,2.246,-0.954,,,,,,,,,,,,,0,,,Not running,,,,,,,,,,,0.999000,0.016200,0.035300,0.017200,0.834401,0.009133,-0.017552,-0.550803,-66.878,-1.102,1.982,b6 00 00 00 00 00 00 f3 20 23 00 d2 00 0b eb 07 28 ed
0.897,fused,,0,0x07,"IMU0_OK, IMU1_OK, FUSION_READY",0.999000,0.016200,0.035300,0.017200,2.040,2.040,4.012,1.929,,,,,,,,,,,,,0,,,Not running,,,,,,,,,,,0.999000,0.016200,0.035300,0.017200,1.000000,0.000000,0.000000,0.000000,0.000,0.000,0.000,b6 00 00 00 00 00 00 06 27 a2 00 61 01 ac 00 07 00 48
0.898,fused,,40,0x07,"IMU0_OK, IMU1_OK, FUSION_READY",0.843600,0.003400,0.021000,-0.536500,-64.926,-64.926,2.240,-0.963,,,,,,,,,,,,,0,,,Not running,,,,,,,,,,,0.999000,0.016200,0.035300,0.017200,0.834429,0.009031,-0.017552,-0.550762,-66.872,-1.108,1.972,b6 00 00 00 00 00 00 f4 20 22 00 d2 00 0b eb 07 28 eb
0.898,fused,,0,0x07,"IMU0_OK, IMU1_OK, FUSION_READY",0.999000,0.016200,0.035300,0.017200,2.040,2.040,4.012,1.929,,,,,,,,,,,,,0,,,Not running,,,,,,,,,,,0.999000,0.016200,0.035300,0.017200,1.000000,0.000000,0.000000,0.000000,0.000,0.000,0.000,b6 00 00 00 00 00 00 06 27 a2 00 61 01 ac 00 07 00 48
0.899,fused,,40,0x07,"IMU0_OK, IMU1_OK, FUSION_READY",0.843600,0.003400,0.021000,-0.536500,-64.926,-64.926,2.240,-0.963,,,,,,,,,,,,,0,,,Not running,,,,,,,,,,,0.999000,0.016200,0.035300,0.017200,0.834429,0.009031,-0.017552,-0.550762,-66.872,-1.108,1.972,b6 00 00 00 00 00 00 f4 20 22 00 d2 00 0b eb 07 28 eb
0.899,fused,,0,0x07,"IMU0_OK, IMU1_OK, FUSION_READY",0.999000,0.016200,0.035300,0.017200,2.040,2.040,4.012,1.929,,,,,,,,,,,,,0,,,Not running,,,,,,,,,,,0.999000,0.016200,0.035300,0.017200,1.000000,0.000000,0.000000,0.000000,0.000,0.000,0.000,b6 00 00 00 00 00 00 06 27 a2 00 61 01 ac 00 07 00 48
0.900,fused,,40,0x07,"IMU0_OK, IMU1_OK, FUSION_READY",0.843600,0.003400,0.021000,-0.536500,-64.926,-64.926,2.240,-0.963,,,,,,,,,,,,,0,,,Not running,,,,,,,,,,,0.999000,0.016200,0.035300,0.017200,0.834429,0.009031,-0.017552,-0.550762,-66.872,-1.108,1.972,b6 00 00 00 00 00 00 f4 20 22 00 d2 00 0b eb 07 28 eb
0.900,fused,,0,0x07,"IMU0_OK, IMU1_OK, FUSION_READY",0.999000,0.016200,0.035300,0.017200,2.040,2.040,4.012,1.929,,,,,,,,,,,,,0,,,Not running,,,,,,,,,,,0.999000,0.016200,0.035300,0.017200,1.000000,0.000000,0.000000,0.000000,0.000,0.000,0.000,b6 00 00 00 00 00 00 06 27 a2 00 61 01 ac 00 07 00 48
